[{"type": "Feature", "geometry": {"type": "Point", "coordinates": [3.4723669999999998, 36.760342]}, "properties": {"date": "2020-04-10", "new": 0, "total": 5, "city": "Boumerdes", "province": "Boumerdes", "country": "Algeria"}}, {"type": "Feature", "geometry": {"type": "Point", "coordinates": [6.6, 36.35]}, "properties": {"date": "2020-04-10", "new": 0, "total": 6, "city": "Constantine", "province": "Constantine", "country": "Algeria"}}, {"type": "Feature", "geometry": {"type": "Point", "coordinates": [3.901389, 36.38]}, "properties": {"date": "2020-04-10", "new": 0, "total": 1, "city": "Bouira", "province": "Bouira", "country": "Algeria"}}, {"type": "Feature", "geometry": {"type": "Point", "coordinates": [-0.641389, 35.193889]}, "properties": {"date": "2020-04-10", "new": 0, "total": 1, "city": "Sidi Bel Abbes", "province": "Sidi Bel Abbes", "country": "Algeria"}}, {"type": "Feature", "geometry": {"type": "Point", "coordinates": [17.083610999999998, -22.57]}, "properties": {"date": "2020-04-10", "new": 0, "total": 2, "city": "Windhoek", "province": "", "country": "Namibia"}}, {"type": "Feature", "geometry": {"type": "Point", "coordinates": [3.25, 34.666667]}, "properties": {"date": "2020-04-10", "new": 0, "total": 4, "city": "Djelfa", "province": "Djelfa", "country": "Algeria"}}, {"type": "Feature", "geometry": {"type": "Point", "coordinates": [7.766667, 36.9]}, "properties": {"date": "2020-04-10", "new": 0, "total": 3, "city": "Annaba", "province": "Annaba", "country": "Algeria"}}, {"type": "Feature", "geometry": {"type": "Point", "coordinates": [0.55, 35.733333]}, "properties": {"date": "2020-04-10", "new": 0, "total": 2, "city": "Relizane", "province": "Relizane", "country": "Algeria"}}, {"type": "Feature", "geometry": {"type": "Point", "coordinates": [5.733333, 34.85]}, "properties": {"date": "2020-04-10", "new": 0, "total": 4, "city": "Biskra", "province": "Biskra", "country": "Algeria"}}, {"type": "Feature", "geometry": {"type": "Point", "coordinates": [7.113611, 35.8775]}, "properties": {"date": "2020-04-10", "new": 0, "total": 3, "city": "Oum El Bouaghi", "province": "Oum El Bouaghi", "country": "Algeria"}}, {"type": "Feature", "geometry": {"type": "Point", "coordinates": [17.227929999999997, -22.2558]}, "properties": {"date": "2020-04-10", "new": 0, "total": 4, "city": "", "province": "", "country": "Namibia"}}, {"type": "Feature", "geometry": {"type": "Point", "coordinates": [-1.133333, 35.3]}, "properties": {"date": "2020-04-10", "new": 0, "total": 2, "city": "Ain Temouchent", "province": "Ain Temouchent", "country": "Algeria"}}, {"type": "Feature", "geometry": {"type": "Point", "coordinates": [7.951111, 36.286389]}, "properties": {"date": "2020-04-10", "new": 0, "total": 2, "city": "Souk-Ahras", "province": "Souk-Ahras", "country": "Algeria"}}, {"type": "Feature", "geometry": {"type": "Point", "coordinates": [-2.2166669999999997, 31.616659999999996]}, "properties": {"date": "2020-04-10", "new": 0, "total": 1, "city": "Bechar", "province": "Bechar", "country": "Algeria"}}, {"type": "Feature", "geometry": {"type": "Point", "coordinates": [8.116667, 35.4]}, "properties": {"date": "2020-04-10", "new": 0, "total": 3, "city": "Tebessa", "province": "Tebessa", "country": "Algeria"}}, {"type": "Feature", "geometry": {"type": "Point", "coordinates": [2.9197130000000002, 36.49228]}, "properties": {"date": "2020-04-10", "new": 0, "total": 15, "city": "Blida", "province": "Blida", "country": "Algeria"}}, {"type": "Feature", "geometry": {"type": "Point", "coordinates": [3.0588889999999997, 36.753889]}, "properties": {"date": "2020-04-10", "new": 0, "total": 24, "city": "Alger", "province": "Alger", "country": "Algeria"}}, {"type": "Feature", "geometry": {"type": "Point", "coordinates": [39.268889, 8.541389]}, "properties": {"date": "2020-04-10", "new": 0, "total": 3, "city": "Adama", "province": "Oromia", "country": "Ethiopia"}}, {"type": "Feature", "geometry": {"type": "Point", "coordinates": [-0.6330560000000001, 35.696944]}, "properties": {"date": "2020-04-10", "new": 0, "total": 1, "city": "Oran", "province": "Oran", "country": "Algeria"}}, {"type": "Feature", "geometry": {"type": "Point", "coordinates": [5.066667, 36.75]}, "properties": {"date": "2020-04-10", "new": 0, "total": 4, "city": "Bejaia", "province": "Bejaia", "country": "Algeria"}}, {"type": "Feature", "geometry": {"type": "Point", "coordinates": [-17.464178, 14.694888]}, "properties": {"date": "2020-04-10", "new": 0, "total": 3, "city": "Hospital Center University De Fann", "province": "", "country": "Senegal"}}, {"type": "Feature", "geometry": {"type": "Point", "coordinates": [5.4, 36.183333000000005]}, "properties": {"date": "2020-04-10", "new": 0, "total": 4, "city": "Setif", "province": "Setif", "country": "Algeria"}}, {"type": "Feature", "geometry": {"type": "Point", "coordinates": [4.05, 36.716667]}, "properties": {"date": "2020-04-10", "new": 0, "total": 1, "city": "Tizi Ouzou", "province": "Tizi Ouzou", "country": "Algeria"}}, {"type": "Feature", "geometry": {"type": "Point", "coordinates": [2.4494439999999997, 36.591944]}, "properties": {"date": "2020-04-10", "new": 0, "total": 2, "city": "Tipaza", "province": "Tipaza", "country": "Algeria"}}, {"type": "Feature", "geometry": {"type": "Point", "coordinates": [-1.31667, 34.882776]}, "properties": {"date": "2020-04-10", "new": 0, "total": 1, "city": "Tlemcen", "province": "Tlemcen", "country": "Algeria"}}, {"type": "Feature", "geometry": {"type": "Point", "coordinates": [4.766667, 36.066666999999995]}, "properties": {"date": "2020-04-10", "new": 0, "total": 4, "city": "Bordj Bou-Arreridj", "province": "Bordj Bou-Arreridj", "country": "Algeria"}}, {"type": "Feature", "geometry": {"type": "Point", "coordinates": [37.84561, 0.5537850000000001]}, "properties": {"date": "2020-04-10", "new": 0, "total": 6, "city": "", "province": "", "country": "Kenya"}}, {"type": "Feature", "geometry": {"type": "Point", "coordinates": [2.75, 36.2675]}, "properties": {"date": "2020-04-10", "new": 0, "total": 3, "city": "Medea", "province": "Medea", "country": "Algeria"}}, {"type": "Feature", "geometry": {"type": "Point", "coordinates": [5.75, 36.816666999999995]}, "properties": {"date": "2020-04-10", "new": 0, "total": 2, "city": "Jijel", "province": "Jijel", "country": "Algeria"}}, {"type": "Feature", "geometry": {"type": "Point", "coordinates": [6.1666669999999995, 35.55]}, "properties": {"date": "2020-04-10", "new": 0, "total": 2, "city": "Batna", "province": "Batna", "country": "Algeria"}}, {"type": "Feature", "geometry": {"type": "Point", "coordinates": [7.133333, 35.416667]}, "properties": {"date": "2020-04-10", "new": 0, "total": 1, "city": "Khenchela", "province": "Khenchela", "country": "Algeria"}}, {"type": "Feature", "geometry": {"type": "Point", "coordinates": [6.264444, 36.450278000000004]}, "properties": {"date": "2020-04-10", "new": 0, "total": 1, "city": "Mila", "province": "Mila", "country": "Algeria"}}, {"type": "Feature", "geometry": {"type": "Point", "coordinates": [29.77867, 26.667959999999997]}, "properties": {"date": "2020-04-10", "new": 95, "total": 660, "city": "", "province": "", "country": "Egypt"}}, {"type": "Feature", "geometry": {"type": "Point", "coordinates": [36.8167, -1.2833]}, "properties": {"date": "2020-04-10", "new": 0, "total": 7, "city": "", "province": "Nairobi County", "country": "Kenya"}}, {"type": "Feature", "geometry": {"type": "Point", "coordinates": [29.92595, -2.00007]}, "properties": {"date": "2020-04-10", "new": 0, "total": 54, "city": "", "province": "", "country": "Rwanda"}}, {"type": "Feature", "geometry": {"type": "Point", "coordinates": [7.8333330000000005, 5.0]}, "properties": {"date": "2020-04-10", "new": 0, "total": 5, "city": "", "province": "Akwa Ibom", "country": "Nigeria"}}, {"type": "Feature", "geometry": {"type": "Point", "coordinates": [7.483333, 9.066667]}, "properties": {"date": "2020-04-10", "new": 0, "total": 20, "city": "", "province": "Abuja", "country": "Nigeria"}}, {"type": "Feature", "geometry": {"type": "Point", "coordinates": [7.433333, 10.516667]}, "properties": {"date": "2020-04-10", "new": 0, "total": 2, "city": "", "province": "Kaduna", "country": "Nigeria"}}, {"type": "Feature", "geometry": {"type": "Point", "coordinates": [3.384082, 6.455026999999999]}, "properties": {"date": "2020-04-10", "new": 0, "total": 37, "city": "", "province": "Lagos", "country": "Nigeria"}}, {"type": "Feature", "geometry": {"type": "Point", "coordinates": [10.0, 10.5]}, "properties": {"date": "2020-04-10", "new": 0, "total": 4, "city": "", "province": "Bauchi", "country": "Nigeria"}}, {"type": "Feature", "geometry": {"type": "Point", "coordinates": [4.5, 7.5]}, "properties": {"date": "2020-04-10", "new": 0, "total": 8, "city": "", "province": "Osun", "country": "Nigeria"}}, {"type": "Feature", "geometry": {"type": "Point", "coordinates": [6.0, 6.5]}, "properties": {"date": "2020-04-10", "new": 0, "total": 7, "city": "", "province": "Edo", "country": "Nigeria"}}, {"type": "Feature", "geometry": {"type": "Point", "coordinates": [5.0833330000000005, 7.1666669999999995]}, "properties": {"date": "2020-04-10", "new": 0, "total": 1, "city": "", "province": "Ondo", "country": "Nigeria"}}, {"type": "Feature", "geometry": {"type": "Point", "coordinates": [3.369446, 6.520080999999999]}, "properties": {"date": "2020-04-10", "new": 0, "total": 1, "city": "Lagos", "province": "Lagos", "country": "Nigeria"}}, {"type": "Feature", "geometry": {"type": "Point", "coordinates": [5.0, 8.5]}, "properties": {"date": "2020-04-10", "new": 0, "total": 2, "city": "", "province": "Kwara", "country": "Nigeria"}}, {"type": "Feature", "geometry": {"type": "Point", "coordinates": [6.8333330000000005, 4.75]}, "properties": {"date": "2020-04-10", "new": 0, "total": 1, "city": "", "province": "Rivers", "country": "Nigeria"}}, {"type": "Feature", "geometry": {"type": "Point", "coordinates": [38.74, 9.03]}, "properties": {"date": "2020-04-10", "new": 0, "total": 22, "city": "Addis Ababa", "province": "Addis Ababa", "country": "Ethiopia"}}, {"type": "Feature", "geometry": {"type": "Point", "coordinates": [41.866667, 9.6]}, "properties": {"date": "2020-04-10", "new": 0, "total": 1, "city": "Dire Dawa", "province": "Dire Dawa", "country": "Ethiopia"}}, {"type": "Feature", "geometry": {"type": "Point", "coordinates": [38.9, 8.8]}, "properties": {"date": "2020-04-10", "new": 0, "total": 1, "city": "Dukem", "province": "Oromia", "country": "Ethiopia"}}, {"type": "Feature", "geometry": {"type": "Point", "coordinates": [35.01527, 31.471090000000004]}, "properties": {"date": "2020-04-10", "new": 0, "total": 3, "city": "", "province": "", "country": "Israel"}}, {"type": "Feature", "geometry": {"type": "Point", "coordinates": [36.75, 11.333333]}, "properties": {"date": "2020-04-10", "new": 0, "total": 1, "city": "Addis Kidame", "province": "Amhara", "country": "Ethiopia"}}, {"type": "Feature", "geometry": {"type": "Point", "coordinates": [34.88278, 32.009440000000005]}, "properties": {"date": "2020-04-10", "new": 0, "total": 1, "city": "Ben Gurion Airport", "province": "", "country": "Israel"}}, {"type": "Feature", "geometry": {"type": "Point", "coordinates": [25.833333, -17.933332999999998]}, "properties": {"date": "2020-04-10", "new": 0, "total": 1, "city": "Victoria Falls", "province": "Matabeleland North", "country": "Zimbabwe"}}, {"type": "Feature", "geometry": {"type": "Point", "coordinates": [31.05, -17.85]}, "properties": {"date": "2020-04-10", "new": 0, "total": 6, "city": "Harare", "province": "Harare", "country": "Zimbabwe"}}, {"type": "Feature", "geometry": {"type": "Point", "coordinates": [47.61266, 29.356559999999998]}, "properties": {"date": "2020-04-10", "new": 0, "total": 1, "city": "", "province": "", "country": "Kuwait"}}, {"type": "Feature", "geometry": {"type": "Point", "coordinates": [-17.52, 14.75]}, "properties": {"date": "2020-04-10", "new": 0, "total": 1, "city": "Almadies", "province": "Dakar", "country": "Senegal"}}, {"type": "Feature", "geometry": {"type": "Point", "coordinates": [2.340332, 9.664529]}, "properties": {"date": "2020-04-10", "new": 0, "total": 4, "city": "", "province": "", "country": "Benin"}}, {"type": "Feature", "geometry": {"type": "Point", "coordinates": [-77.27565836, 38.83677558]}, "properties": {"date": "2020-04-10", "new": 0, "total": 42, "city": "Fairfax", "province": "Virginia", "country": "United States"}}, {"type": "Feature", "geometry": {"type": "Point", "coordinates": [-77.80647472, 38.73564842]}, "properties": {"date": "2020-04-10", "new": 0, "total": 3, "city": "Fauquier", "province": "Virginia", "country": "United States"}}, {"type": "Feature", "geometry": {"type": "Point", "coordinates": [-80.36738849, 36.9302126]}, "properties": {"date": "2020-04-10", "new": 0, "total": 1, "city": "Floyd", "province": "Virginia", "country": "United States"}}, {"type": "Feature", "geometry": {"type": "Point", "coordinates": [-78.27715475, 37.84157909]}, "properties": {"date": "2020-04-10", "new": 0, "total": 4, "city": "Fluvanna", "province": "Virginia", "country": "United States"}}, {"type": "Feature", "geometry": {"type": "Point", "coordinates": [-79.88023649, 36.99536167]}, "properties": {"date": "2020-04-10", "new": 0, "total": 1, "city": "Franklin", "province": "Virginia", "country": "United States"}}, {"type": "Feature", "geometry": {"type": "Point", "coordinates": [-78.25974949, 39.20172582]}, "properties": {"date": "2020-04-10", "new": 0, "total": 8, "city": "Frederick", "province": "Virginia", "country": "United States"}}, {"type": "Feature", "geometry": {"type": "Point", "coordinates": [-77.56351439, 36.67878901]}, "properties": {"date": "2020-04-10", "new": 0, "total": 1, "city": "Greensville", "province": "Virginia", "country": "United States"}}, {"type": "Feature", "geometry": {"type": "Point", "coordinates": [-78.93512622, 36.76654925]}, "properties": {"date": "2020-04-10", "new": 0, "total": 2, "city": "Halifax", "province": "Virginia", "country": "United States"}}, {"type": "Feature", "geometry": {"type": "Point", "coordinates": [-77.49464673, 37.7583355]}, "properties": {"date": "2020-04-10", "new": 0, "total": 7, "city": "Hanover", "province": "Virginia", "country": "United States"}}, {"type": "Feature", "geometry": {"type": "Point", "coordinates": [-77.39326555, 37.53460572]}, "properties": {"date": "2020-04-10", "new": 0, "total": 28, "city": "Henrico", "province": "Virginia", "country": "United States"}}, {"type": "Feature", "geometry": {"type": "Point", "coordinates": [-79.87634026, 36.68542395]}, "properties": {"date": "2020-04-10", "new": 0, "total": 1, "city": "Henry", "province": "Virginia", "country": "United States"}}, {"type": "Feature", "geometry": {"type": "Point", "coordinates": [-76.70842863, 36.90579348]}, "properties": {"date": "2020-04-10", "new": 0, "total": 1, "city": "Isle of Wight", "province": "Virginia", "country": "United States"}}, {"type": "Feature", "geometry": {"type": "Point", "coordinates": [-76.76950618, 37.31156958]}, "properties": {"date": "2020-04-10", "new": 0, "total": 1, "city": "James City", "province": "Virginia", "country": "United States"}}, {"type": "Feature", "geometry": {"type": "Point", "coordinates": [-76.88689628, 37.71044922]}, "properties": {"date": "2020-04-10", "new": 0, "total": 1, "city": "King and Queen", "province": "Virginia", "country": "United States"}}, {"type": "Feature", "geometry": {"type": "Point", "coordinates": [-77.15852768, 38.26818502]}, "properties": {"date": "2020-04-10", "new": 0, "total": 2, "city": "King George", "province": "Virginia", "country": "United States"}}, {"type": "Feature", "geometry": {"type": "Point", "coordinates": [-77.63481877, 39.08990083]}, "properties": {"date": "2020-04-10", "new": 0, "total": 20, "city": "Loudoun", "province": "Virginia", "country": "United States"}}, {"type": "Feature", "geometry": {"type": "Point", "coordinates": [-77.96274807, 37.97850256]}, "properties": {"date": "2020-04-10", "new": 0, "total": 1, "city": "Louisa", "province": "Virginia", "country": "United States"}}, {"type": "Feature", "geometry": {"type": "Point", "coordinates": [-78.36131056, 36.67882005]}, "properties": {"date": "2020-04-10", "new": 0, "total": 9, "city": "Mecklenburg", "province": "Virginia", "country": "United States"}}, {"type": "Feature", "geometry": {"type": "Point", "coordinates": [-76.55064617, 37.63191998]}, "properties": {"date": "2020-04-10", "new": 0, "total": 2, "city": "Middlesex", "province": "Virginia", "country": "United States"}}, {"type": "Feature", "geometry": {"type": "Point", "coordinates": [-80.37868691, 37.17746986]}, "properties": {"date": "2020-04-10", "new": 0, "total": 1, "city": "Montgomery", "province": "Virginia", "country": "United States"}}, {"type": "Feature", "geometry": {"type": "Point", "coordinates": [-78.01560400000002, 38.24530219]}, "properties": {"date": "2020-04-10", "new": 0, "total": 2, "city": "Orange", "province": "Virginia", "country": "United States"}}, {"type": "Feature", "geometry": {"type": "Point", "coordinates": [-78.48797204, 38.61807452]}, "properties": {"date": "2020-04-10", "new": 0, "total": 2, "city": "Page", "province": "Virginia", "country": "United States"}}, {"type": "Feature", "geometry": {"type": "Point", "coordinates": [-79.39731264, 36.81980341]}, "properties": {"date": "2020-04-10", "new": 0, "total": 1, "city": "Pittsylvania", "province": "Virginia", "country": "United States"}}, {"type": "Feature", "geometry": {"type": "Point", "coordinates": [-77.22922187, 37.18497668]}, "properties": {"date": "2020-04-10", "new": 0, "total": 1, "city": "Prince George", "province": "Virginia", "country": "United States"}}, {"type": "Feature", "geometry": {"type": "Point", "coordinates": [-77.48713689, 38.70916224]}, "properties": {"date": "2020-04-10", "new": 0, "total": 36, "city": "Prince William", "province": "Virginia", "country": "United States"}}, {"type": "Feature", "geometry": {"type": "Point", "coordinates": [-80.71229738, 37.06474963]}, "properties": {"date": "2020-04-10", "new": 0, "total": 1, "city": "Pulaski", "province": "Virginia", "country": "United States"}}, {"type": "Feature", "geometry": {"type": "Point", "coordinates": [-76.72920628, 37.937575]}, "properties": {"date": "2020-04-10", "new": 0, "total": 1, "city": "Richmond", "province": "Virginia", "country": "United States"}}, {"type": "Feature", "geometry": {"type": "Point", "coordinates": [-78.87260325, 38.51006137]}, "properties": {"date": "2020-04-10", "new": 0, "total": 1, "city": "Rockingham", "province": "Virginia", "country": "United States"}}, {"type": "Feature", "geometry": {"type": "Point", "coordinates": [-78.56813762, 38.85905135]}, "properties": {"date": "2020-04-10", "new": 0, "total": 2, "city": "Shenandoah", "province": "Virginia", "country": "United States"}}, {"type": "Feature", "geometry": {"type": "Point", "coordinates": [-81.53344948, 36.84455636]}, "properties": {"date": "2020-04-10", "new": 0, "total": 3, "city": "Smyth", "province": "Virginia", "country": "United States"}}, {"type": "Feature", "geometry": {"type": "Point", "coordinates": [-77.655399, 38.18574462]}, "properties": {"date": "2020-04-10", "new": 0, "total": 5, "city": "Spotsylvania", "province": "Virginia", "country": "United States"}}, {"type": "Feature", "geometry": {"type": "Point", "coordinates": [-77.45917053, 38.41758738]}, "properties": {"date": "2020-04-10", "new": 0, "total": 6, "city": "Stafford", "province": "Virginia", "country": "United States"}}, {"type": "Feature", "geometry": {"type": "Point", "coordinates": [-78.20280433, 38.90847745]}, "properties": {"date": "2020-04-10", "new": 0, "total": 1, "city": "Warren", "province": "Virginia", "country": "United States"}}, {"type": "Feature", "geometry": {"type": "Point", "coordinates": [-81.95666289, 36.72341572]}, "properties": {"date": "2020-04-10", "new": 0, "total": 3, "city": "Washington", "province": "Virginia", "country": "United States"}}, {"type": "Feature", "geometry": {"type": "Point", "coordinates": [-82.62410519, 36.9746148]}, "properties": {"date": "2020-04-10", "new": 0, "total": 1, "city": "Wise", "province": "Virginia", "country": "United States"}}, {"type": "Feature", "geometry": {"type": "Point", "coordinates": [-77.08183073, 38.814003]}, "properties": {"date": "2020-04-10", "new": 0, "total": 6, "city": "Alexandria", "province": "Virginia", "country": "United States"}}, {"type": "Feature", "geometry": {"type": "Point", "coordinates": [-78.48569588, 38.03527919]}, "properties": {"date": "2020-04-10", "new": 0, "total": 4, "city": "Charlottesville", "province": "Virginia", "country": "United States"}}, {"type": "Feature", "geometry": {"type": "Point", "coordinates": [-76.30545744, 36.67670048]}, "properties": {"date": "2020-04-10", "new": 0, "total": 2, "city": "Chesapeake", "province": "Virginia", "country": "United States"}}, {"type": "Feature", "geometry": {"type": "Point", "coordinates": [-77.39609676, 37.26420587]}, "properties": {"date": "2020-04-10", "new": 0, "total": 1, "city": "Colonial Heights", "province": "Virginia", "country": "United States"}}, {"type": "Feature", "geometry": {"type": "Point", "coordinates": [-79.40395668, 36.58022376]}, "properties": {"date": "2020-04-10", "new": 0, "total": 4, "city": "Danville", "province": "Virginia", "country": "United States"}}, {"type": "Feature", "geometry": {"type": "Point", "coordinates": [-77.53406129, 36.69455571]}, "properties": {"date": "2020-04-10", "new": 0, "total": 1, "city": "Emporia", "province": "Virginia", "country": "United States"}}, {"type": "Feature", "geometry": {"type": "Point", "coordinates": [-76.93859681, 36.6831435]}, "properties": {"date": "2020-04-10", "new": 0, "total": 1, "city": "Franklin City", "province": "Virginia", "country": "United States"}}, {"type": "Feature", "geometry": {"type": "Point", "coordinates": [-77.4922454, 38.2977863]}, "properties": {"date": "2020-04-10", "new": 0, "total": 2, "city": "Fredericksburg", "province": "Virginia", "country": "United States"}}, {"type": "Feature", "geometry": {"type": "Point", "coordinates": [-78.87536254, 38.43542574]}, "properties": {"date": "2020-04-10", "new": 0, "total": 3, "city": "Harrisonburg", "province": "Virginia", "country": "United States"}}, {"type": "Feature", "geometry": {"type": "Point", "coordinates": [-79.19888138, 37.40021399]}, "properties": {"date": "2020-04-10", "new": 0, "total": 1, "city": "Lynchburg", "province": "Virginia", "country": "United States"}}, {"type": "Feature", "geometry": {"type": "Point", "coordinates": [-77.48509905, 38.7464321]}, "properties": {"date": "2020-04-10", "new": 0, "total": 5, "city": "Manassas", "province": "Virginia", "country": "United States"}}, {"type": "Feature", "geometry": {"type": "Point", "coordinates": [-76.51754109, 37.08166899]}, "properties": {"date": "2020-04-10", "new": 0, "total": 4, "city": "Newport News", "province": "Virginia", "country": "United States"}}, {"type": "Feature", "geometry": {"type": "Point", "coordinates": [-76.26420872, 36.89934014]}, "properties": {"date": "2020-04-10", "new": 0, "total": 7, "city": "Norfolk", "province": "Virginia", "country": "United States"}}, {"type": "Feature", "geometry": {"type": "Point", "coordinates": [-77.39368102, 37.20530399]}, "properties": {"date": "2020-04-10", "new": 0, "total": 3, "city": "Petersburg", "province": "Virginia", "country": "United States"}}, {"type": "Feature", "geometry": {"type": "Point", "coordinates": [-76.35798148, 37.14259351]}, "properties": {"date": "2020-04-10", "new": 0, "total": 1, "city": "Poquoson", "province": "Virginia", "country": "United States"}}, {"type": "Feature", "geometry": {"type": "Point", "coordinates": [-76.35971629, 36.85914825]}, "properties": {"date": "2020-04-10", "new": 0, "total": 3, "city": "Portsmouth", "province": "Virginia", "country": "United States"}}, {"type": "Feature", "geometry": {"type": "Point", "coordinates": [-77.47966921, 37.53255773]}, "properties": {"date": "2020-04-10", "new": 0, "total": 7, "city": "Richmond City", "province": "Virginia", "country": "United States"}}, {"type": "Feature", "geometry": {"type": "Point", "coordinates": [-79.96189766, 37.27791025]}, "properties": {"date": "2020-04-10", "new": 0, "total": 1, "city": "Roanoke City", "province": "Virginia", "country": "United States"}}, {"type": "Feature", "geometry": {"type": "Point", "coordinates": [-76.04566934, 36.73285734]}, "properties": {"date": "2020-04-10", "new": 0, "total": 12, "city": "Virginia Beach", "province": "Virginia", "country": "United States"}}, {"type": "Feature", "geometry": {"type": "Point", "coordinates": [-78.90293905, 38.06451466]}, "properties": {"date": "2020-04-10", "new": 0, "total": 1, "city": "Waynesboro", "province": "Virginia", "country": "United States"}}, {"type": "Feature", "geometry": {"type": "Point", "coordinates": [-78.17325058, 39.17054517]}, "properties": {"date": "2020-04-10", "new": 0, "total": 1, "city": "Winchester", "province": "Virginia", "country": "United States"}}, {"type": "Feature", "geometry": {"type": "Point", "coordinates": [-118.56017340000001, 46.98299757]}, "properties": {"date": "2020-04-10", "new": 0, "total": 1, "city": "Adams", "province": "Washington", "country": "United States"}}, {"type": "Feature", "geometry": {"type": "Point", "coordinates": [-119.51208340000001, 46.23946995]}, "properties": {"date": "2020-04-10", "new": 0, "total": 36, "city": "Benton", "province": "Washington", "country": "United States"}}, {"type": "Feature", "geometry": {"type": "Point", "coordinates": [-120.6173956, 47.87046092]}, "properties": {"date": "2020-04-10", "new": 0, "total": 9, "city": "Chelan", "province": "Washington", "country": "United States"}}, {"type": "Feature", "geometry": {"type": "Point", "coordinates": [-123.92263190000001, 48.04754642]}, "properties": {"date": "2020-04-10", "new": 0, "total": 1, "city": "Clallam", "province": "Washington", "country": "United States"}}, {"type": "Feature", "geometry": {"type": "Point", "coordinates": [-122.48292040000001, 45.77568046]}, "properties": {"date": "2020-04-10", "new": 0, "total": 16, "city": "Clark", "province": "Washington", "country": "United States"}}, {"type": "Feature", "geometry": {"type": "Point", "coordinates": [-122.6782231, 46.19074721]}, "properties": {"date": "2020-04-10", "new": 0, "total": 2, "city": "Cowlitz", "province": "Washington", "country": "United States"}}, {"type": "Feature", "geometry": {"type": "Point", "coordinates": [-119.69293700000001, 47.7361335]}, "properties": {"date": "2020-04-10", "new": 0, "total": 2, "city": "Douglas", "province": "Washington", "country": "United States"}}, {"type": "Feature", "geometry": {"type": "Point", "coordinates": [-118.9018212, 46.53351425]}, "properties": {"date": "2020-04-10", "new": 0, "total": 11, "city": "Franklin", "province": "Washington", "country": "United States"}}, {"type": "Feature", "geometry": {"type": "Point", "coordinates": [-119.4500749, 47.20753737]}, "properties": {"date": "2020-04-10", "new": 0, "total": 1, "city": "Grant", "province": "Washington", "country": "United States"}}, {"type": "Feature", "geometry": {"type": "Point", "coordinates": [-122.5216407, 48.14713305]}, "properties": {"date": "2020-04-10", "new": 0, "total": 10, "city": "Island", "province": "Washington", "country": "United States"}}, {"type": "Feature", "geometry": {"type": "Point", "coordinates": [-121.8346131, 47.49137892]}, "properties": {"date": "2020-04-10", "new": 0, "total": 198, "city": "King", "province": "Washington", "country": "United States"}}, {"type": "Feature", "geometry": {"type": "Point", "coordinates": [-122.6436061, 47.63479026]}, "properties": {"date": "2020-04-10", "new": 0, "total": 1, "city": "Kitsap", "province": "Washington", "country": "United States"}}, {"type": "Feature", "geometry": {"type": "Point", "coordinates": [-120.67943899999999, 47.12521214]}, "properties": {"date": "2020-04-10", "new": 0, "total": 2, "city": "Kittitas", "province": "Washington", "country": "United States"}}, {"type": "Feature", "geometry": {"type": "Point", "coordinates": [-120.7913598, 45.87325839]}, "properties": {"date": "2020-04-10", "new": 0, "total": 1, "city": "Klickitat", "province": "Washington", "country": "United States"}}, {"type": "Feature", "geometry": {"type": "Point", "coordinates": [-122.39257690000001, 46.57756476]}, "properties": {"date": "2020-04-10", "new": 0, "total": 1, "city": "Lewis", "province": "Washington", "country": "United States"}}, {"type": "Feature", "geometry": {"type": "Point", "coordinates": [-119.73872240000001, 48.54855019]}, "properties": {"date": "2020-04-10", "new": 0, "total": 2, "city": "Okanogan", "province": "Washington", "country": "United States"}}, {"type": "Feature", "geometry": {"type": "Point", "coordinates": [-122.14059579999999, 47.03892768]}, "properties": {"date": "2020-04-10", "new": 0, "total": 43, "city": "Pierce", "province": "Washington", "country": "United States"}}, {"type": "Feature", "geometry": {"type": "Point", "coordinates": [-121.766131, 48.48171488]}, "properties": {"date": "2020-04-10", "new": 0, "total": 3, "city": "Skagit", "province": "Washington", "country": "United States"}}, {"type": "Feature", "geometry": {"type": "Point", "coordinates": [-121.7170703, 48.04615983]}, "properties": {"date": "2020-04-10", "new": 0, "total": 50, "city": "Snohomish", "province": "Washington", "country": "United States"}}, {"type": "Feature", "geometry": {"type": "Point", "coordinates": [-117.4046494, 47.62113146]}, "properties": {"date": "2020-04-10", "new": 0, "total": 7, "city": "Spokane", "province": "Washington", "country": "United States"}}, {"type": "Feature", "geometry": {"type": "Point", "coordinates": [-117.8542701, 48.40035475]}, "properties": {"date": "2020-04-10", "new": 0, "total": 1, "city": "Stevens", "province": "Washington", "country": "United States"}}, {"type": "Feature", "geometry": {"type": "Point", "coordinates": [-122.82906559999999, 46.9291895]}, "properties": {"date": "2020-04-10", "new": 0, "total": 3, "city": "Thurston", "province": "Washington", "country": "United States"}}, {"type": "Feature", "geometry": {"type": "Point", "coordinates": [-118.4775539, 46.23040051]}, "properties": {"date": "2020-04-10", "new": 0, "total": 1, "city": "Walla Walla", "province": "Washington", "country": "United States"}}, {"type": "Feature", "geometry": {"type": "Point", "coordinates": [-121.74900179999999, 48.82227976]}, "properties": {"date": "2020-04-10", "new": 0, "total": 5, "city": "Whatcom", "province": "Washington", "country": "United States"}}, {"type": "Feature", "geometry": {"type": "Point", "coordinates": [-120.73801259999999, 46.45738486]}, "properties": {"date": "2020-04-10", "new": 0, "total": 33, "city": "Yakima", "province": "Washington", "country": "United States"}}, {"type": "Feature", "geometry": {"type": "Point", "coordinates": [-80.00350858, 39.1307219]}, "properties": {"date": "2020-04-10", "new": 0, "total": 1, "city": "Barbour", "province": "West Virginia", "country": "United States"}}, {"type": "Feature", "geometry": {"type": "Point", "coordinates": [-78.02414609, 39.46704621]}, "properties": {"date": "2020-04-10", "new": 0, "total": 16, "city": "Berkeley", "province": "West Virginia", "country": "United States"}}, {"type": "Feature", "geometry": {"type": "Point", "coordinates": [-80.57915332, 40.27367263]}, "properties": {"date": "2020-04-10", "new": 0, "total": 1, "city": "Brooke", "province": "West Virginia", "country": "United States"}}, {"type": "Feature", "geometry": {"type": "Point", "coordinates": [-82.23855912, 38.42424062]}, "properties": {"date": "2020-04-10", "new": 0, "total": 5, "city": "Cabell", "province": "West Virginia", "country": "United States"}}, {"type": "Feature", "geometry": {"type": "Point", "coordinates": [-78.60826476, 39.32103553]}, "properties": {"date": "2020-04-10", "new": 0, "total": 1, "city": "Hampshire", "province": "West Virginia", "country": "United States"}}, {"type": "Feature", "geometry": {"type": "Point", "coordinates": [-81.68148753, 38.84263974]}, "properties": {"date": "2020-04-10", "new": 0, "total": 1, "city": "Jackson", "province": "West Virginia", "country": "United States"}}, {"type": "Feature", "geometry": {"type": "Point", "coordinates": [-77.86014147, 39.30776166]}, "properties": {"date": "2020-04-10", "new": 0, "total": 7, "city": "Jefferson", "province": "West Virginia", "country": "United States"}}, {"type": "Feature", "geometry": {"type": "Point", "coordinates": [-81.52857054, 38.33860077]}, "properties": {"date": "2020-04-10", "new": 0, "total": 4, "city": "Kanawha", "province": "West Virginia", "country": "United States"}}, {"type": "Feature", "geometry": {"type": "Point", "coordinates": [-81.65083669, 37.38002939]}, "properties": {"date": "2020-04-10", "new": 0, "total": 1, "city": "McDowell", "province": "West Virginia", "country": "United States"}}, {"type": "Feature", "geometry": {"type": "Point", "coordinates": [-80.24244659, 39.50984542]}, "properties": {"date": "2020-04-10", "new": 0, "total": 1, "city": "Marion", "province": "West Virginia", "country": "United States"}}, {"type": "Feature", "geometry": {"type": "Point", "coordinates": [-82.02524219, 38.77071799]}, "properties": {"date": "2020-04-10", "new": 0, "total": 1, "city": "Mason", "province": "West Virginia", "country": "United States"}}, {"type": "Feature", "geometry": {"type": "Point", "coordinates": [-81.11023142, 37.40481169]}, "properties": {"date": "2020-04-10", "new": 0, "total": 1, "city": "Mercer", "province": "West Virginia", "country": "United States"}}, {"type": "Feature", "geometry": {"type": "Point", "coordinates": [-80.04766838, 39.63218457]}, "properties": {"date": "2020-04-10", "new": 0, "total": 8, "city": "Monongalia", "province": "West Virginia", "country": "United States"}}, {"type": "Feature", "geometry": {"type": "Point", "coordinates": [-80.62203992, 40.0955451]}, "properties": {"date": "2020-04-10", "new": 0, "total": 2, "city": "Ohio", "province": "West Virginia", "country": "United States"}}, {"type": "Feature", "geometry": {"type": "Point", "coordinates": [-81.2456041, 37.76936795]}, "properties": {"date": "2020-04-10", "new": 0, "total": 1, "city": "Raleigh", "province": "West Virginia", "country": "United States"}}, {"type": "Feature", "geometry": {"type": "Point", "coordinates": [-80.23689136, 38.89285061]}, "properties": {"date": "2020-04-10", "new": 0, "total": 1, "city": "Upshur", "province": "West Virginia", "country": "United States"}}, {"type": "Feature", "geometry": {"type": "Point", "coordinates": [-91.84833627, 45.42372701]}, "properties": {"date": "2020-04-10", "new": 0, "total": 1, "city": "Barron", "province": "Wisconsin", "country": "United States"}}, {"type": "Feature", "geometry": {"type": "Point", "coordinates": [-88.00411844, 44.452655299999996]}, "properties": {"date": "2020-04-10", "new": 0, "total": 9, "city": "Brown", "province": "Wisconsin", "country": "United States"}}, {"type": "Feature", "geometry": {"type": "Point", "coordinates": [-91.28068855, 45.06939744]}, "properties": {"date": "2020-04-10", "new": 0, "total": 1, "city": "Chippewa", "province": "Wisconsin", "country": "United States"}}, {"type": "Feature", "geometry": {"type": "Point", "coordinates": [-89.33589004, 43.46492199]}, "properties": {"date": "2020-04-10", "new": 0, "total": 2, "city": "Columbia", "province": "Wisconsin", "country": "United States"}}, {"type": "Feature", "geometry": {"type": "Point", "coordinates": [-89.41733797, 43.06601594]}, "properties": {"date": "2020-04-10", "new": 0, "total": 4, "city": "Dane", "province": "Wisconsin", "country": "United States"}}, {"type": "Feature", "geometry": {"type": "Point", "coordinates": [-88.70928178, 43.41576662]}, "properties": {"date": "2020-04-10", "new": 0, "total": 1, "city": "Dodge", "province": "Wisconsin", "country": "United States"}}, {"type": "Feature", "geometry": {"type": "Point", "coordinates": [-87.30002707, 44.95856458]}, "properties": {"date": "2020-04-10", "new": 0, "total": 1, "city": "Door", "province": "Wisconsin", "country": "United States"}}, {"type": "Feature", "geometry": {"type": "Point", "coordinates": [-91.8962481, 44.94562799]}, "properties": {"date": "2020-04-10", "new": 0, "total": 2, "city": "Dunn", "province": "Wisconsin", "country": "United States"}}, {"type": "Feature", "geometry": {"type": "Point", "coordinates": [-88.48885325, 43.75354908]}, "properties": {"date": "2020-04-10", "new": 0, "total": 5, "city": "Fond du Lac", "province": "Wisconsin", "country": "United States"}}, {"type": "Feature", "geometry": {"type": "Point", "coordinates": [-90.7063218, 42.8671731]}, "properties": {"date": "2020-04-10", "new": 0, "total": 1, "city": "Grant", "province": "Wisconsin", "country": "United States"}}, {"type": "Feature", "geometry": {"type": "Point", "coordinates": [-90.80566792, 44.31864893]}, "properties": {"date": "2020-04-10", "new": 0, "total": 3, "city": "Jackson", "province": "Wisconsin", "country": "United States"}}, {"type": "Feature", "geometry": {"type": "Point", "coordinates": [-88.77529134, 43.02054068]}, "properties": {"date": "2020-04-10", "new": 0, "total": 4, "city": "Jefferson", "province": "Wisconsin", "country": "United States"}}, {"type": "Feature", "geometry": {"type": "Point", "coordinates": [-88.04051686, 42.57639354]}, "properties": {"date": "2020-04-10", "new": 0, "total": 8, "city": "Kenosha", "province": "Wisconsin", "country": "United States"}}, {"type": "Feature", "geometry": {"type": "Point", "coordinates": [-91.11451093, 43.90632465]}, "properties": {"date": "2020-04-10", "new": 0, "total": 1, "city": "La Crosse", "province": "Wisconsin", "country": "United States"}}, {"type": "Feature", "geometry": {"type": "Point", "coordinates": [-90.1317729, 42.66005229]}, "properties": {"date": "2020-04-10", "new": 0, "total": 1, "city": "Lafayette", "province": "Wisconsin", "country": "United States"}}, {"type": "Feature", "geometry": {"type": "Point", "coordinates": [-87.80928853, 44.11946801]}, "properties": {"date": "2020-04-10", "new": 0, "total": 1, "city": "Manitowoc", "province": "Wisconsin", "country": "United States"}}, {"type": "Feature", "geometry": {"type": "Point", "coordinates": [-87.96733172, 43.00486062]}, "properties": {"date": "2020-04-10", "new": 0, "total": 68, "city": "Milwaukee", "province": "Wisconsin", "country": "United States"}}, {"type": "Feature", "geometry": {"type": "Point", "coordinates": [-90.61881899999999, 43.94641218]}, "properties": {"date": "2020-04-10", "new": 0, "total": 1, "city": "Monroe", "province": "Wisconsin", "country": "United States"}}, {"type": "Feature", "geometry": {"type": "Point", "coordinates": [-88.26807503, 45.02715345]}, "properties": {"date": "2020-04-10", "new": 0, "total": 2, "city": "Oconto", "province": "Wisconsin", "country": "United States"}}, {"type": "Feature", "geometry": {"type": "Point", "coordinates": [-88.46565023, 44.41578887]}, "properties": {"date": "2020-04-10", "new": 0, "total": 1, "city": "Outagamie", "province": "Wisconsin", "country": "United States"}}, {"type": "Feature", "geometry": {"type": "Point", "coordinates": [-87.94625009, 43.38352225]}, "properties": {"date": "2020-04-10", "new": 0, "total": 1, "city": "Ozaukee", "province": "Wisconsin", "country": "United States"}}, {"type": "Feature", "geometry": {"type": "Point", "coordinates": [-88.05941254, 42.74753117]}, "properties": {"date": "2020-04-10", "new": 0, "total": 18, "city": "Racine", "province": "Wisconsin", "country": "United States"}}, {"type": "Feature", "geometry": {"type": "Point", "coordinates": [-89.07147900000002, 42.67151616]}, "properties": {"date": "2020-04-10", "new": 0, "total": 10, "city": "Rock", "province": "Wisconsin", "country": "United States"}}, {"type": "Feature", "geometry": {"type": "Point", "coordinates": [-89.94966132, 43.42574087]}, "properties": {"date": "2020-04-10", "new": 0, "total": 1, "city": "Sauk", "province": "Wisconsin", "country": "United States"}}, {"type": "Feature", "geometry": {"type": "Point", "coordinates": [-91.14504927, 45.87931905]}, "properties": {"date": "2020-04-10", "new": 0, "total": 1, "city": "Sawyer", "province": "Wisconsin", "country": "United States"}}, {"type": "Feature", "geometry": {"type": "Point", "coordinates": [-88.76443896, 44.78902246]}, "properties": {"date": "2020-04-10", "new": 0, "total": 1, "city": "Shawano", "province": "Wisconsin", "country": "United States"}}, {"type": "Feature", "geometry": {"type": "Point", "coordinates": [-88.54163073, 42.66858202]}, "properties": {"date": "2020-04-10", "new": 0, "total": 7, "city": "Walworth", "province": "Wisconsin", "country": "United States"}}, {"type": "Feature", "geometry": {"type": "Point", "coordinates": [-88.30431188, 43.01833055]}, "properties": {"date": "2020-04-10", "new": 0, "total": 18, "city": "Waukesha", "province": "Wisconsin", "country": "United States"}}, {"type": "Feature", "geometry": {"type": "Point", "coordinates": [-88.96534501, 44.47068056]}, "properties": {"date": "2020-04-10", "new": 0, "total": 1, "city": "Waupaca", "province": "Wisconsin", "country": "United States"}}, {"type": "Feature", "geometry": {"type": "Point", "coordinates": [-89.24317107, 44.11324419]}, "properties": {"date": "2020-04-10", "new": 0, "total": 1, "city": "Waushara", "province": "Wisconsin", "country": "United States"}}, {"type": "Feature", "geometry": {"type": "Point", "coordinates": [-88.64477096, 44.06886922]}, "properties": {"date": "2020-04-10", "new": 0, "total": 1, "city": "Winnebago", "province": "Wisconsin", "country": "United States"}}, {"type": "Feature", "geometry": {"type": "Point", "coordinates": [-104.56977049999999, 44.58855102]}, "properties": {"date": "2020-04-10", "new": 0, "total": 2, "city": "Crook", "province": "Wyoming", "country": "United States"}}, {"type": "Feature", "geometry": {"type": "Point", "coordinates": [-104.6887497, 41.30702520000001]}, "properties": {"date": "2020-04-10", "new": 0, "total": 5, "city": "Laramie", "province": "Wyoming", "country": "United States"}}, {"type": "Feature", "geometry": {"type": "Point", "coordinates": [-106.79788500000001, 42.96180148]}, "properties": {"date": "2020-04-10", "new": 0, "total": 1, "city": "Natrona", "province": "Wyoming", "country": "United States"}}, {"type": "Feature", "geometry": {"type": "Point", "coordinates": [-110.5890801, 43.93522482]}, "properties": {"date": "2020-04-10", "new": 0, "total": 1, "city": "Teton", "province": "Wyoming", "country": "United States"}}, {"type": "Feature", "geometry": {"type": "Point", "coordinates": [-70.68763497, 41.40674725]}, "properties": {"date": "2020-04-10", "new": 0, "total": 1, "city": "Dukes and Nantucket", "province": "Massachusetts", "country": "United States"}}, {"type": "Feature", "geometry": {"type": "Point", "coordinates": [-94.5786, 39.0997]}, "properties": {"date": "2020-04-10", "new": 0, "total": 15, "city": "Kansas City", "province": "Missouri", "country": "United States"}}, {"type": "Feature", "geometry": {"type": "Point", "coordinates": [144.7937, 13.4443]}, "properties": {"date": "2020-04-10", "new": 2, "total": 2, "city": "", "province": "Guam", "country": "United States"}}, {"type": "Feature", "geometry": {"type": "Point", "coordinates": [-66.5901, 18.2208]}, "properties": {"date": "2020-04-10", "new": 32, "total": 32, "city": "", "province": "Puerto Rico", "country": "United States"}}, {"type": "Feature", "geometry": {"type": "Point", "coordinates": [-66.5901, 18.2208]}, "properties": {"date": "2020-04-10", "new": 10, "total": 10, "city": "", "province": "Puerto Rico", "country": "United States"}}, {"type": "Feature", "geometry": {"type": "Point", "coordinates": [-64.8963, 18.3358]}, "properties": {"date": "2020-04-10", "new": 5, "total": 5, "city": "", "province": "Virgin Islands", "country": "United States"}}, {"type": "Feature", "geometry": {"type": "Point", "coordinates": [-86.64408227, 32.53952745]}, "properties": {"date": "2020-04-10", "new": 2, "total": 2, "city": "Autauga", "province": "Alabama", "country": "United States"}}, {"type": "Feature", "geometry": {"type": "Point", "coordinates": [-87.72207058, 30.72774991]}, "properties": {"date": "2020-04-10", "new": 3, "total": 3, "city": "Baldwin", "province": "Alabama", "country": "United States"}}, {"type": "Feature", "geometry": {"type": "Point", "coordinates": [-85.3871286, 31.868263]}, "properties": {"date": "2020-04-10", "new": 5, "total": 5, "city": "Barbour", "province": "Alabama", "country": "United States"}}, {"type": "Feature", "geometry": {"type": "Point", "coordinates": [-87.12511459999996, 32.99642064]}, "properties": {"date": "2020-04-10", "new": 2, "total": 2, "city": "Bibb", "province": "Alabama", "country": "United States"}}, {"type": "Feature", "geometry": {"type": "Point", "coordinates": [-86.56790593, 33.98210918]}, "properties": {"date": "2020-04-10", "new": 1, "total": 1, "city": "Blount", "province": "Alabama", "country": "United States"}}, {"type": "Feature", "geometry": {"type": "Point", "coordinates": [-85.71265535, 32.10030533]}, "properties": {"date": "2020-04-10", "new": 1, "total": 1, "city": "Bullock", "province": "Alabama", "country": "United States"}}, {"type": "Feature", "geometry": {"type": "Point", "coordinates": [-85.82630386, 33.77483727]}, "properties": {"date": "2020-04-10", "new": 1, "total": 1, "city": "Calhoun", "province": "Alabama", "country": "United States"}}, {"type": "Feature", "geometry": {"type": "Point", "coordinates": [-85.39072749, 32.91360079]}, "properties": {"date": "2020-04-10", "new": 17, "total": 17, "city": "Chambers", "province": "Alabama", "country": "United States"}}, {"type": "Feature", "geometry": {"type": "Point", "coordinates": [-86.7173256, 32.85044126]}, "properties": {"date": "2020-04-10", "new": 1, "total": 1, "city": "Chilton", "province": "Alabama", "country": "United States"}}, {"type": "Feature", "geometry": {"type": "Point", "coordinates": [-87.83548597, 31.68099859]}, "properties": {"date": "2020-04-10", "new": 1, "total": 1, "city": "Clarke", "province": "Alabama", "country": "United States"}}, {"type": "Feature", "geometry": {"type": "Point", "coordinates": [-85.98901039, 31.39932826]}, "properties": {"date": "2020-04-10", "new": 1, "total": 1, "city": "Coffee", "province": "Alabama", "country": "United States"}}, {"type": "Feature", "geometry": {"type": "Point", "coordinates": [-87.80168544, 34.69847452]}, "properties": {"date": "2020-04-10", "new": 1, "total": 1, "city": "Colbert", "province": "Alabama", "country": "United States"}}, {"type": "Feature", "geometry": {"type": "Point", "coordinates": [-86.24847739, 32.93690146]}, "properties": {"date": "2020-04-10", "new": 1, "total": 1, "city": "Coosa", "province": "Alabama", "country": "United States"}}, {"type": "Feature", "geometry": {"type": "Point", "coordinates": [-86.86888037, 34.13020303]}, "properties": {"date": "2020-04-10", "new": 8, "total": 8, "city": "Cullman", "province": "Alabama", "country": "United States"}}, {"type": "Feature", "geometry": {"type": "Point", "coordinates": [-87.10866709999998, 32.32688101]}, "properties": {"date": "2020-04-10", "new": 4, "total": 4, "city": "Dallas", "province": "Alabama", "country": "United States"}}, {"type": "Feature", "geometry": {"type": "Point", "coordinates": [-85.80782906, 34.45946862]}, "properties": {"date": "2020-04-10", "new": 2, "total": 2, "city": "DeKalb", "province": "Alabama", "country": "United States"}}, {"type": "Feature", "geometry": {"type": "Point", "coordinates": [-86.14415284, 32.59785413]}, "properties": {"date": "2020-04-10", "new": 2, "total": 2, "city": "Elmore", "province": "Alabama", "country": "United States"}}, {"type": "Feature", "geometry": {"type": "Point", "coordinates": [-86.04051873, 34.04567266]}, "properties": {"date": "2020-04-10", "new": 14, "total": 14, "city": "Etowah", "province": "Alabama", "country": "United States"}}, {"type": "Feature", "geometry": {"type": "Point", "coordinates": [-87.73886638, 33.72076938]}, "properties": {"date": "2020-04-10", "new": 1, "total": 1, "city": "Fayette", "province": "Alabama", "country": "United States"}}, {"type": "Feature", "geometry": {"type": "Point", "coordinates": [-87.95684022, 32.85504247]}, "properties": {"date": "2020-04-10", "new": 1, "total": 1, "city": "Greene", "province": "Alabama", "country": "United States"}}, {"type": "Feature", "geometry": {"type": "Point", "coordinates": [-85.24267944, 31.51148016]}, "properties": {"date": "2020-04-10", "new": 3, "total": 3, "city": "Henry", "province": "Alabama", "country": "United States"}}, {"type": "Feature", "geometry": {"type": "Point", "coordinates": [-85.29939599, 31.15197924]}, "properties": {"date": "2020-04-10", "new": 3, "total": 3, "city": "Houston", "province": "Alabama", "country": "United States"}}, {"type": "Feature", "geometry": {"type": "Point", "coordinates": [-86.89506300000002, 33.55554728]}, "properties": {"date": "2020-04-10", "new": 29, "total": 29, "city": "Jefferson", "province": "Alabama", "country": "United States"}}, {"type": "Feature", "geometry": {"type": "Point", "coordinates": [-85.35132246, 32.60154883]}, "properties": {"date": "2020-04-10", "new": 10, "total": 10, "city": "Lee", "province": "Alabama", "country": "United States"}}, {"type": "Feature", "geometry": {"type": "Point", "coordinates": [-86.98310072, 34.81185586]}, "properties": {"date": "2020-04-10", "new": 2, "total": 2, "city": "Limestone", "province": "Alabama", "country": "United States"}}, {"type": "Feature", "geometry": {"type": "Point", "coordinates": [-86.55069633, 34.76327133]}, "properties": {"date": "2020-04-10", "new": 5, "total": 5, "city": "Madison", "province": "Alabama", "country": "United States"}}, {"type": "Feature", "geometry": {"type": "Point", "coordinates": [-87.78796182, 32.24767634]}, "properties": {"date": "2020-04-10", "new": 1, "total": 1, "city": "Marengo", "province": "Alabama", "country": "United States"}}, {"type": "Feature", "geometry": {"type": "Point", "coordinates": [-87.88704173, 34.13697363]}, "properties": {"date": "2020-04-10", "new": 6, "total": 6, "city": "Marion", "province": "Alabama", "country": "United States"}}, {"type": "Feature", "geometry": {"type": "Point", "coordinates": [-86.30486727, 34.36975964]}, "properties": {"date": "2020-04-10", "new": 9, "total": 9, "city": "Marshall", "province": "Alabama", "country": "United States"}}, {"type": "Feature", "geometry": {"type": "Point", "coordinates": [-88.20842409, 30.78472347]}, "properties": {"date": "2020-04-10", "new": 49, "total": 49, "city": "Mobile", "province": "Alabama", "country": "United States"}}, {"type": "Feature", "geometry": {"type": "Point", "coordinates": [-86.20969272, 32.2206831]}, "properties": {"date": "2020-04-10", "new": 4, "total": 4, "city": "Montgomery", "province": "Alabama", "country": "United States"}}, {"type": "Feature", "geometry": {"type": "Point", "coordinates": [-87.29770589, 32.64048341]}, "properties": {"date": "2020-04-10", "new": 2, "total": 2, "city": "Perry", "province": "Alabama", "country": "United States"}}, {"type": "Feature", "geometry": {"type": "Point", "coordinates": [-88.08818103, 33.28094866]}, "properties": {"date": "2020-04-10", "new": 2, "total": 2, "city": "Pickens", "province": "Alabama", "country": "United States"}}, {"type": "Feature", "geometry": {"type": "Point", "coordinates": [-85.9408295, 31.80396383]}, "properties": {"date": "2020-04-10", "new": 1, "total": 1, "city": "Pike", "province": "Alabama", "country": "United States"}}, {"type": "Feature", "geometry": {"type": "Point", "coordinates": [-85.45708831, 33.29526734]}, "properties": {"date": "2020-04-10", "new": 6, "total": 6, "city": "Randolph", "province": "Alabama", "country": "United States"}}, {"type": "Feature", "geometry": {"type": "Point", "coordinates": [-85.18415324, 32.28725256]}, "properties": {"date": "2020-04-10", "new": 6, "total": 6, "city": "Russell", "province": "Alabama", "country": "United States"}}, {"type": "Feature", "geometry": {"type": "Point", "coordinates": [-86.31029372, 33.71902176]}, "properties": {"date": "2020-04-10", "new": 1, "total": 1, "city": "St. Clair", "province": "Alabama", "country": "United States"}}, {"type": "Feature", "geometry": {"type": "Point", "coordinates": [-86.66232561, 33.26879845]}, "properties": {"date": "2020-04-10", "new": 14, "total": 14, "city": "Shelby", "province": "Alabama", "country": "United States"}}, {"type": "Feature", "geometry": {"type": "Point", "coordinates": [-88.19916205, 32.59117397]}, "properties": {"date": "2020-04-10", "new": 1, "total": 1, "city": "Sumter", "province": "Alabama", "country": "United States"}}, {"type": "Feature", "geometry": {"type": "Point", "coordinates": [-86.16886178, 33.37823223]}, "properties": {"date": "2020-04-10", "new": 3, "total": 3, "city": "Talladega", "province": "Alabama", "country": "United States"}}, {"type": "Feature", "geometry": {"type": "Point", "coordinates": [-85.79833053, 32.86698258]}, "properties": {"date": "2020-04-10", "new": 8, "total": 8, "city": "Tallapoosa", "province": "Alabama", "country": "United States"}}, {"type": "Feature", "geometry": {"type": "Point", "coordinates": [-87.52556818, 33.28726072]}, "properties": {"date": "2020-04-10", "new": 6, "total": 6, "city": "Tuscaloosa", "province": "Alabama", "country": "United States"}}, {"type": "Feature", "geometry": {"type": "Point", "coordinates": [-87.30027177, 33.80270512]}, "properties": {"date": "2020-04-10", "new": 3, "total": 3, "city": "Walker", "province": "Alabama", "country": "United States"}}, {"type": "Feature", "geometry": {"type": "Point", "coordinates": [-87.30891118, 31.98773215]}, "properties": {"date": "2020-04-10", "new": 2, "total": 2, "city": "Wilcox", "province": "Alabama", "country": "United States"}}, {"type": "Feature", "geometry": {"type": "Point", "coordinates": [-87.37325922, 34.15030532]}, "properties": {"date": "2020-04-10", "new": 1, "total": 1, "city": "Winston", "province": "Alabama", "country": "United States"}}, {"type": "Feature", "geometry": {"type": "Point", "coordinates": [-149.14269860000005, 61.14998174]}, "properties": {"date": "2020-04-10", "new": 3, "total": 3, "city": "Anchorage", "province": "Alaska", "country": "United States"}}, {"type": "Feature", "geometry": {"type": "Point", "coordinates": [-146.5692662, 64.80726247]}, "properties": {"date": "2020-04-10", "new": 3, "total": 3, "city": "Fairbanks North Star", "province": "Alaska", "country": "United States"}}, {"type": "Feature", "geometry": {"type": "Point", "coordinates": [-134.200436, 58.45031811]}, "properties": {"date": "2020-04-10", "new": 1, "total": 1, "city": "Juneau", "province": "Alaska", "country": "United States"}}, {"type": "Feature", "geometry": {"type": "Point", "coordinates": [-151.53888840000005, 60.24429722]}, "properties": {"date": "2020-04-10", "new": 1, "total": 1, "city": "Kenai Peninsula", "province": "Alaska", "country": "United States"}}, {"type": "Feature", "geometry": {"type": "Point", "coordinates": [-149.5741743, 62.31305045]}, "properties": {"date": "2020-04-10", "new": 3, "total": 3, "city": "Matanuska-Susitna", "province": "Alaska", "country": "United States"}}, {"type": "Feature", "geometry": {"type": "Point", "coordinates": [-109.4892383, 35.39465006]}, "properties": {"date": "2020-04-10", "new": 3, "total": 3, "city": "Apache", "province": "Arizona", "country": "United States"}}, {"type": "Feature", "geometry": {"type": "Point", "coordinates": [-111.77071780000001, 35.83883429]}, "properties": {"date": "2020-04-10", "new": 4, "total": 4, "city": "Coconino", "province": "Arizona", "country": "United States"}}, {"type": "Feature", "geometry": {"type": "Point", "coordinates": [-112.49181540000001, 33.34835867]}, "properties": {"date": "2020-04-10", "new": 52, "total": 52, "city": "Maricopa", "province": "Arizona", "country": "United States"}}, {"type": "Feature", "geometry": {"type": "Point", "coordinates": [-113.7577902, 35.70471703]}, "properties": {"date": "2020-04-10", "new": 1, "total": 1, "city": "Mohave", "province": "Arizona", "country": "United States"}}, {"type": "Feature", "geometry": {"type": "Point", "coordinates": [-110.3218983, 35.3997715]}, "properties": {"date": "2020-04-10", "new": 1, "total": 1, "city": "Navajo", "province": "Arizona", "country": "United States"}}, {"type": "Feature", "geometry": {"type": "Point", "coordinates": [-111.7890033, 32.0971334]}, "properties": {"date": "2020-04-10", "new": 31, "total": 31, "city": "Pima", "province": "Arizona", "country": "United States"}}, {"type": "Feature", "geometry": {"type": "Point", "coordinates": [-111.3449483, 32.90525627]}, "properties": {"date": "2020-04-10", "new": 1, "total": 1, "city": "Pinal", "province": "Arizona", "country": "United States"}}, {"type": "Feature", "geometry": {"type": "Point", "coordinates": [-113.90666740000002, 32.76895712]}, "properties": {"date": "2020-04-10", "new": 1, "total": 1, "city": "Yuma", "province": "Arizona", "country": "United States"}}, {"type": "Feature", "geometry": {"type": "Point", "coordinates": [-91.76984709999999, 33.19153461]}, "properties": {"date": "2020-04-10", "new": 1, "total": 1, "city": "Ashley", "province": "Arkansas", "country": "United States"}}, {"type": "Feature", "geometry": {"type": "Point", "coordinates": [-90.63235729, 35.83018283]}, "properties": {"date": "2020-04-10", "new": 1, "total": 1, "city": "Craighead", "province": "Arkansas", "country": "United States"}}, {"type": "Feature", "geometry": {"type": "Point", "coordinates": [-90.30839406, 35.21247318]}, "properties": {"date": "2020-04-10", "new": 12, "total": 12, "city": "Crittenden", "province": "Arkansas", "country": "United States"}}, {"type": "Feature", "geometry": {"type": "Point", "coordinates": [-91.25500948, 33.83011025]}, "properties": {"date": "2020-04-10", "new": 1, "total": 1, "city": "Desha", "province": "Arkansas", "country": "United States"}}, {"type": "Feature", "geometry": {"type": "Point", "coordinates": [-92.33717519, 35.14719007]}, "properties": {"date": "2020-04-10", "new": 1, "total": 1, "city": "Faulkner", "province": "Arkansas", "country": "United States"}}, {"type": "Feature", "geometry": {"type": "Point", "coordinates": [-93.14921604, 34.57692074]}, "properties": {"date": "2020-04-10", "new": 5, "total": 5, "city": "Garland", "province": "Arkansas", "country": "United States"}}, {"type": "Feature", "geometry": {"type": "Point", "coordinates": [-93.9934871, 34.09007427]}, "properties": {"date": "2020-04-10", "new": 1, "total": 1, "city": "Howard", "province": "Arkansas", "country": "United States"}}, {"type": "Feature", "geometry": {"type": "Point", "coordinates": [-91.92619839, 34.26767081]}, "properties": {"date": "2020-04-10", "new": 1, "total": 1, "city": "Jefferson", "province": "Arkansas", "country": "United States"}}, {"type": "Feature", "geometry": {"type": "Point", "coordinates": [-93.46036368, 35.56759135]}, "properties": {"date": "2020-04-10", "new": 1, "total": 1, "city": "Johnson", "province": "Arkansas", "country": "United States"}}, {"type": "Feature", "geometry": {"type": "Point", "coordinates": [-93.89285258, 33.31403423]}, "properties": {"date": "2020-04-10", "new": 1, "total": 1, "city": "Miller", "province": "Arkansas", "country": "United States"}}, {"type": "Feature", "geometry": {"type": "Point", "coordinates": [-90.84800154, 34.43268455]}, "properties": {"date": "2020-04-10", "new": 1, "total": 1, "city": "Phillips", "province": "Arkansas", "country": "United States"}}, {"type": "Feature", "geometry": {"type": "Point", "coordinates": [-90.66268713, 35.57433534]}, "properties": {"date": "2020-04-10", "new": 1, "total": 1, "city": "Poinsett", "province": "Arkansas", "country": "United States"}}, {"type": "Feature", "geometry": {"type": "Point", "coordinates": [-92.31355101, 34.77054088]}, "properties": {"date": "2020-04-10", "new": 15, "total": 15, "city": "Pulaski", "province": "Arkansas", "country": "United States"}}, {"type": "Feature", "geometry": {"type": "Point", "coordinates": [-92.59746952, 33.16887091]}, "properties": {"date": "2020-04-10", "new": 1, "total": 1, "city": "Union", "province": "Arkansas", "country": "United States"}}, {"type": "Feature", "geometry": {"type": "Point", "coordinates": [-94.21800746, 35.976844]}, "properties": {"date": "2020-04-10", "new": 1, "total": 1, "city": "Washington", "province": "Arkansas", "country": "United States"}}, {"type": "Feature", "geometry": {"type": "Point", "coordinates": [-121.8929271, 37.64629437]}, "properties": {"date": "2020-04-10", "new": 92, "total": 92, "city": "Alameda", "province": "California", "country": "United States"}}, {"type": "Feature", "geometry": {"type": "Point", "coordinates": [-120.65696000000001, 38.44583082]}, "properties": {"date": "2020-04-10", "new": 4, "total": 4, "city": "Amador", "province": "California", "country": "United States"}}, {"type": "Feature", "geometry": {"type": "Point", "coordinates": [-120.55291299999999, 38.20537103]}, "properties": {"date": "2020-04-10", "new": 3, "total": 3, "city": "Calaveras", "province": "California", "country": "United States"}}, {"type": "Feature", "geometry": {"type": "Point", "coordinates": [-121.9289527, 37.91923498]}, "properties": {"date": "2020-04-10", "new": 27, "total": 27, "city": "Contra Costa", "province": "California", "country": "United States"}}, {"type": "Feature", "geometry": {"type": "Point", "coordinates": [-120.5233166, 38.77965956]}, "properties": {"date": "2020-04-10", "new": 1, "total": 1, "city": "El Dorado", "province": "California", "country": "United States"}}, {"type": "Feature", "geometry": {"type": "Point", "coordinates": [-119.6466953, 36.75733899]}, "properties": {"date": "2020-04-10", "new": 17, "total": 17, "city": "Fresno", "province": "California", "country": "United States"}}, {"type": "Feature", "geometry": {"type": "Point", "coordinates": [-122.3938452, 39.59875897]}, "properties": {"date": "2020-04-10", "new": 1, "total": 1, "city": "Glenn", "province": "California", "country": "United States"}}, {"type": "Feature", "geometry": {"type": "Point", "coordinates": [-115.36690420000001, 33.0393082]}, "properties": {"date": "2020-04-10", "new": 4, "total": 4, "city": "Imperial", "province": "California", "country": "United States"}}, {"type": "Feature", "geometry": {"type": "Point", "coordinates": [-117.41119779999998, 36.51112084]}, "properties": {"date": "2020-04-10", "new": 1, "total": 1, "city": "Inyo", "province": "California", "country": "United States"}}, {"type": "Feature", "geometry": {"type": "Point", "coordinates": [-118.72777959999999, 35.34329425]}, "properties": {"date": "2020-04-10", "new": 34, "total": 34, "city": "Kern", "province": "California", "country": "United States"}}, {"type": "Feature", "geometry": {"type": "Point", "coordinates": [-122.75362439999999, 39.10124298]}, "properties": {"date": "2020-04-10", "new": 1, "total": 1, "city": "Lake", "province": "California", "country": "United States"}}, {"type": "Feature", "geometry": {"type": "Point", "coordinates": [-118.22824109999999, 34.30828379]}, "properties": {"date": "2020-04-10", "new": 405, "total": 405, "city": "Los Angeles", "province": "California", "country": "United States"}}, {"type": "Feature", "geometry": {"type": "Point", "coordinates": [-118.22824109999999, 34.30828379]}, "properties": {"date": "2020-04-10", "new": 83, "total": 83, "city": "Los Angeles", "province": "California", "country": "United States"}}, {"type": "Feature", "geometry": {"type": "Point", "coordinates": [-119.76655890000002, 37.21513971]}, "properties": {"date": "2020-04-10", "new": 2, "total": 2, "city": "Madera", "province": "California", "country": "United States"}}, {"type": "Feature", "geometry": {"type": "Point", "coordinates": [-122.72106310000001, 38.07122463]}, "properties": {"date": "2020-04-10", "new": 5, "total": 5, "city": "Marin", "province": "California", "country": "United States"}}, {"type": "Feature", "geometry": {"type": "Point", "coordinates": [-120.72090349999999, 37.18922369]}, "properties": {"date": "2020-04-10", "new": 12, "total": 12, "city": "Merced", "province": "California", "country": "United States"}}, {"type": "Feature", "geometry": {"type": "Point", "coordinates": [-121.24133970000001, 36.21862405]}, "properties": {"date": "2020-04-10", "new": 2, "total": 2, "city": "Monterey", "province": "California", "country": "United States"}}, {"type": "Feature", "geometry": {"type": "Point", "coordinates": [-122.33283899999999, 38.50735751]}, "properties": {"date": "2020-04-10", "new": 7, "total": 7, "city": "Napa", "province": "California", "country": "United States"}}, {"type": "Feature", "geometry": {"type": "Point", "coordinates": [-117.76459979999998, 33.70147516]}, "properties": {"date": "2020-04-10", "new": 59, "total": 59, "city": "Orange", "province": "California", "country": "United States"}}, {"type": "Feature", "geometry": {"type": "Point", "coordinates": [-120.72405690000001, 39.06167234]}, "properties": {"date": "2020-04-10", "new": 6, "total": 6, "city": "Placer", "province": "California", "country": "United States"}}, {"type": "Feature", "geometry": {"type": "Point", "coordinates": [-115.9933578, 33.74314981]}, "properties": {"date": "2020-04-10", "new": 70, "total": 70, "city": "Riverside", "province": "California", "country": "United States"}}, {"type": "Feature", "geometry": {"type": "Point", "coordinates": [-121.34253740000001, 38.45106826]}, "properties": {"date": "2020-04-10", "new": 73, "total": 73, "city": "Sacramento", "province": "California", "country": "United States"}}, {"type": "Feature", "geometry": {"type": "Point", "coordinates": [-121.069975, 36.60308176]}, "properties": {"date": "2020-04-10", "new": 1, "total": 1, "city": "San Benito", "province": "California", "country": "United States"}}, {"type": "Feature", "geometry": {"type": "Point", "coordinates": [-116.1774685, 34.84060306]}, "properties": {"date": "2020-04-10", "new": 88, "total": 88, "city": "San Bernardino", "province": "California", "country": "United States"}}, {"type": "Feature", "geometry": {"type": "Point", "coordinates": [-116.73653259999999, 33.03484597]}, "properties": {"date": "2020-04-10", "new": 98, "total": 98, "city": "San Diego", "province": "California", "country": "United States"}}, {"type": "Feature", "geometry": {"type": "Point", "coordinates": [-122.43856720000001, 37.75215114]}, "properties": {"date": "2020-04-10", "new": 73, "total": 73, "city": "San Francisco", "province": "California", "country": "United States"}}, {"type": "Feature", "geometry": {"type": "Point", "coordinates": [-121.2730061, 37.93433732]}, "properties": {"date": "2020-04-10", "new": 16, "total": 16, "city": "San Joaquin", "province": "California", "country": "United States"}}, {"type": "Feature", "geometry": {"type": "Point", "coordinates": [-120.4039028, 35.38822029]}, "properties": {"date": "2020-04-10", "new": 2, "total": 2, "city": "San Luis Obispo", "province": "California", "country": "United States"}}, {"type": "Feature", "geometry": {"type": "Point", "coordinates": [-122.32755459999998, 37.422880799999994]}, "properties": {"date": "2020-04-10", "new": 5, "total": 5, "city": "San Mateo", "province": "California", "country": "United States"}}, {"type": "Feature", "geometry": {"type": "Point", "coordinates": [-120.0188492, 34.65329488]}, "properties": {"date": "2020-04-10", "new": 15, "total": 15, "city": "Santa Barbara", "province": "California", "country": "United States"}}, {"type": "Feature", "geometry": {"type": "Point", "coordinates": [-121.6970462, 37.23104908]}, "properties": {"date": "2020-04-10", "new": 62, "total": 62, "city": "Santa Clara", "province": "California", "country": "United States"}}, {"type": "Feature", "geometry": {"type": "Point", "coordinates": [-122.0066524, 37.05580291]}, "properties": {"date": "2020-04-10", "new": 4, "total": 4, "city": "Santa Cruz", "province": "California", "country": "United States"}}, {"type": "Feature", "geometry": {"type": "Point", "coordinates": [-122.54074340000001, 41.59198861]}, "properties": {"date": "2020-04-10", "new": 1, "total": 1, "city": "Siskiyou", "province": "California", "country": "United States"}}, {"type": "Feature", "geometry": {"type": "Point", "coordinates": [-121.9357113, 38.26827353]}, "properties": {"date": "2020-04-10", "new": 3, "total": 3, "city": "Solano", "province": "California", "country": "United States"}}, {"type": "Feature", "geometry": {"type": "Point", "coordinates": [-122.88625060000001, 38.52746429]}, "properties": {"date": "2020-04-10", "new": 6, "total": 6, "city": "Sonoma", "province": "California", "country": "United States"}}, {"type": "Feature", "geometry": {"type": "Point", "coordinates": [-120.9970722, 37.55862499]}, "properties": {"date": "2020-04-10", "new": 8, "total": 8, "city": "Stanislaus", "province": "California", "country": "United States"}}, {"type": "Feature", "geometry": {"type": "Point", "coordinates": [-121.6945899, 39.03417539]}, "properties": {"date": "2020-04-10", "new": 17, "total": 17, "city": "Sutter", "province": "California", "country": "United States"}}, {"type": "Feature", "geometry": {"type": "Point", "coordinates": [-118.8020203, 36.22026558]}, "properties": {"date": "2020-04-10", "new": 35, "total": 35, "city": "Tulare", "province": "California", "country": "United States"}}, {"type": "Feature", "geometry": {"type": "Point", "coordinates": [-119.09106129999999, 34.44465746]}, "properties": {"date": "2020-04-10", "new": 24, "total": 24, "city": "Ventura", "province": "California", "country": "United States"}}, {"type": "Feature", "geometry": {"type": "Point", "coordinates": [-121.90182879999999, 38.68278902]}, "properties": {"date": "2020-04-10", "new": 4, "total": 4, "city": "Yolo", "province": "California", "country": "United States"}}, {"type": "Feature", "geometry": {"type": "Point", "coordinates": [-104.3362578, 39.87432092]}, "properties": {"date": "2020-04-10", "new": 58, "total": 58, "city": "Adams", "province": "Colorado", "country": "United States"}}, {"type": "Feature", "geometry": {"type": "Point", "coordinates": [-104.3353617, 39.64977461]}, "properties": {"date": "2020-04-10", "new": 113, "total": 113, "city": "Arapahoe", "province": "Colorado", "country": "United States"}}, {"type": "Feature", "geometry": {"type": "Point", "coordinates": [-105.3546767, 40.09313619]}, "properties": {"date": "2020-04-10", "new": 10, "total": 10, "city": "Boulder", "province": "Colorado", "country": "United States"}}, {"type": "Feature", "geometry": {"type": "Point", "coordinates": [-105.0566324, 39.95998787]}, "properties": {"date": "2020-04-10", "new": 9, "total": 9, "city": "Broomfield", "province": "Colorado", "country": "United States"}}, {"type": "Feature", "geometry": {"type": "Point", "coordinates": [-106.19265729999998, 38.74745778]}, "properties": {"date": "2020-04-10", "new": 3, "total": 3, "city": "Chaffee", "province": "Colorado", "country": "United States"}}, {"type": "Feature", "geometry": {"type": "Point", "coordinates": [-105.6463118, 39.68864463]}, "properties": {"date": "2020-04-10", "new": 3, "total": 3, "city": "Clear Creek", "province": "Colorado", "country": "United States"}}, {"type": "Feature", "geometry": {"type": "Point", "coordinates": [-107.86313419999999, 38.86246243]}, "properties": {"date": "2020-04-10", "new": 1, "total": 1, "city": "Delta", "province": "Colorado", "country": "United States"}}, {"type": "Feature", "geometry": {"type": "Point", "coordinates": [-104.87256950000001, 39.76018276]}, "properties": {"date": "2020-04-10", "new": 22, "total": 22, "city": "Denver", "province": "Colorado", "country": "United States"}}, {"type": "Feature", "geometry": {"type": "Point", "coordinates": [-104.87256950000001, 39.76018276]}, "properties": {"date": "2020-04-10", "new": 82, "total": 82, "city": "Denver", "province": "Colorado", "country": "United States"}}, {"type": "Feature", "geometry": {"type": "Point", "coordinates": [-104.930001, 39.33133796]}, "properties": {"date": "2020-04-10", "new": 26, "total": 26, "city": "Douglas", "province": "Colorado", "country": "United States"}}, {"type": "Feature", "geometry": {"type": "Point", "coordinates": [-106.6933637, 39.62754308]}, "properties": {"date": "2020-04-10", "new": 20, "total": 20, "city": "Eagle", "province": "Colorado", "country": "United States"}}, {"type": "Feature", "geometry": {"type": "Point", "coordinates": [-104.5251411, 38.83240149]}, "properties": {"date": "2020-04-10", "new": 62, "total": 62, "city": "El Paso", "province": "Colorado", "country": "United States"}}, {"type": "Feature", "geometry": {"type": "Point", "coordinates": [-105.43996670000001, 38.47362326]}, "properties": {"date": "2020-04-10", "new": 1, "total": 1, "city": "Fremont", "province": "Colorado", "country": "United States"}}, {"type": "Feature", "geometry": {"type": "Point", "coordinates": [-107.902708, 39.59921777]}, "properties": {"date": "2020-04-10", "new": 1, "total": 1, "city": "Garfield", "province": "Colorado", "country": "United States"}}, {"type": "Feature", "geometry": {"type": "Point", "coordinates": [-105.5252597, 39.85646523]}, "properties": {"date": "2020-04-10", "new": 1, "total": 1, "city": "Gilpin", "province": "Colorado", "country": "United States"}}, {"type": "Feature", "geometry": {"type": "Point", "coordinates": [-107.0320729, 38.66611652]}, "properties": {"date": "2020-04-10", "new": 1, "total": 1, "city": "Gunnison", "province": "Colorado", "country": "United States"}}, {"type": "Feature", "geometry": {"type": "Point", "coordinates": [-105.2517692, 39.58635604]}, "properties": {"date": "2020-04-10", "new": 50, "total": 50, "city": "Jefferson", "province": "Colorado", "country": "United States"}}, {"type": "Feature", "geometry": {"type": "Point", "coordinates": [-102.60221990000001, 39.30497777]}, "properties": {"date": "2020-04-10", "new": 1, "total": 1, "city": "Kit Carson", "province": "Colorado", "country": "United States"}}, {"type": "Feature", "geometry": {"type": "Point", "coordinates": [-106.35556969999999, 39.20278823]}, "properties": {"date": "2020-04-10", "new": 1, "total": 1, "city": "Lake", "province": "Colorado", "country": "United States"}}, {"type": "Feature", "geometry": {"type": "Point", "coordinates": [-107.8429014, 37.28632032]}, "properties": {"date": "2020-04-10", "new": 3, "total": 3, "city": "La Plata", "province": "Colorado", "country": "United States"}}, {"type": "Feature", "geometry": {"type": "Point", "coordinates": [-105.4625784, 40.66671597]}, "properties": {"date": "2020-04-10", "new": 7, "total": 7, "city": "Larimer", "province": "Colorado", "country": "United States"}}, {"type": "Feature", "geometry": {"type": "Point", "coordinates": [-104.03764579999999, 37.3153406]}, "properties": {"date": "2020-04-10", "new": 1, "total": 1, "city": "Las Animas", "province": "Colorado", "country": "United States"}}, {"type": "Feature", "geometry": {"type": "Point", "coordinates": [-108.26390220000002, 38.40214114]}, "properties": {"date": "2020-04-10", "new": 3, "total": 3, "city": "Montrose", "province": "Colorado", "country": "United States"}}, {"type": "Feature", "geometry": {"type": "Point", "coordinates": [-103.8093302, 40.26279810000001]}, "properties": {"date": "2020-04-10", "new": 21, "total": 21, "city": "Morgan", "province": "Colorado", "country": "United States"}}, {"type": "Feature", "geometry": {"type": "Point", "coordinates": [-103.7173385, 37.9014485]}, "properties": {"date": "2020-04-10", "new": 1, "total": 1, "city": "Otero", "province": "Colorado", "country": "United States"}}, {"type": "Feature", "geometry": {"type": "Point", "coordinates": [-107.7675136, 38.14717457]}, "properties": {"date": "2020-04-10", "new": 1, "total": 1, "city": "Ouray", "province": "Colorado", "country": "United States"}}, {"type": "Feature", "geometry": {"type": "Point", "coordinates": [-102.3926052, 37.95544985]}, "properties": {"date": "2020-04-10", "new": 1, "total": 1, "city": "Prowers", "province": "Colorado", "country": "United States"}}, {"type": "Feature", "geometry": {"type": "Point", "coordinates": [-104.5127437, 38.17359144]}, "properties": {"date": "2020-04-10", "new": 3, "total": 3, "city": "Pueblo", "province": "Colorado", "country": "United States"}}, {"type": "Feature", "geometry": {"type": "Point", "coordinates": [-108.4020725, 38.00450883]}, "properties": {"date": "2020-04-10", "new": 1, "total": 1, "city": "San Miguel", "province": "Colorado", "country": "United States"}}, {"type": "Feature", "geometry": {"type": "Point", "coordinates": [-106.1150762, 39.63803232]}, "properties": {"date": "2020-04-10", "new": 1, "total": 1, "city": "Summit", "province": "Colorado", "country": "United States"}}, {"type": "Feature", "geometry": {"type": "Point", "coordinates": [-103.202587, 39.97015535]}, "properties": {"date": "2020-04-10", "new": 1, "total": 1, "city": "Washington", "province": "Colorado", "country": "United States"}}, {"type": "Feature", "geometry": {"type": "Point", "coordinates": [-104.39296209999999, 40.55499405]}, "properties": {"date": "2020-04-10", "new": 41, "total": 41, "city": "Weld", "province": "Colorado", "country": "United States"}}, {"type": "Feature", "geometry": {"type": "Point", "coordinates": [-73.3881171, 41.26809896]}, "properties": {"date": "2020-04-10", "new": 298, "total": 298, "city": "Fairfield", "province": "Connecticut", "country": "United States"}}, {"type": "Feature", "geometry": {"type": "Point", "coordinates": [-72.73103891, 41.80283011]}, "properties": {"date": "2020-04-10", "new": 144, "total": 144, "city": "Hartford", "province": "Connecticut", "country": "United States"}}, {"type": "Feature", "geometry": {"type": "Point", "coordinates": [-73.2451475, 41.7937534]}, "properties": {"date": "2020-04-10", "new": 31, "total": 31, "city": "Litchfield", "province": "Connecticut", "country": "United States"}}, {"type": "Feature", "geometry": {"type": "Point", "coordinates": [-72.53714864, 41.45949668]}, "properties": {"date": "2020-04-10", "new": 35, "total": 35, "city": "Middlesex", "province": "Connecticut", "country": "United States"}}, {"type": "Feature", "geometry": {"type": "Point", "coordinates": [-72.93620426, 41.408032500000004]}, "properties": {"date": "2020-04-10", "new": 161, "total": 161, "city": "New Haven", "province": "Connecticut", "country": "United States"}}, {"type": "Feature", "geometry": {"type": "Point", "coordinates": [-72.93620426, 41.408032500000004]}, "properties": {"date": "2020-04-10", "new": 39, "total": 39, "city": "New Haven", "province": "Connecticut", "country": "United States"}}, {"type": "Feature", "geometry": {"type": "Point", "coordinates": [-72.10430976, 41.48896435]}, "properties": {"date": "2020-04-10", "new": 17, "total": 17, "city": "New London", "province": "Connecticut", "country": "United States"}}, {"type": "Feature", "geometry": {"type": "Point", "coordinates": [-72.3308481, 41.85853803]}, "properties": {"date": "2020-04-10", "new": 7, "total": 7, "city": "Tolland", "province": "Connecticut", "country": "United States"}}, {"type": "Feature", "geometry": {"type": "Point", "coordinates": [-71.98182316, 41.82972709]}, "properties": {"date": "2020-04-10", "new": 7, "total": 7, "city": "Windham", "province": "Connecticut", "country": "United States"}}, {"type": "Feature", "geometry": {"type": "Point", "coordinates": [-75.56884914, 39.08646628]}, "properties": {"date": "2020-04-10", "new": 16, "total": 16, "city": "Kent", "province": "Delaware", "country": "United States"}}, {"type": "Feature", "geometry": {"type": "Point", "coordinates": [-75.64054974, 39.57992638]}, "properties": {"date": "2020-04-10", "new": 50, "total": 50, "city": "New Castle", "province": "Delaware", "country": "United States"}}, {"type": "Feature", "geometry": {"type": "Point", "coordinates": [-75.39031349, 38.66143781]}, "properties": {"date": "2020-04-10", "new": 42, "total": 42, "city": "Sussex", "province": "Delaware", "country": "United States"}}, {"type": "Feature", "geometry": {"type": "Point", "coordinates": [-77.01655992, 38.90417773]}, "properties": {"date": "2020-04-10", "new": 137, "total": 137, "city": "District of Columbia", "province": "District of Columbia", "country": "United States"}}, {"type": "Feature", "geometry": {"type": "Point", "coordinates": [-82.35928158, 29.67866525]}, "properties": {"date": "2020-04-10", "new": 17, "total": 17, "city": "Alachua", "province": "Florida", "country": "United States"}}, {"type": "Feature", "geometry": {"type": "Point", "coordinates": [-85.62122584, 30.26548745]}, "properties": {"date": "2020-04-10", "new": 6, "total": 6, "city": "Bay", "province": "Florida", "country": "United States"}}, {"type": "Feature", "geometry": {"type": "Point", "coordinates": [-82.16611613, 29.95079741]}, "properties": {"date": "2020-04-10", "new": 2, "total": 2, "city": "Bradford", "province": "Florida", "country": "United States"}}, {"type": "Feature", "geometry": {"type": "Point", "coordinates": [-80.73091022, 28.29409504]}, "properties": {"date": "2020-04-10", "new": 9, "total": 9, "city": "Brevard", "province": "Florida", "country": "United States"}}, {"type": "Feature", "geometry": {"type": "Point", "coordinates": [-80.48725556, 26.15184651]}, "properties": {"date": "2020-04-10", "new": 191, "total": 191, "city": "Broward", "province": "Florida", "country": "United States"}}, {"type": "Feature", "geometry": {"type": "Point", "coordinates": [-85.19394153, 30.40666734]}, "properties": {"date": "2020-04-10", "new": 1, "total": 1, "city": "Calhoun", "province": "Florida", "country": "United States"}}, {"type": "Feature", "geometry": {"type": "Point", "coordinates": [-81.92949121, 26.90131002]}, "properties": {"date": "2020-04-10", "new": 6, "total": 6, "city": "Charlotte", "province": "Florida", "country": "United States"}}, {"type": "Feature", "geometry": {"type": "Point", "coordinates": [-82.47614748, 28.84804315]}, "properties": {"date": "2020-04-10", "new": 3, "total": 3, "city": "Citrus", "province": "Florida", "country": "United States"}}, {"type": "Feature", "geometry": {"type": "Point", "coordinates": [-81.85609986, 29.98319144]}, "properties": {"date": "2020-04-10", "new": 11, "total": 11, "city": "Clay", "province": "Florida", "country": "United States"}}, {"type": "Feature", "geometry": {"type": "Point", "coordinates": [-81.34687065, 26.11091986]}, "properties": {"date": "2020-04-10", "new": 26, "total": 26, "city": "Collier", "province": "Florida", "country": "United States"}}, {"type": "Feature", "geometry": {"type": "Point", "coordinates": [-82.62160164, 30.22509788]}, "properties": {"date": "2020-04-10", "new": 6, "total": 6, "city": "Columbia", "province": "Florida", "country": "United States"}}, {"type": "Feature", "geometry": {"type": "Point", "coordinates": [-81.80941373, 27.18677893]}, "properties": {"date": "2020-04-10", "new": 1, "total": 1, "city": "DeSoto", "province": "Florida", "country": "United States"}}, {"type": "Feature", "geometry": {"type": "Point", "coordinates": [-81.66976468, 30.33225875]}, "properties": {"date": "2020-04-10", "new": 20, "total": 20, "city": "Duval", "province": "Florida", "country": "United States"}}, {"type": "Feature", "geometry": {"type": "Point", "coordinates": [-87.37284571, 30.67652764]}, "properties": {"date": "2020-04-10", "new": 13, "total": 13, "city": "Escambia", "province": "Florida", "country": "United States"}}, {"type": "Feature", "geometry": {"type": "Point", "coordinates": [-81.31508595, 29.45933576]}, "properties": {"date": "2020-04-10", "new": 7, "total": 7, "city": "Flagler", "province": "Florida", "country": "United States"}}, {"type": "Feature", "geometry": {"type": "Point", "coordinates": [-84.61915825, 30.57796289]}, "properties": {"date": "2020-04-10", "new": 4, "total": 4, "city": "Gadsden", "province": "Florida", "country": "United States"}}, {"type": "Feature", "geometry": {"type": "Point", "coordinates": [-82.79880657, 29.72856978]}, "properties": {"date": "2020-04-10", "new": 1, "total": 1, "city": "Gilchrist", "province": "Florida", "country": "United States"}}, {"type": "Feature", "geometry": {"type": "Point", "coordinates": [-82.94998918, 30.49673973]}, "properties": {"date": "2020-04-10", "new": 1, "total": 1, "city": "Hamilton", "province": "Florida", "country": "United States"}}, {"type": "Feature", "geometry": {"type": "Point", "coordinates": [-81.16469006, 26.55386945]}, "properties": {"date": "2020-04-10", "new": 3, "total": 3, "city": "Hendry", "province": "Florida", "country": "United States"}}, {"type": "Feature", "geometry": {"type": "Point", "coordinates": [-82.42700204, 28.55364461]}, "properties": {"date": "2020-04-10", "new": 4, "total": 4, "city": "Hernando", "province": "Florida", "country": "United States"}}, {"type": "Feature", "geometry": {"type": "Point", "coordinates": [-81.34071957, 27.34254618]}, "properties": {"date": "2020-04-10", "new": 2, "total": 2, "city": "Highlands", "province": "Florida", "country": "United States"}}, {"type": "Feature", "geometry": {"type": "Point", "coordinates": [-82.32013172, 27.9276559]}, "properties": {"date": "2020-04-10", "new": 27, "total": 27, "city": "Hillsborough", "province": "Florida", "country": "United States"}}, {"type": "Feature", "geometry": {"type": "Point", "coordinates": [-83.89442308, 30.43669112]}, "properties": {"date": "2020-04-10", "new": 1, "total": 1, "city": "Jefferson", "province": "Florida", "country": "United States"}}, {"type": "Feature", "geometry": {"type": "Point", "coordinates": [-81.7125123, 28.76202069]}, "properties": {"date": "2020-04-10", "new": 8, "total": 8, "city": "Lake", "province": "Florida", "country": "United States"}}, {"type": "Feature", "geometry": {"type": "Point", "coordinates": [-81.88399313, 26.58410348]}, "properties": {"date": "2020-04-10", "new": 51, "total": 51, "city": "Lee", "province": "Florida", "country": "United States"}}, {"type": "Feature", "geometry": {"type": "Point", "coordinates": [-84.27491114, 30.45955727]}, "properties": {"date": "2020-04-10", "new": 8, "total": 8, "city": "Leon", "province": "Florida", "country": "United States"}}, {"type": "Feature", "geometry": {"type": "Point", "coordinates": [-83.47398594, 30.44396917]}, "properties": {"date": "2020-04-10", "new": 2, "total": 2, "city": "Madison", "province": "Florida", "country": "United States"}}, {"type": "Feature", "geometry": {"type": "Point", "coordinates": [-82.31831044, 27.47196942]}, "properties": {"date": "2020-04-10", "new": 23, "total": 23, "city": "Manatee", "province": "Florida", "country": "United States"}}, {"type": "Feature", "geometry": {"type": "Point", "coordinates": [-82.05803627, 29.21227113]}, "properties": {"date": "2020-04-10", "new": 10, "total": 10, "city": "Marion", "province": "Florida", "country": "United States"}}, {"type": "Feature", "geometry": {"type": "Point", "coordinates": [-80.43109784, 27.0772071]}, "properties": {"date": "2020-04-10", "new": 2, "total": 2, "city": "Martin", "province": "Florida", "country": "United States"}}, {"type": "Feature", "geometry": {"type": "Point", "coordinates": [-80.55170587, 25.6112362]}, "properties": {"date": "2020-04-10", "new": 219, "total": 219, "city": "Miami-Dade", "province": "Florida", "country": "United States"}}, {"type": "Feature", "geometry": {"type": "Point", "coordinates": [-80.55170587, 25.6112362]}, "properties": {"date": "2020-04-10", "new": 155, "total": 155, "city": "Miami-Dade", "province": "Florida", "country": "United States"}}, {"type": "Feature", "geometry": {"type": "Point", "coordinates": [-81.07812416, 25.20904673]}, "properties": {"date": "2020-04-10", "new": 3, "total": 3, "city": "Monroe", "province": "Florida", "country": "United States"}}, {"type": "Feature", "geometry": {"type": "Point", "coordinates": [-81.80297522, 30.61037141]}, "properties": {"date": "2020-04-10", "new": 3, "total": 3, "city": "Nassau", "province": "Florida", "country": "United States"}}, {"type": "Feature", "geometry": {"type": "Point", "coordinates": [-86.59267105, 30.69143028]}, "properties": {"date": "2020-04-10", "new": 3, "total": 3, "city": "Okaloosa", "province": "Florida", "country": "United States"}}, {"type": "Feature", "geometry": {"type": "Point", "coordinates": [-81.31799498, 28.51367621]}, "properties": {"date": "2020-04-10", "new": 38, "total": 38, "city": "Orange", "province": "Florida", "country": "United States"}}, {"type": "Feature", "geometry": {"type": "Point", "coordinates": [-81.14882926, 28.06312234]}, "properties": {"date": "2020-04-10", "new": 5, "total": 5, "city": "Osceola", "province": "Florida", "country": "United States"}}, {"type": "Feature", "geometry": {"type": "Point", "coordinates": [-80.46536002, 26.64676272]}, "properties": {"date": "2020-04-10", "new": 128, "total": 128, "city": "Palm Beach", "province": "Florida", "country": "United States"}}, {"type": "Feature", "geometry": {"type": "Point", "coordinates": [-82.40227529, 28.30810945]}, "properties": {"date": "2020-04-10", "new": 13, "total": 13, "city": "Pasco", "province": "Florida", "country": "United States"}}, {"type": "Feature", "geometry": {"type": "Point", "coordinates": [-82.72239666, 27.93130349]}, "properties": {"date": "2020-04-10", "new": 15, "total": 15, "city": "Pinellas", "province": "Florida", "country": "United States"}}, {"type": "Feature", "geometry": {"type": "Point", "coordinates": [-81.69732947, 27.95027105]}, "properties": {"date": "2020-04-10", "new": 25, "total": 25, "city": "Polk", "province": "Florida", "country": "United States"}}, {"type": "Feature", "geometry": {"type": "Point", "coordinates": [-81.74230285, 29.60779729]}, "properties": {"date": "2020-04-10", "new": 3, "total": 3, "city": "Putnam", "province": "Florida", "country": "United States"}}, {"type": "Feature", "geometry": {"type": "Point", "coordinates": [-81.43589967, 29.90096506]}, "properties": {"date": "2020-04-10", "new": 1, "total": 1, "city": "St. Johns", "province": "Florida", "country": "United States"}}, {"type": "Feature", "geometry": {"type": "Point", "coordinates": [-80.47106649, 27.37763908]}, "properties": {"date": "2020-04-10", "new": 12, "total": 12, "city": "St. Lucie", "province": "Florida", "country": "United States"}}, {"type": "Feature", "geometry": {"type": "Point", "coordinates": [-87.02458128, 30.69341450000001]}, "properties": {"date": "2020-04-10", "new": 32, "total": 32, "city": "Santa Rosa", "province": "Florida", "country": "United States"}}, {"type": "Feature", "geometry": {"type": "Point", "coordinates": [-82.33174248, 27.18546175]}, "properties": {"date": "2020-04-10", "new": 18, "total": 18, "city": "Sarasota", "province": "Florida", "country": "United States"}}, {"type": "Feature", "geometry": {"type": "Point", "coordinates": [-81.24060348, 28.7158582]}, "properties": {"date": "2020-04-10", "new": 7, "total": 7, "city": "Seminole", "province": "Florida", "country": "United States"}}, {"type": "Feature", "geometry": {"type": "Point", "coordinates": [-82.0794267, 28.70181754]}, "properties": {"date": "2020-04-10", "new": 8, "total": 8, "city": "Sumter", "province": "Florida", "country": "United States"}}, {"type": "Feature", "geometry": {"type": "Point", "coordinates": [-82.99099670000003, 30.19746066]}, "properties": {"date": "2020-04-10", "new": 4, "total": 4, "city": "Suwannee", "province": "Florida", "country": "United States"}}, {"type": "Feature", "geometry": {"type": "Point", "coordinates": [-81.18263252, 29.05858895]}, "properties": {"date": "2020-04-10", "new": 8, "total": 8, "city": "Volusia", "province": "Florida", "country": "United States"}}, {"type": "Feature", "geometry": {"type": "Point", "coordinates": [-86.16935664, 30.64204028]}, "properties": {"date": "2020-04-10", "new": 1, "total": 1, "city": "Walton", "province": "Florida", "country": "United States"}}, {"type": "Feature", "geometry": {"type": "Point", "coordinates": [-82.45936528, 31.55456473]}, "properties": {"date": "2020-04-10", "new": 1, "total": 1, "city": "Bacon", "province": "Georgia", "country": "United States"}}, {"type": "Feature", "geometry": {"type": "Point", "coordinates": [-83.24701748, 33.06882326]}, "properties": {"date": "2020-04-10", "new": 2, "total": 2, "city": "Baldwin", "province": "Georgia", "country": "United States"}}, {"type": "Feature", "geometry": {"type": "Point", "coordinates": [-83.49644388, 34.35607081]}, "properties": {"date": "2020-04-10", "new": 3, "total": 3, "city": "Banks", "province": "Georgia", "country": "United States"}}, {"type": "Feature", "geometry": {"type": "Point", "coordinates": [-83.71436292, 33.99148694]}, "properties": {"date": "2020-04-10", "new": 2, "total": 2, "city": "Barrow", "province": "Georgia", "country": "United States"}}, {"type": "Feature", "geometry": {"type": "Point", "coordinates": [-84.83887523, 34.23732119]}, "properties": {"date": "2020-04-10", "new": 11, "total": 11, "city": "Bartow", "province": "Georgia", "country": "United States"}}, {"type": "Feature", "geometry": {"type": "Point", "coordinates": [-83.22145359, 31.76095874]}, "properties": {"date": "2020-04-10", "new": 2, "total": 2, "city": "Ben Hill", "province": "Georgia", "country": "United States"}}, {"type": "Feature", "geometry": {"type": "Point", "coordinates": [-83.22529920000002, 31.27590016]}, "properties": {"date": "2020-04-10", "new": 2, "total": 2, "city": "Berrien", "province": "Georgia", "country": "United States"}}, {"type": "Feature", "geometry": {"type": "Point", "coordinates": [-83.70489165, 32.80904227]}, "properties": {"date": "2020-04-10", "new": 3, "total": 3, "city": "Bibb", "province": "Georgia", "country": "United States"}}, {"type": "Feature", "geometry": {"type": "Point", "coordinates": [-83.58303423, 30.83922642]}, "properties": {"date": "2020-04-10", "new": 1, "total": 1, "city": "Brooks", "province": "Georgia", "country": "United States"}}, {"type": "Feature", "geometry": {"type": "Point", "coordinates": [-81.44002948, 32.00979311]}, "properties": {"date": "2020-04-10", "new": 4, "total": 4, "city": "Bryan", "province": "Georgia", "country": "United States"}}, {"type": "Feature", "geometry": {"type": "Point", "coordinates": [-81.74811421, 32.39577406]}, "properties": {"date": "2020-04-10", "new": 2, "total": 2, "city": "Bulloch", "province": "Georgia", "country": "United States"}}, {"type": "Feature", "geometry": {"type": "Point", "coordinates": [-81.99928721, 33.05917989]}, "properties": {"date": "2020-04-10", "new": 1, "total": 1, "city": "Burke", "province": "Georgia", "country": "United States"}}, {"type": "Feature", "geometry": {"type": "Point", "coordinates": [-83.95435040000002, 33.283094500000004]}, "properties": {"date": "2020-04-10", "new": 4, "total": 4, "city": "Butts", "province": "Georgia", "country": "United States"}}, {"type": "Feature", "geometry": {"type": "Point", "coordinates": [-84.62725131, 31.53169785]}, "properties": {"date": "2020-04-10", "new": 2, "total": 2, "city": "Calhoun", "province": "Georgia", "country": "United States"}}, {"type": "Feature", "geometry": {"type": "Point", "coordinates": [-85.07976677, 33.58138199]}, "properties": {"date": "2020-04-10", "new": 14, "total": 14, "city": "Carroll", "province": "Georgia", "country": "United States"}}, {"type": "Feature", "geometry": {"type": "Point", "coordinates": [-85.13757014, 34.89872298]}, "properties": {"date": "2020-04-10", "new": 2, "total": 2, "city": "Catoosa", "province": "Georgia", "country": "United States"}}, {"type": "Feature", "geometry": {"type": "Point", "coordinates": [-81.12489526, 32.00043026]}, "properties": {"date": "2020-04-10", "new": 5, "total": 5, "city": "Chatham", "province": "Georgia", "country": "United States"}}, {"type": "Feature", "geometry": {"type": "Point", "coordinates": [-84.78809239, 32.34341231]}, "properties": {"date": "2020-04-10", "new": 1, "total": 1, "city": "Chattahoochee", "province": "Georgia", "country": "United States"}}, {"type": "Feature", "geometry": {"type": "Point", "coordinates": [-84.47431861, 34.24393976]}, "properties": {"date": "2020-04-10", "new": 11, "total": 11, "city": "Cherokee", "province": "Georgia", "country": "United States"}}, {"type": "Feature", "geometry": {"type": "Point", "coordinates": [-84.97713865, 31.62221166]}, "properties": {"date": "2020-04-10", "new": 1, "total": 1, "city": "Clay", "province": "Georgia", "country": "United States"}}, {"type": "Feature", "geometry": {"type": "Point", "coordinates": [-84.35594188, 33.54187245]}, "properties": {"date": "2020-04-10", "new": 13, "total": 13, "city": "Clayton", "province": "Georgia", "country": "United States"}}, {"type": "Feature", "geometry": {"type": "Point", "coordinates": [-84.5761255, 33.94243204]}, "properties": {"date": "2020-04-10", "new": 33, "total": 33, "city": "Cobb", "province": "Georgia", "country": "United States"}}, {"type": "Feature", "geometry": {"type": "Point", "coordinates": [-82.85492059999999, 31.54892966]}, "properties": {"date": "2020-04-10", "new": 5, "total": 5, "city": "Coffee", "province": "Georgia", "country": "United States"}}, {"type": "Feature", "geometry": {"type": "Point", "coordinates": [-83.7677946, 31.18810588]}, "properties": {"date": "2020-04-10", "new": 2, "total": 2, "city": "Colquitt", "province": "Georgia", "country": "United States"}}, {"type": "Feature", "geometry": {"type": "Point", "coordinates": [-82.263524, 33.54534185]}, "properties": {"date": "2020-04-10", "new": 4, "total": 4, "city": "Columbia", "province": "Georgia", "country": "United States"}}, {"type": "Feature", "geometry": {"type": "Point", "coordinates": [-83.42947229, 31.16068491]}, "properties": {"date": "2020-04-10", "new": 1, "total": 1, "city": "Cook", "province": "Georgia", "country": "United States"}}, {"type": "Feature", "geometry": {"type": "Point", "coordinates": [-84.76129976, 33.35334302]}, "properties": {"date": "2020-04-10", "new": 6, "total": 6, "city": "Coweta", "province": "Georgia", "country": "United States"}}, {"type": "Feature", "geometry": {"type": "Point", "coordinates": [-83.76811843, 31.92289565]}, "properties": {"date": "2020-04-10", "new": 8, "total": 8, "city": "Crisp", "province": "Georgia", "country": "United States"}}, {"type": "Feature", "geometry": {"type": "Point", "coordinates": [-84.57619536, 30.87967778]}, "properties": {"date": "2020-04-10", "new": 5, "total": 5, "city": "Decatur", "province": "Georgia", "country": "United States"}}, {"type": "Feature", "geometry": {"type": "Point", "coordinates": [-84.22396017, 33.76944049]}, "properties": {"date": "2020-04-10", "new": 53, "total": 53, "city": "DeKalb", "province": "Georgia", "country": "United States"}}, {"type": "Feature", "geometry": {"type": "Point", "coordinates": [-83.79746561, 32.15630737]}, "properties": {"date": "2020-04-10", "new": 7, "total": 7, "city": "Dooly", "province": "Georgia", "country": "United States"}}, {"type": "Feature", "geometry": {"type": "Point", "coordinates": [-84.21722377, 31.53328528]}, "properties": {"date": "2020-04-10", "new": 42, "total": 42, "city": "Dougherty", "province": "Georgia", "country": "United States"}}, {"type": "Feature", "geometry": {"type": "Point", "coordinates": [-84.77026156, 33.70291126]}, "properties": {"date": "2020-04-10", "new": 15, "total": 15, "city": "Douglas", "province": "Georgia", "country": "United States"}}, {"type": "Feature", "geometry": {"type": "Point", "coordinates": [-82.30239915, 32.59221302]}, "properties": {"date": "2020-04-10", "new": 1, "total": 1, "city": "Emanuel", "province": "Georgia", "country": "United States"}}, {"type": "Feature", "geometry": {"type": "Point", "coordinates": [-84.49089434, 33.41357794]}, "properties": {"date": "2020-04-10", "new": 3, "total": 3, "city": "Fayette", "province": "Georgia", "country": "United States"}}, {"type": "Feature", "geometry": {"type": "Point", "coordinates": [-84.12315129999998, 34.22604035]},