[{"type": "Feature", "geometry": {"type": "Point", "coordinates": [3.4723669999999998, 36.760342]}, "properties": {"date": "2020-04-06", "new": 0, "total": 5, "city": "Boumerdes", "province": "Boumerdes", "country": "Algeria"}}, {"type": "Feature", "geometry": {"type": "Point", "coordinates": [6.6, 36.35]}, "properties": {"date": "2020-04-06", "new": 0, "total": 6, "city": "Constantine", "province": "Constantine", "country": "Algeria"}}, {"type": "Feature", "geometry": {"type": "Point", "coordinates": [3.901389, 36.38]}, "properties": {"date": "2020-04-06", "new": 0, "total": 1, "city": "Bouira", "province": "Bouira", "country": "Algeria"}}, {"type": "Feature", "geometry": {"type": "Point", "coordinates": [-0.641389, 35.193889]}, "properties": {"date": "2020-04-06", "new": 0, "total": 1, "city": "Sidi Bel Abbes", "province": "Sidi Bel Abbes", "country": "Algeria"}}, {"type": "Feature", "geometry": {"type": "Point", "coordinates": [17.083610999999998, -22.57]}, "properties": {"date": "2020-04-06", "new": 0, "total": 2, "city": "Windhoek", "province": "", "country": "Namibia"}}, {"type": "Feature", "geometry": {"type": "Point", "coordinates": [3.25, 34.666667]}, "properties": {"date": "2020-04-06", "new": 0, "total": 4, "city": "Djelfa", "province": "Djelfa", "country": "Algeria"}}, {"type": "Feature", "geometry": {"type": "Point", "coordinates": [7.766667, 36.9]}, "properties": {"date": "2020-04-06", "new": 0, "total": 3, "city": "Annaba", "province": "Annaba", "country": "Algeria"}}, {"type": "Feature", "geometry": {"type": "Point", "coordinates": [0.55, 35.733333]}, "properties": {"date": "2020-04-06", "new": 0, "total": 2, "city": "Relizane", "province": "Relizane", "country": "Algeria"}}, {"type": "Feature", "geometry": {"type": "Point", "coordinates": [5.733333, 34.85]}, "properties": {"date": "2020-04-06", "new": 0, "total": 4, "city": "Biskra", "province": "Biskra", "country": "Algeria"}}, {"type": "Feature", "geometry": {"type": "Point", "coordinates": [7.113611, 35.8775]}, "properties": {"date": "2020-04-06", "new": 0, "total": 3, "city": "Oum El Bouaghi", "province": "Oum El Bouaghi", "country": "Algeria"}}, {"type": "Feature", "geometry": {"type": "Point", "coordinates": [17.227929999999997, -22.2558]}, "properties": {"date": "2020-04-06", "new": 0, "total": 4, "city": "", "province": "", "country": "Namibia"}}, {"type": "Feature", "geometry": {"type": "Point", "coordinates": [-1.133333, 35.3]}, "properties": {"date": "2020-04-06", "new": 0, "total": 2, "city": "Ain Temouchent", "province": "Ain Temouchent", "country": "Algeria"}}, {"type": "Feature", "geometry": {"type": "Point", "coordinates": [7.951111, 36.286389]}, "properties": {"date": "2020-04-06", "new": 0, "total": 2, "city": "Souk-Ahras", "province": "Souk-Ahras", "country": "Algeria"}}, {"type": "Feature", "geometry": {"type": "Point", "coordinates": [-2.2166669999999997, 31.616659999999996]}, "properties": {"date": "2020-04-06", "new": 0, "total": 1, "city": "Bechar", "province": "Bechar", "country": "Algeria"}}, {"type": "Feature", "geometry": {"type": "Point", "coordinates": [8.116667, 35.4]}, "properties": {"date": "2020-04-06", "new": 0, "total": 3, "city": "Tebessa", "province": "Tebessa", "country": "Algeria"}}, {"type": "Feature", "geometry": {"type": "Point", "coordinates": [2.9197130000000002, 36.49228]}, "properties": {"date": "2020-04-06", "new": 0, "total": 15, "city": "Blida", "province": "Blida", "country": "Algeria"}}, {"type": "Feature", "geometry": {"type": "Point", "coordinates": [3.0588889999999997, 36.753889]}, "properties": {"date": "2020-04-06", "new": 0, "total": 24, "city": "Alger", "province": "Alger", "country": "Algeria"}}, {"type": "Feature", "geometry": {"type": "Point", "coordinates": [39.268889, 8.541389]}, "properties": {"date": "2020-04-06", "new": 0, "total": 3, "city": "Adama", "province": "Oromia", "country": "Ethiopia"}}, {"type": "Feature", "geometry": {"type": "Point", "coordinates": [-0.6330560000000001, 35.696944]}, "properties": {"date": "2020-04-06", "new": 0, "total": 1, "city": "Oran", "province": "Oran", "country": "Algeria"}}, {"type": "Feature", "geometry": {"type": "Point", "coordinates": [5.066667, 36.75]}, "properties": {"date": "2020-04-06", "new": 0, "total": 4, "city": "Bejaia", "province": "Bejaia", "country": "Algeria"}}, {"type": "Feature", "geometry": {"type": "Point", "coordinates": [-17.464178, 14.694888]}, "properties": {"date": "2020-04-06", "new": 0, "total": 3, "city": "Hospital Center University De Fann", "province": "", "country": "Senegal"}}, {"type": "Feature", "geometry": {"type": "Point", "coordinates": [5.4, 36.183333000000005]}, "properties": {"date": "2020-04-06", "new": 0, "total": 4, "city": "Setif", "province": "Setif", "country": "Algeria"}}, {"type": "Feature", "geometry": {"type": "Point", "coordinates": [4.05, 36.716667]}, "properties": {"date": "2020-04-06", "new": 0, "total": 1, "city": "Tizi Ouzou", "province": "Tizi Ouzou", "country": "Algeria"}}, {"type": "Feature", "geometry": {"type": "Point", "coordinates": [2.4494439999999997, 36.591944]}, "properties": {"date": "2020-04-06", "new": 0, "total": 2, "city": "Tipaza", "province": "Tipaza", "country": "Algeria"}}, {"type": "Feature", "geometry": {"type": "Point", "coordinates": [-1.31667, 34.882776]}, "properties": {"date": "2020-04-06", "new": 0, "total": 1, "city": "Tlemcen", "province": "Tlemcen", "country": "Algeria"}}, {"type": "Feature", "geometry": {"type": "Point", "coordinates": [4.766667, 36.066666999999995]}, "properties": {"date": "2020-04-06", "new": 0, "total": 4, "city": "Bordj Bou-Arreridj", "province": "Bordj Bou-Arreridj", "country": "Algeria"}}, {"type": "Feature", "geometry": {"type": "Point", "coordinates": [37.84561, 0.5537850000000001]}, "properties": {"date": "2020-04-06", "new": 0, "total": 6, "city": "", "province": "", "country": "Kenya"}}, {"type": "Feature", "geometry": {"type": "Point", "coordinates": [2.75, 36.2675]}, "properties": {"date": "2020-04-06", "new": 0, "total": 3, "city": "Medea", "province": "Medea", "country": "Algeria"}}, {"type": "Feature", "geometry": {"type": "Point", "coordinates": [5.75, 36.816666999999995]}, "properties": {"date": "2020-04-06", "new": 0, "total": 2, "city": "Jijel", "province": "Jijel", "country": "Algeria"}}, {"type": "Feature", "geometry": {"type": "Point", "coordinates": [6.1666669999999995, 35.55]}, "properties": {"date": "2020-04-06", "new": 0, "total": 2, "city": "Batna", "province": "Batna", "country": "Algeria"}}, {"type": "Feature", "geometry": {"type": "Point", "coordinates": [7.133333, 35.416667]}, "properties": {"date": "2020-04-06", "new": 0, "total": 1, "city": "Khenchela", "province": "Khenchela", "country": "Algeria"}}, {"type": "Feature", "geometry": {"type": "Point", "coordinates": [6.264444, 36.450278000000004]}, "properties": {"date": "2020-04-06", "new": 0, "total": 1, "city": "Mila", "province": "Mila", "country": "Algeria"}}, {"type": "Feature", "geometry": {"type": "Point", "coordinates": [29.77867, 26.667959999999997]}, "properties": {"date": "2020-04-06", "new": 0, "total": 188, "city": "", "province": "", "country": "Egypt"}}, {"type": "Feature", "geometry": {"type": "Point", "coordinates": [36.8167, -1.2833]}, "properties": {"date": "2020-04-06", "new": 0, "total": 7, "city": "", "province": "Nairobi County", "country": "Kenya"}}, {"type": "Feature", "geometry": {"type": "Point", "coordinates": [29.92595, -2.00007]}, "properties": {"date": "2020-04-06", "new": 0, "total": 54, "city": "", "province": "", "country": "Rwanda"}}, {"type": "Feature", "geometry": {"type": "Point", "coordinates": [7.8333330000000005, 5.0]}, "properties": {"date": "2020-04-06", "new": 0, "total": 5, "city": "", "province": "Akwa Ibom", "country": "Nigeria"}}, {"type": "Feature", "geometry": {"type": "Point", "coordinates": [7.483333, 9.066667]}, "properties": {"date": "2020-04-06", "new": 1, "total": 20, "city": "", "province": "Abuja", "country": "Nigeria"}}, {"type": "Feature", "geometry": {"type": "Point", "coordinates": [7.433333, 10.516667]}, "properties": {"date": "2020-04-06", "new": 0, "total": 2, "city": "", "province": "Kaduna", "country": "Nigeria"}}, {"type": "Feature", "geometry": {"type": "Point", "coordinates": [3.384082, 6.455026999999999]}, "properties": {"date": "2020-04-06", "new": 0, "total": 37, "city": "", "province": "Lagos", "country": "Nigeria"}}, {"type": "Feature", "geometry": {"type": "Point", "coordinates": [10.0, 10.5]}, "properties": {"date": "2020-04-06", "new": 0, "total": 4, "city": "", "province": "Bauchi", "country": "Nigeria"}}, {"type": "Feature", "geometry": {"type": "Point", "coordinates": [4.5, 7.5]}, "properties": {"date": "2020-04-06", "new": 0, "total": 8, "city": "", "province": "Osun", "country": "Nigeria"}}, {"type": "Feature", "geometry": {"type": "Point", "coordinates": [6.0, 6.5]}, "properties": {"date": "2020-04-06", "new": 2, "total": 7, "city": "", "province": "Edo", "country": "Nigeria"}}, {"type": "Feature", "geometry": {"type": "Point", "coordinates": [5.0833330000000005, 7.1666669999999995]}, "properties": {"date": "2020-04-06", "new": 0, "total": 1, "city": "", "province": "Ondo", "country": "Nigeria"}}, {"type": "Feature", "geometry": {"type": "Point", "coordinates": [3.369446, 6.520080999999999]}, "properties": {"date": "2020-04-06", "new": 0, "total": 1, "city": "Lagos", "province": "Lagos", "country": "Nigeria"}}, {"type": "Feature", "geometry": {"type": "Point", "coordinates": [5.0, 8.5]}, "properties": {"date": "2020-04-06", "new": 2, "total": 2, "city": "", "province": "Kwara", "country": "Nigeria"}}, {"type": "Feature", "geometry": {"type": "Point", "coordinates": [6.8333330000000005, 4.75]}, "properties": {"date": "2020-04-06", "new": 1, "total": 1, "city": "", "province": "Rivers", "country": "Nigeria"}}, {"type": "Feature", "geometry": {"type": "Point", "coordinates": [38.74, 9.03]}, "properties": {"date": "2020-04-06", "new": 0, "total": 14, "city": "Addis Ababa", "province": "Addis Ababa", "country": "Ethiopia"}}, {"type": "Feature", "geometry": {"type": "Point", "coordinates": [41.866667, 9.6]}, "properties": {"date": "2020-04-06", "new": 0, "total": 1, "city": "Dire Dawa", "province": "Dire Dawa", "country": "Ethiopia"}}, {"type": "Feature", "geometry": {"type": "Point", "coordinates": [38.9, 8.8]}, "properties": {"date": "2020-04-06", "new": 1, "total": 1, "city": "Dukem", "province": "Oromia", "country": "Ethiopia"}}, {"type": "Feature", "geometry": {"type": "Point", "coordinates": [35.01527, 31.471090000000004]}, "properties": {"date": "2020-04-06", "new": 0, "total": 3, "city": "", "province": "", "country": "Israel"}}, {"type": "Feature", "geometry": {"type": "Point", "coordinates": [34.88278, 32.009440000000005]}, "properties": {"date": "2020-04-06", "new": 0, "total": 1, "city": "Ben Gurion Airport", "province": "", "country": "Israel"}}, {"type": "Feature", "geometry": {"type": "Point", "coordinates": [25.833333, -17.933332999999998]}, "properties": {"date": "2020-04-06", "new": 0, "total": 1, "city": "Victoria Falls", "province": "Matabeleland North", "country": "Zimbabwe"}}, {"type": "Feature", "geometry": {"type": "Point", "coordinates": [31.05, -17.85]}, "properties": {"date": "2020-04-06", "new": 0, "total": 6, "city": "Harare", "province": "Harare", "country": "Zimbabwe"}}, {"type": "Feature", "geometry": {"type": "Point", "coordinates": [47.61266, 29.356559999999998]}, "properties": {"date": "2020-04-06", "new": 0, "total": 1, "city": "", "province": "", "country": "Kuwait"}}, {"type": "Feature", "geometry": {"type": "Point", "coordinates": [-17.52, 14.75]}, "properties": {"date": "2020-04-06", "new": 0, "total": 1, "city": "Almadies", "province": "Dakar", "country": "Senegal"}}, {"type": "Feature", "geometry": {"type": "Point", "coordinates": [2.340332, 9.664529]}, "properties": {"date": "2020-04-06", "new": 0, "total": 4, "city": "", "province": "", "country": "Benin"}}, {"type": "Feature", "geometry": {"type": "Point", "coordinates": [-72.666667, -38.9]}, "properties": {"date": "2020-04-06", "new": 0, "total": 142, "city": "", "province": "Araucania", "country": "Chile"}}, {"type": "Feature", "geometry": {"type": "Point", "coordinates": [-71.95, -36.616667]}, "properties": {"date": "2020-04-06", "new": 0, "total": 61, "city": "", "province": "Nuble", "country": "Chile"}}, {"type": "Feature", "geometry": {"type": "Point", "coordinates": [-65.4105, -36.6354]}, "properties": {"date": "2020-04-06", "new": 0, "total": 5, "city": "", "province": "", "country": "Argentina"}}, {"type": "Feature", "geometry": {"type": "Point", "coordinates": [-73.241667, -39.808333000000005]}, "properties": {"date": "2020-04-06", "new": 0, "total": 31, "city": "", "province": "Los Rios", "country": "Chile"}}, {"type": "Feature", "geometry": {"type": "Point", "coordinates": [-72.936667, -41.471667]}, "properties": {"date": "2020-04-06", "new": 0, "total": 63, "city": "", "province": "Los Lagos", "country": "Chile"}}, {"type": "Feature", "geometry": {"type": "Point", "coordinates": [-70.93333299999999, -53.166667000000004]}, "properties": {"date": "2020-04-06", "new": 0, "total": 39, "city": "", "province": "Magallanes", "country": "Chile"}}, {"type": "Feature", "geometry": {"type": "Point", "coordinates": [-70.314444, -18.475]}, "properties": {"date": "2020-04-06", "new": 0, "total": 3, "city": "", "province": "Arica Y Parinacota", "country": "Chile"}}, {"type": "Feature", "geometry": {"type": "Point", "coordinates": [-69.333333, -20.283333]}, "properties": {"date": "2020-04-06", "new": 0, "total": 5, "city": "", "province": "Tarapaca", "country": "Chile"}}, {"type": "Feature", "geometry": {"type": "Point", "coordinates": [-70.4, -23.65]}, "properties": {"date": "2020-04-06", "new": 0, "total": 9, "city": "", "province": "Antofagasta", "country": "Chile"}}, {"type": "Feature", "geometry": {"type": "Point", "coordinates": [-73.05, -36.833333]}, "properties": {"date": "2020-04-06", "new": 0, "total": 47, "city": "", "province": "Biobio", "country": "Chile"}}, {"type": "Feature", "geometry": {"type": "Point", "coordinates": [-71.343333, -29.953056]}, "properties": {"date": "2020-04-06", "new": 0, "total": 13, "city": "", "province": "Coquimbo", "country": "Chile"}}, {"type": "Feature", "geometry": {"type": "Point", "coordinates": [-71.616667, -33.05]}, "properties": {"date": "2020-04-06", "new": 0, "total": 34, "city": "", "province": "Valparaiso", "country": "Chile"}}, {"type": "Feature", "geometry": {"type": "Point", "coordinates": [-70.666667, -33.45]}, "properties": {"date": "2020-04-06", "new": 0, "total": 342, "city": "Santiago", "province": "Metropolitan Region", "country": "Chile"}}, {"type": "Feature", "geometry": {"type": "Point", "coordinates": [-71.666667, -35.433333000000005]}, "properties": {"date": "2020-04-06", "new": 0, "total": 30, "city": "", "province": "Maule", "country": "Chile"}}, {"type": "Feature", "geometry": {"type": "Point", "coordinates": [-56.9909195, -25.2510099]}, "properties": {"date": "2020-04-06", "new": 0, "total": 1, "city": "", "province": "Cordillera", "country": "Paraguay"}}, {"type": "Feature", "geometry": {"type": "Point", "coordinates": [-57.5980891, -25.2968527]}, "properties": {"date": "2020-04-06", "new": 0, "total": 23, "city": "Asuncion", "province": "Central", "country": "Paraguay"}}, {"type": "Feature", "geometry": {"type": "Point", "coordinates": [-57.19062660000001, -26.9855385]}, "properties": {"date": "2020-04-06", "new": 0, "total": 1, "city": "", "province": "Misiones", "country": "Paraguay"}}, {"type": "Feature", "geometry": {"type": "Point", "coordinates": [-57.4961265, -25.5513125]}, "properties": {"date": "2020-04-06", "new": 0, "total": 14, "city": "", "province": "Central", "country": "Paraguay"}}, {"type": "Feature", "geometry": {"type": "Point", "coordinates": [-54.9552866, -25.368782]}, "properties": {"date": "2020-04-06", "new": 0, "total": 5, "city": "", "province": "Alto Parana", "country": "Paraguay"}}, {"type": "Feature", "geometry": {"type": "Point", "coordinates": [55.8856831, -25.0859235]}, "properties": {"date": "2020-04-06", "new": 0, "total": 1, "city": "", "province": "Caaguazu", "country": "Paraguay"}}, {"type": "Feature", "geometry": {"type": "Point", "coordinates": [-56.0142, -32.8153]}, "properties": {"date": "2020-04-06", "new": 9, "total": 50, "city": "", "province": "", "country": "Uruguay"}}, {"type": "Feature", "geometry": {"type": "Point", "coordinates": [-58.38166700000001, -34.603333]}, "properties": {"date": "2020-04-06", "new": 0, "total": 10, "city": "", "province": "Buenos Aires", "country": "Argentina"}}, {"type": "Feature", "geometry": {"type": "Point", "coordinates": [-58.986667000000004, -27.451389000000002]}, "properties": {"date": "2020-04-06", "new": 0, "total": 12, "city": "", "province": "Chaco", "country": "Argentina"}}, {"type": "Feature", "geometry": {"type": "Point", "coordinates": [-64.18333299999999, -31.416666999999997]}, "properties": {"date": "2020-04-06", "new": 0, "total": 6, "city": "", "province": "Cordoba", "country": "Argentina"}}, {"type": "Feature", "geometry": {"type": "Point", "coordinates": [-57.63, -28.66]}, "properties": {"date": "2020-04-06", "new": 0, "total": 1, "city": "", "province": "Corrientes", "country": "Argentina"}}, {"type": "Feature", "geometry": {"type": "Point", "coordinates": [-60.281000000000006, -32.0477]}, "properties": {"date": "2020-04-06", "new": 0, "total": 1, "city": "", "province": "Entre Rios", "country": "Argentina"}}, {"type": "Feature", "geometry": {"type": "Point", "coordinates": [-68.847222, -32.890278]}, "properties": {"date": "2020-04-06", "new": 0, "total": 10, "city": "", "province": "Mendoza", "country": "Argentina"}}, {"type": "Feature", "geometry": {"type": "Point", "coordinates": [-68.074444, -38.951667]}, "properties": {"date": "2020-04-06", "new": 0, "total": 4, "city": "", "province": "Neuquen", "country": "Argentina"}}, {"type": "Feature", "geometry": {"type": "Point", "coordinates": [-65.416667, -24.783333]}, "properties": {"date": "2020-04-06", "new": 0, "total": 2, "city": "", "province": "Salta", "country": "Argentina"}}, {"type": "Feature", "geometry": {"type": "Point", "coordinates": [-66.35, -33.3]}, "properties": {"date": "2020-04-06", "new": 0, "total": 1, "city": "", "province": "San Luis", "country": "Argentina"}}, {"type": "Feature", "geometry": {"type": "Point", "coordinates": [-70.01, -48.62]}, "properties": {"date": "2020-04-06", "new": 0, "total": 10, "city": "", "province": "Santa Cruz", "country": "Argentina"}}, {"type": "Feature", "geometry": {"type": "Point", "coordinates": [-62.246, -33.7227]}, "properties": {"date": "2020-04-06", "new": 0, "total": 11, "city": "", "province": "Santa Fe", "country": "Argentina"}}, {"type": "Feature", "geometry": {"type": "Point", "coordinates": [-65.34, -26.94]}, "properties": {"date": "2020-04-06", "new": 0, "total": 1, "city": "", "province": "Tucuman", "country": "Argentina"}}, {"type": "Feature", "geometry": {"type": "Point", "coordinates": [-90.3534, 15.706029999999998]}, "properties": {"date": "2020-04-06", "new": 0, "total": 4, "city": "", "province": "", "country": "Guatemala"}}, {"type": "Feature", "geometry": {"type": "Point", "coordinates": [-90.4925605, 14.6262201]}, "properties": {"date": "2020-04-06", "new": 0, "total": 7, "city": "Guatemala City", "province": "Guatemala City", "country": "Guatemala"}}, {"type": "Feature", "geometry": {"type": "Point", "coordinates": [-90.57953940000002, 14.6424122]}, "properties": {"date": "2020-04-06", "new": 0, "total": 1, "city": "Mixco", "province": "Guatemala City", "country": "Guatemala"}}, {"type": "Feature", "geometry": {"type": "Point", "coordinates": [-122.5216407, 48.14713305]}, "properties": {"date": "2020-04-06", "new": 0, "total": 1, "city": "Island", "province": "Washington", "country": "United States"}}, {"type": "Feature", "geometry": {"type": "Point", "coordinates": [-123.56097040000002, 47.75003077]}, "properties": {"date": "2020-04-06", "new": 0, "total": 1, "city": "Jefferson", "province": "Washington", "country": "United States"}}, {"type": "Feature", "geometry": {"type": "Point", "coordinates": [-121.8346131, 47.49137892]}, "properties": {"date": "2020-04-06", "new": 0, "total": 269, "city": "King", "province": "Washington", "country": "United States"}}, {"type": "Feature", "geometry": {"type": "Point", "coordinates": [-122.6436061, 47.63479026]}, "properties": {"date": "2020-04-06", "new": 0, "total": 5, "city": "Kitsap", "province": "Washington", "country": "United States"}}, {"type": "Feature", "geometry": {"type": "Point", "coordinates": [-120.7913598, 45.87325839]}, "properties": {"date": "2020-04-06", "new": 0, "total": 2, "city": "Klickitat", "province": "Washington", "country": "United States"}}, {"type": "Feature", "geometry": {"type": "Point", "coordinates": [-123.1863685, 47.35007586]}, "properties": {"date": "2020-04-06", "new": 0, "total": 1, "city": "Mason", "province": "Washington", "country": "United States"}}, {"type": "Feature", "geometry": {"type": "Point", "coordinates": [-119.73872240000001, 48.54855019]}, "properties": {"date": "2020-04-06", "new": 0, "total": 1, "city": "Okanogan", "province": "Washington", "country": "United States"}}, {"type": "Feature", "geometry": {"type": "Point", "coordinates": [-122.14059579999999, 47.03892768]}, "properties": {"date": "2020-04-06", "new": 0, "total": 68, "city": "Pierce", "province": "Washington", "country": "United States"}}, {"type": "Feature", "geometry": {"type": "Point", "coordinates": [-122.96745, 48.60182783]}, "properties": {"date": "2020-04-06", "new": 0, "total": 1, "city": "San Juan", "province": "Washington", "country": "United States"}}, {"type": "Feature", "geometry": {"type": "Point", "coordinates": [-121.91644029999999, 46.02408726]}, "properties": {"date": "2020-04-06", "new": 0, "total": 1, "city": "Skamania", "province": "Washington", "country": "United States"}}, {"type": "Feature", "geometry": {"type": "Point", "coordinates": [-121.7170703, 48.04615983]}, "properties": {"date": "2020-04-06", "new": 0, "total": 56, "city": "Snohomish", "province": "Washington", "country": "United States"}}, {"type": "Feature", "geometry": {"type": "Point", "coordinates": [-117.4046494, 47.62113146]}, "properties": {"date": "2020-04-06", "new": 0, "total": 10, "city": "Spokane", "province": "Washington", "country": "United States"}}, {"type": "Feature", "geometry": {"type": "Point", "coordinates": [-122.82906559999999, 46.9291895]}, "properties": {"date": "2020-04-06", "new": 0, "total": 3, "city": "Thurston", "province": "Washington", "country": "United States"}}, {"type": "Feature", "geometry": {"type": "Point", "coordinates": [-118.4775539, 46.23040051]}, "properties": {"date": "2020-04-06", "new": 0, "total": 1, "city": "Walla Walla", "province": "Washington", "country": "United States"}}, {"type": "Feature", "geometry": {"type": "Point", "coordinates": [-121.74900179999999, 48.82227976]}, "properties": {"date": "2020-04-06", "new": 0, "total": 25, "city": "Whatcom", "province": "Washington", "country": "United States"}}, {"type": "Feature", "geometry": {"type": "Point", "coordinates": [-120.73801259999999, 46.45738486]}, "properties": {"date": "2020-04-06", "new": 0, "total": 37, "city": "Yakima", "province": "Washington", "country": "United States"}}, {"type": "Feature", "geometry": {"type": "Point", "coordinates": [-78.02414609, 39.46704621]}, "properties": {"date": "2020-04-06", "new": 0, "total": 5, "city": "Berkeley", "province": "West Virginia", "country": "United States"}}, {"type": "Feature", "geometry": {"type": "Point", "coordinates": [-80.37919577, 39.2853852]}, "properties": {"date": "2020-04-06", "new": 0, "total": 5, "city": "Harrison", "province": "West Virginia", "country": "United States"}}, {"type": "Feature", "geometry": {"type": "Point", "coordinates": [-81.68148753, 38.84263974]}, "properties": {"date": "2020-04-06", "new": 0, "total": 1, "city": "Jackson", "province": "West Virginia", "country": "United States"}}, {"type": "Feature", "geometry": {"type": "Point", "coordinates": [-77.86014147, 39.30776166]}, "properties": {"date": "2020-04-06", "new": 0, "total": 4, "city": "Jefferson", "province": "West Virginia", "country": "United States"}}, {"type": "Feature", "geometry": {"type": "Point", "coordinates": [-81.52857054, 38.33860077]}, "properties": {"date": "2020-04-06", "new": 0, "total": 3, "city": "Kanawha", "province": "West Virginia", "country": "United States"}}, {"type": "Feature", "geometry": {"type": "Point", "coordinates": [-80.24244659, 39.50984542]}, "properties": {"date": "2020-04-06", "new": 0, "total": 1, "city": "Marion", "province": "West Virginia", "country": "United States"}}, {"type": "Feature", "geometry": {"type": "Point", "coordinates": [-80.66591062, 39.86064362]}, "properties": {"date": "2020-04-06", "new": 0, "total": 1, "city": "Marshall", "province": "West Virginia", "country": "United States"}}, {"type": "Feature", "geometry": {"type": "Point", "coordinates": [-80.04766838, 39.63218457]}, "properties": {"date": "2020-04-06", "new": 0, "total": 9, "city": "Monongalia", "province": "West Virginia", "country": "United States"}}, {"type": "Feature", "geometry": {"type": "Point", "coordinates": [-78.26311676, 39.55439028]}, "properties": {"date": "2020-04-06", "new": 0, "total": 2, "city": "Morgan", "province": "West Virginia", "country": "United States"}}, {"type": "Feature", "geometry": {"type": "Point", "coordinates": [-80.62203992, 40.0955451]}, "properties": {"date": "2020-04-06", "new": 0, "total": 7, "city": "Ohio", "province": "West Virginia", "country": "United States"}}, {"type": "Feature", "geometry": {"type": "Point", "coordinates": [-81.9082131, 38.50782345]}, "properties": {"date": "2020-04-06", "new": 0, "total": 1, "city": "Putnam", "province": "West Virginia", "country": "United States"}}, {"type": "Feature", "geometry": {"type": "Point", "coordinates": [-81.5162836, 39.20967886]}, "properties": {"date": "2020-04-06", "new": 0, "total": 3, "city": "Wood", "province": "West Virginia", "country": "United States"}}, {"type": "Feature", "geometry": {"type": "Point", "coordinates": [-91.84833627, 45.42372701]}, "properties": {"date": "2020-04-06", "new": 0, "total": 3, "city": "Barron", "province": "Wisconsin", "country": "United States"}}, {"type": "Feature", "geometry": {"type": "Point", "coordinates": [-88.00411844, 44.452655299999996]}, "properties": {"date": "2020-04-06", "new": 0, "total": 5, "city": "Brown", "province": "Wisconsin", "country": "United States"}}, {"type": "Feature", "geometry": {"type": "Point", "coordinates": [-88.21780273, 44.0816316]}, "properties": {"date": "2020-04-06", "new": 0, "total": 1, "city": "Calumet", "province": "Wisconsin", "country": "United States"}}, {"type": "Feature", "geometry": {"type": "Point", "coordinates": [-91.28068855, 45.06939744]}, "properties": {"date": "2020-04-06", "new": 0, "total": 2, "city": "Chippewa", "province": "Wisconsin", "country": "United States"}}, {"type": "Feature", "geometry": {"type": "Point", "coordinates": [-89.33589004, 43.46492199]}, "properties": {"date": "2020-04-06", "new": 0, "total": 1, "city": "Columbia", "province": "Wisconsin", "country": "United States"}}, {"type": "Feature", "geometry": {"type": "Point", "coordinates": [-90.93073686, 43.23870316]}, "properties": {"date": "2020-04-06", "new": 0, "total": 1, "city": "Crawford", "province": "Wisconsin", "country": "United States"}}, {"type": "Feature", "geometry": {"type": "Point", "coordinates": [-89.41733797, 43.06601594]}, "properties": {"date": "2020-04-06", "new": 0, "total": 11, "city": "Dane", "province": "Wisconsin", "country": "United States"}}, {"type": "Feature", "geometry": {"type": "Point", "coordinates": [-87.30002707, 44.95856458]}, "properties": {"date": "2020-04-06", "new": 0, "total": 2, "city": "Door", "province": "Wisconsin", "country": "United States"}}, {"type": "Feature", "geometry": {"type": "Point", "coordinates": [-91.28609183, 44.726614]}, "properties": {"date": "2020-04-06", "new": 0, "total": 5, "city": "Eau Claire", "province": "Wisconsin", "country": "United States"}}, {"type": "Feature", "geometry": {"type": "Point", "coordinates": [-88.39804137, 45.84963535]}, "properties": {"date": "2020-04-06", "new": 0, "total": 1, "city": "Florence", "province": "Wisconsin", "country": "United States"}}, {"type": "Feature", "geometry": {"type": "Point", "coordinates": [-88.48885325, 43.75354908]}, "properties": {"date": "2020-04-06", "new": 0, "total": 13, "city": "Fond du Lac", "province": "Wisconsin", "country": "United States"}}, {"type": "Feature", "geometry": {"type": "Point", "coordinates": [-89.60243287, 42.6794956]}, "properties": {"date": "2020-04-06", "new": 0, "total": 1, "city": "Green", "province": "Wisconsin", "country": "United States"}}, {"type": "Feature", "geometry": {"type": "Point", "coordinates": [-90.80566792, 44.31864893]}, "properties": {"date": "2020-04-06", "new": 0, "total": 1, "city": "Jackson", "province": "Wisconsin", "country": "United States"}}, {"type": "Feature", "geometry": {"type": "Point", "coordinates": [-88.77529134, 43.02054068]}, "properties": {"date": "2020-04-06", "new": 0, "total": 1, "city": "Jefferson", "province": "Wisconsin", "country": "United States"}}, {"type": "Feature", "geometry": {"type": "Point", "coordinates": [-90.11120239, 43.92456975]}, "properties": {"date": "2020-04-06", "new": 0, "total": 1, "city": "Juneau", "province": "Wisconsin", "country": "United States"}}, {"type": "Feature", "geometry": {"type": "Point", "coordinates": [-88.04051686, 42.57639354]}, "properties": {"date": "2020-04-06", "new": 0, "total": 17, "city": "Kenosha", "province": "Wisconsin", "country": "United States"}}, {"type": "Feature", "geometry": {"type": "Point", "coordinates": [-91.11451093, 43.90632465]}, "properties": {"date": "2020-04-06", "new": 0, "total": 2, "city": "La Crosse", "province": "Wisconsin", "country": "United States"}}, {"type": "Feature", "geometry": {"type": "Point", "coordinates": [-87.80928853, 44.11946801]}, "properties": {"date": "2020-04-06", "new": 0, "total": 2, "city": "Manitowoc", "province": "Wisconsin", "country": "United States"}}, {"type": "Feature", "geometry": {"type": "Point", "coordinates": [-89.75863384, 44.89792533]}, "properties": {"date": "2020-04-06", "new": 0, "total": 3, "city": "Marathon", "province": "Wisconsin", "country": "United States"}}, {"type": "Feature", "geometry": {"type": "Point", "coordinates": [-87.96733172, 43.00486062]}, "properties": {"date": "2020-04-06", "new": 0, "total": 167, "city": "Milwaukee", "province": "Wisconsin", "country": "United States"}}, {"type": "Feature", "geometry": {"type": "Point", "coordinates": [-90.61881899999999, 43.94641218]}, "properties": {"date": "2020-04-06", "new": 0, "total": 3, "city": "Monroe", "province": "Wisconsin", "country": "United States"}}, {"type": "Feature", "geometry": {"type": "Point", "coordinates": [-88.46565023, 44.41578887]}, "properties": {"date": "2020-04-06", "new": 0, "total": 2, "city": "Outagamie", "province": "Wisconsin", "country": "United States"}}, {"type": "Feature", "geometry": {"type": "Point", "coordinates": [-87.94625009, 43.38352225]}, "properties": {"date": "2020-04-06", "new": 0, "total": 6, "city": "Ozaukee", "province": "Wisconsin", "country": "United States"}}, {"type": "Feature", "geometry": {"type": "Point", "coordinates": [-88.05941254, 42.74753117]}, "properties": {"date": "2020-04-06", "new": 0, "total": 13, "city": "Racine", "province": "Wisconsin", "country": "United States"}}, {"type": "Feature", "geometry": {"type": "Point", "coordinates": [-90.43012729, 43.3762778]}, "properties": {"date": "2020-04-06", "new": 0, "total": 1, "city": "Richland", "province": "Wisconsin", "country": "United States"}}, {"type": "Feature", "geometry": {"type": "Point", "coordinates": [-89.07147900000002, 42.67151616]}, "properties": {"date": "2020-04-06", "new": 0, "total": 8, "city": "Rock", "province": "Wisconsin", "country": "United States"}}, {"type": "Feature", "geometry": {"type": "Point", "coordinates": [-91.1333012, 45.47498854]}, "properties": {"date": "2020-04-06", "new": 0, "total": 2, "city": "Rusk", "province": "Wisconsin", "country": "United States"}}, {"type": "Feature", "geometry": {"type": "Point", "coordinates": [-88.76443896, 44.78902246]}, "properties": {"date": "2020-04-06", "new": 0, "total": 1, "city": "Shawano", "province": "Wisconsin", "country": "United States"}}, {"type": "Feature", "geometry": {"type": "Point", "coordinates": [-87.94579284, 43.72099677]}, "properties": {"date": "2020-04-06", "new": 0, "total": 1, "city": "Sheboygan", "province": "Wisconsin", "country": "United States"}}, {"type": "Feature", "geometry": {"type": "Point", "coordinates": [-89.51719204, 46.05467334]}, "properties": {"date": "2020-04-06", "new": 0, "total": 1, "city": "Vilas", "province": "Wisconsin", "country": "United States"}}, {"type": "Feature", "geometry": {"type": "Point", "coordinates": [-88.54163073, 42.66858202]}, "properties": {"date": "2020-04-06", "new": 0, "total": 5, "city": "Walworth", "province": "Wisconsin", "country": "United States"}}, {"type": "Feature", "geometry": {"type": "Point", "coordinates": [-88.22974712, 43.36863664]}, "properties": {"date": "2020-04-06", "new": 0, "total": 5, "city": "Washington", "province": "Wisconsin", "country": "United States"}}, {"type": "Feature", "geometry": {"type": "Point", "coordinates": [-88.30431188, 43.01833055]}, "properties": {"date": "2020-04-06", "new": 0, "total": 13, "city": "Waukesha", "province": "Wisconsin", "country": "United States"}}, {"type": "Feature", "geometry": {"type": "Point", "coordinates": [-108.6296893, 43.04183996]}, "properties": {"date": "2020-04-06", "new": 0, "total": 1, "city": "Fremont", "province": "Wyoming", "country": "United States"}}, {"type": "Feature", "geometry": {"type": "Point", "coordinates": [-104.6887497, 41.30702520000001]}, "properties": {"date": "2020-04-06", "new": 0, "total": 1, "city": "Laramie", "province": "Wyoming", "country": "United States"}}, {"type": "Feature", "geometry": {"type": "Point", "coordinates": [-110.6563997, 42.26376367]}, "properties": {"date": "2020-04-06", "new": 0, "total": 1, "city": "Lincoln", "province": "Wyoming", "country": "United States"}}, {"type": "Feature", "geometry": {"type": "Point", "coordinates": [-106.8862389, 44.79048913]}, "properties": {"date": "2020-04-06", "new": 0, "total": 1, "city": "Sheridan", "province": "Wyoming", "country": "United States"}}, {"type": "Feature", "geometry": {"type": "Point", "coordinates": [-108.8827882, 41.65943896]}, "properties": {"date": "2020-04-06", "new": 0, "total": 1, "city": "Sweetwater", "province": "Wyoming", "country": "United States"}}, {"type": "Feature", "geometry": {"type": "Point", "coordinates": [-110.5890801, 43.93522482]}, "properties": {"date": "2020-04-06", "new": 0, "total": 3, "city": "Teton", "province": "Wyoming", "country": "United States"}}, {"type": "Feature", "geometry": {"type": "Point", "coordinates": [-107.68018700000002, 43.90451606]}, "properties": {"date": "2020-04-06", "new": 0, "total": 2, "city": "Washakie", "province": "Wyoming", "country": "United States"}}, {"type": "Feature", "geometry": {"type": "Point", "coordinates": [-70.68763497, 41.40674725]}, "properties": {"date": "2020-04-06", "new": 0, "total": 1, "city": "Dukes and Nantucket", "province": "Massachusetts", "country": "United States"}}, {"type": "Feature", "geometry": {"type": "Point", "coordinates": [144.7937, 13.4443]}, "properties": {"date": "2020-04-06", "new": 1, "total": 1, "city": "", "province": "Guam", "country": "United States"}}, {"type": "Feature", "geometry": {"type": "Point", "coordinates": [-66.5901, 18.2208]}, "properties": {"date": "2020-04-06", "new": 38, "total": 38, "city": "", "province": "Puerto Rico", "country": "United States"}}, {"type": "Feature", "geometry": {"type": "Point", "coordinates": [-64.8963, 18.3358]}, "properties": {"date": "2020-04-06", "new": 1, "total": 1, "city": "", "province": "Virgin Islands", "country": "United States"}}, {"type": "Feature", "geometry": {"type": "Point", "coordinates": [-87.72207058, 30.72774991]}, "properties": {"date": "2020-04-06", "new": 9, "total": 9, "city": "Baldwin", "province": "Alabama", "country": "United States"}}, {"type": "Feature", "geometry": {"type": "Point", "coordinates": [-87.12511459999996, 32.99642064]}, "properties": {"date": "2020-04-06", "new": 2, "total": 2, "city": "Bibb", "province": "Alabama", "country": "United States"}}, {"type": "Feature", "geometry": {"type": "Point", "coordinates": [-85.82630386, 33.77483727]}, "properties": {"date": "2020-04-06", "new": 11, "total": 11, "city": "Calhoun", "province": "Alabama", "country": "United States"}}, {"type": "Feature", "geometry": {"type": "Point", "coordinates": [-85.39072749, 32.91360079]}, "properties": {"date": "2020-04-06", "new": 5, "total": 5, "city": "Chambers", "province": "Alabama", "country": "United States"}}, {"type": "Feature", "geometry": {"type": "Point", "coordinates": [-86.7173256, 32.85044126]}, "properties": {"date": "2020-04-06", "new": 4, "total": 4, "city": "Chilton", "province": "Alabama", "country": "United States"}}, {"type": "Feature", "geometry": {"type": "Point", "coordinates": [-87.83548597, 31.68099859]}, "properties": {"date": "2020-04-06", "new": 1, "total": 1, "city": "Clarke", "province": "Alabama", "country": "United States"}}, {"type": "Feature", "geometry": {"type": "Point", "coordinates": [-85.52005899, 33.67679204]}, "properties": {"date": "2020-04-06", "new": 2, "total": 2, "city": "Cleburne", "province": "Alabama", "country": "United States"}}, {"type": "Feature", "geometry": {"type": "Point", "coordinates": [-85.98901039, 31.39932826]}, "properties": {"date": "2020-04-06", "new": 1, "total": 1, "city": "Coffee", "province": "Alabama", "country": "United States"}}, {"type": "Feature", "geometry": {"type": "Point", "coordinates": [-86.24847739, 32.93690146]}, "properties": {"date": "2020-04-06", "new": 1, "total": 1, "city": "Coosa", "province": "Alabama", "country": "United States"}}, {"type": "Feature", "geometry": {"type": "Point", "coordinates": [-86.86888037, 34.13020303]}, "properties": {"date": "2020-04-06", "new": 5, "total": 5, "city": "Cullman", "province": "Alabama", "country": "United States"}}, {"type": "Feature", "geometry": {"type": "Point", "coordinates": [-85.61095742, 31.43037123]}, "properties": {"date": "2020-04-06", "new": 2, "total": 2, "city": "Dale", "province": "Alabama", "country": "United States"}}, {"type": "Feature", "geometry": {"type": "Point", "coordinates": [-86.04051873, 34.04567266]}, "properties": {"date": "2020-04-06", "new": 6, "total": 6, "city": "Etowah", "province": "Alabama", "country": "United States"}}, {"type": "Feature", "geometry": {"type": "Point", "coordinates": [-87.95684022, 32.85504247]}, "properties": {"date": "2020-04-06", "new": 2, "total": 2, "city": "Greene", "province": "Alabama", "country": "United States"}}, {"type": "Feature", "geometry": {"type": "Point", "coordinates": [-87.63284988, 32.76039258]}, "properties": {"date": "2020-04-06", "new": 1, "total": 1, "city": "Hale", "province": "Alabama", "country": "United States"}}, {"type": "Feature", "geometry": {"type": "Point", "coordinates": [-85.24267944, 31.51148016]}, "properties": {"date": "2020-04-06", "new": 1, "total": 1, "city": "Henry", "province": "Alabama", "country": "United States"}}, {"type": "Feature", "geometry": {"type": "Point", "coordinates": [-85.29939599, 31.15197924]}, "properties": {"date": "2020-04-06", "new": 7, "total": 7, "city": "Houston", "province": "Alabama", "country": "United States"}}, {"type": "Feature", "geometry": {"type": "Point", "coordinates": [-85.99750489, 34.78144169]}, "properties": {"date": "2020-04-06", "new": 3, "total": 3, "city": "Jackson", "province": "Alabama", "country": "United States"}}, {"type": "Feature", "geometry": {"type": "Point", "coordinates": [-86.89506300000002, 33.55554728]}, "properties": {"date": "2020-04-06", "new": 7, "total": 7, "city": "Jefferson", "province": "Alabama", "country": "United States"}}, {"type": "Feature", "geometry": {"type": "Point", "coordinates": [-88.09668032, 33.77995024]}, "properties": {"date": "2020-04-06", "new": 2, "total": 2, "city": "Lamar", "province": "Alabama", "country": "United States"}}, {"type": "Feature", "geometry": {"type": "Point", "coordinates": [-87.31069453, 34.52041498]}, "properties": {"date": "2020-04-06", "new": 2, "total": 2, "city": "Lawrence", "province": "Alabama", "country": "United States"}}, {"type": "Feature", "geometry": {"type": "Point", "coordinates": [-85.35132246, 32.60154883]}, "properties": {"date": "2020-04-06", "new": 4, "total": 4, "city": "Lee", "province": "Alabama", "country": "United States"}}, {"type": "Feature", "geometry": {"type": "Point", "coordinates": [-86.98310072, 34.81185586]}, "properties": {"date": "2020-04-06", "new": 2, "total": 2, "city": "Limestone", "province": "Alabama", "country": "United States"}}, {"type": "Feature", "geometry": {"type": "Point", "coordinates": [-86.55069633, 34.76327133]}, "properties": {"date": "2020-04-06", "new": 7, "total": 7, "city": "Madison", "province": "Alabama", "country": "United States"}}, {"type": "Feature", "geometry": {"type": "Point", "coordinates": [-87.78796182, 32.24767634]}, "properties": {"date": "2020-04-06", "new": 5, "total": 5, "city": "Marengo", "province": "Alabama", "country": "United States"}}, {"type": "Feature", "geometry": {"type": "Point", "coordinates": [-87.88704173, 34.13697363]}, "properties": {"date": "2020-04-06", "new": 2, "total": 2, "city": "Marion", "province": "Alabama", "country": "United States"}}, {"type": "Feature", "geometry": {"type": "Point", "coordinates": [-86.30486727, 34.36975964]}, "properties": {"date": "2020-04-06", "new": 13, "total": 13, "city": "Marshall", "province": "Alabama", "country": "United States"}}, {"type": "Feature", "geometry": {"type": "Point", "coordinates": [-88.20842409, 30.78472347]}, "properties": {"date": "2020-04-06", "new": 17, "total": 17, "city": "Mobile", "province": "Alabama", "country": "United States"}}, {"type": "Feature", "geometry": {"type": "Point", "coordinates": [-88.20842409, 30.78472347]}, "properties": {"date": "2020-04-06", "new": 1, "total": 1, "city": "Mobile", "province": "Alabama", "country": "United States"}}, {"type": "Feature", "geometry": {"type": "Point", "coordinates": [-86.20969272, 32.2206831]}, "properties": {"date": "2020-04-06", "new": 4, "total": 4, "city": "Montgomery", "province": "Alabama", "country": "United States"}}, {"type": "Feature", "geometry": {"type": "Point", "coordinates": [-86.85475946, 34.45500589]}, "properties": {"date": "2020-04-06", "new": 2, "total": 2, "city": "Morgan", "province": "Alabama", "country": "United States"}}, {"type": "Feature", "geometry": {"type": "Point", "coordinates": [-85.45708831, 33.29526734]}, "properties": {"date": "2020-04-06", "new": 1, "total": 1, "city": "Randolph", "province": "Alabama", "country": "United States"}}, {"type": "Feature", "geometry": {"type": "Point", "coordinates": [-85.18415324, 32.28725256]}, "properties": {"date": "2020-04-06", "new": 2, "total": 2, "city": "Russell", "province": "Alabama", "country": "United States"}}, {"type": "Feature", "geometry": {"type": "Point", "coordinates": [-86.31029372, 33.71902176]}, "properties": {"date": "2020-04-06", "new": 5, "total": 5, "city": "St. Clair", "province": "Alabama", "country": "United States"}}, {"type": "Feature", "geometry": {"type": "Point", "coordinates": [-86.66232561, 33.26879845]}, "properties": {"date": "2020-04-06", "new": 8, "total": 8, "city": "Shelby", "province": "Alabama", "country": "United States"}}, {"type": "Feature", "geometry": {"type": "Point", "coordinates": [-88.19916205, 32.59117397]}, "properties": {"date": "2020-04-06", "new": 2, "total": 2, "city": "Sumter", "province": "Alabama", "country": "United States"}}, {"type": "Feature", "geometry": {"type": "Point", "coordinates": [-86.16886178, 33.37823223]}, "properties": {"date": "2020-04-06", "new": 3, "total": 3, "city": "Talladega", "province": "Alabama", "country": "United States"}}, {"type": "Feature", "geometry": {"type": "Point", "coordinates": [-85.79833053, 32.86698258]}, "properties": {"date": "2020-04-06", "new": 1, "total": 1, "city": "Tallapoosa", "province": "Alabama", "country": "United States"}}, {"type": "Feature", "geometry": {"type": "Point", "coordinates": [-87.52556818, 33.28726072]}, "properties": {"date": "2020-04-06", "new": 29, "total": 29, "city": "Tuscaloosa", "province": "Alabama", "country": "United States"}}, {"type": "Feature", "geometry": {"type": "Point", "coordinates": [-87.30027177, 33.80270512]}, "properties": {"date": "2020-04-06", "new": 5, "total": 5, "city": "Walker", "province": "Alabama", "country": "United States"}}, {"type": "Feature", "geometry": {"type": "Point", "coordinates": [-149.14269860000005, 61.14998174]}, "properties": {"date": "2020-04-06", "new": 3, "total": 3, "city": "Anchorage", "province": "Alaska", "country": "United States"}}, {"type": "Feature", "geometry": {"type": "Point", "coordinates": [-151.53888840000005, 60.24429722]}, "properties": {"date": "2020-04-06", "new": 1, "total": 1, "city": "Kenai Peninsula", "province": "Alaska", "country": "United States"}}, {"type": "Feature", "geometry": {"type": "Point", "coordinates": [-132.9540995, 57.13978948]}, "properties": {"date": "2020-04-06", "new": 1, "total": 1, "city": "Petersburg", "province": "Alaska", "country": "United States"}}, {"type": "Feature", "geometry": {"type": "Point", "coordinates": [-109.4892383, 35.39465006]}, "properties": {"date": "2020-04-06", "new": 13, "total": 13, "city": "Apache", "province": "Arizona", "country": "United States"}}, {"type": "Feature", "geometry": {"type": "Point", "coordinates": [-109.7516088, 31.87934684]}, "properties": {"date": "2020-04-06", "new": 1, "total": 1, "city": "Cochise", "province": "Arizona", "country": "United States"}}, {"type": "Feature", "geometry": {"type": "Point", "coordinates": [-111.77071780000001, 35.83883429]}, "properties": {"date": "2020-04-06", "new": 19, "total": 19, "city": "Coconino", "province": "Arizona", "country": "United States"}}, {"type": "Feature", "geometry": {"type": "Point", "coordinates": [-112.49181540000001, 33.34835867]}, "properties": {"date": "2020-04-06", "new": 107, "total": 107, "city": "Maricopa", "province": "Arizona", "country": "United States"}}, {"type": "Feature", "geometry": {"type": "Point", "coordinates": [-113.7577902, 35.70471703]}, "properties": {"date": "2020-04-06", "new": 4, "total": 4, "city": "Mohave", "province": "Arizona", "country": "United States"}}, {"type": "Feature", "geometry": {"type": "Point", "coordinates": [-110.3218983, 35.3997715]}, "properties": {"date": "2020-04-06", "new": 52, "total": 52, "city": "Navajo", "province": "Arizona", "country": "United States"}}, {"type": "Feature", "geometry": {"type": "Point", "coordinates": [-111.7890033, 32.0971334]}, "properties": {"date": "2020-04-06", "new": 43, "total": 43, "city": "Pima", "province": "Arizona", "country": "United States"}}, {"type": "Feature", "geometry": {"type": "Point", "coordinates": [-111.3449483, 32.90525627]}, "properties": {"date": "2020-04-06", "new": 3, "total": 3, "city": "Pinal", "province": "Arizona", "country": "United States"}}, {"type": "Feature", "geometry": {"type": "Point", "coordinates": [-112.5538588, 34.59933926]}, "properties": {"date": "2020-04-06", "new": 4, "total": 4, "city": "Yavapai", "province": "Arizona", "country": "United States"}}, {"type": "Feature", "geometry": {"type": "Point", "coordinates": [-92.02640019, 35.53864922]}, "properties": {"date": "2020-04-06", "new": 1, "total": 1, "city": "Cleburne", "province": "Arkansas", "country": "United States"}}, {"type": "Feature", "geometry": {"type": "Point", "coordinates": [-92.18537045, 33.89723187]}, "properties": {"date": "2020-04-06", "new": 2, "total": 2, "city": "Cleveland", "province": "Arkansas", "country": "United States"}}, {"type": "Feature", "geometry": {"type": "Point", "coordinates": [-90.63235729, 35.83018283]}, "properties": {"date": "2020-04-06", "new": 2, "total": 2, "city": "Craighead", "province": "Arkansas", "country": "United States"}}, {"type": "Feature", "geometry": {"type": "Point", "coordinates": [-90.30839406, 35.21247318]}, "properties": {"date": "2020-04-06", "new": 3, "total": 3, "city": "Crittenden", "province": "Arkansas", "country": "United States"}}, {"type": "Feature", "geometry": {"type": "Point", "coordinates": [-92.65167437, 33.97042763]}, "properties": {"date": "2020-04-06", "new": 1, "total": 1, "city": "Dallas", "province": "Arkansas", "country": "United States"}}, {"type": "Feature", "geometry": {"type": "Point", "coordinates": [-91.71777921, 33.59035001]}, "properties": {"date": "2020-04-06", "new": 4, "total": 4, "city": "Drew", "province": "Arkansas", "country": "United States"}}, {"type": "Feature", "geometry": {"type": "Point", "coordinates": [-92.33717519, 35.14719007]}, "properties": {"date": "2020-04-06", "new": 1, "total": 1, "city": "Faulkner", "province": "Arkansas", "country": "United States"}}, {"type": "Feature", "geometry": {"type": "Point", "coordinates": [-91.92619839, 34.26767081]}, "properties": {"date": "2020-04-06", "new": 3, "total": 3, "city": "Jefferson", "province": "Arkansas", "country": "United States"}}, {"type": "Feature", "geometry": {"type": "Point", "coordinates": [-93.46036368, 35.56759135]}, "properties": {"date": "2020-04-06", "new": 1, "total": 1, "city": "Johnson", "province": "Arkansas", "country": "United States"}}, {"type": "Feature", "geometry": {"type": "Point", "coordinates": [-91.88742357, 34.75392199]}, "properties": {"date": "2020-04-06", "new": 1, "total": 1, "city": "Lonoke", "province": "Arkansas", "country": "United States"}}, {"type": "Feature", "geometry": {"type": "Point", "coordinates": [-93.03212219, 35.44871474]}, "properties": {"date": "2020-04-06", "new": 2, "total": 2, "city": "Pope", "province": "Arkansas", "country": "United States"}}, {"type": "Feature", "geometry": {"type": "Point", "coordinates": [-92.31355101, 34.77054088]}, "properties": {"date": "2020-04-06", "new": 4, "total": 4, "city": "Pulaski", "province": "Arkansas", "country": "United States"}}, {"type": "Feature", "geometry": {"type": "Point", "coordinates": [-90.74828138, 35.02201976]}, "properties": {"date": "2020-04-06", "new": 1, "total": 1, "city": "St. Francis", "province": "Arkansas", "country": "United States"}}, {"type": "Feature", "geometry": {"type": "Point", "coordinates": [-92.67583224, 34.64916145]}, "properties": {"date": "2020-04-06", "new": 2, "total": 2, "city": "Saline", "province": "Arkansas", "country": "United States"}}, {"type": "Feature", "geometry": {"type": "Point", "coordinates": [-94.21800746, 35.976844]}, "properties": {"date": "2020-04-06", "new": 1, "total": 1, "city": "Washington", "province": "Arkansas", "country": "United States"}}, {"type": "Feature", "geometry": {"type": "Point", "coordinates": [-121.8929271, 37.64629437]}, "properties": {"date": "2020-04-06", "new": 22, "total": 22, "city": "Alameda", "province": "California", "country": "United States"}}, {"type": "Feature", "geometry": {"type": "Point", "coordinates": [-120.65696000000001, 38.44583082]}, "properties": {"date": "2020-04-06", "new": 3, "total": 3, "city": "Amador", "province": "California", "country": "United States"}}, {"type": "Feature", "geometry": {"type": "Point", "coordinates": [-120.55291299999999, 38.20537103]}, "properties": {"date": "2020-04-06", "new": 1, "total": 1, "city": "Calaveras", "province": "California", "country": "United States"}}, {"type": "Feature", "geometry": {"type": "Point", "coordinates": [-121.9289527, 37.91923498]}, "properties": {"date": "2020-04-06", "new": 31, "total": 31, "city": "Contra Costa", "province": "California", "country": "United States"}}, {"type": "Feature", "geometry": {"type": "Point", "coordinates": [-119.6466953, 36.75733899]}, "properties": {"date": "2020-04-06", "new": 5, "total": 5, "city": "Fresno", "province": "California", "country": "United States"}}, {"type": "Feature", "geometry": {"type": "Point", "coordinates": [-115.36690420000001, 33.0393082]}, "properties": {"date": "2020-04-06", "new": 8, "total": 8, "city": "Imperial", "province": "California", "country": "United States"}}, {"type": "Feature", "geometry": {"type": "Point", "coordinates": [-118.72777959999999, 35.34329425]}, "properties": {"date": "2020-04-06", "new": 9, "total": 9, "city": "Kern", "province": "California", "country": "United States"}}, {"type": "Feature", "geometry": {"type": "Point", "coordinates": [-122.75362439999999, 39.10124298]}, "properties": {"date": "2020-04-06", "new": 1, "total": 1, "city": "Lake", "province": "California", "country": "United States"}}, {"type": "Feature", "geometry": {"type": "Point", "coordinates": [-118.22824109999999, 34.30828379]}, "properties": {"date": "2020-04-06", "new": 422, "total": 422, "city": "Los Angeles", "province": "California", "country": "United States"}}, {"type": "Feature", "geometry": {"type": "Point", "coordinates": [-122.72106310000001, 38.07122463]}, "properties": {"date": "2020-04-06", "new": 4, "total": 4, "city": "Marin", "province": "California", "country": "United States"}}, {"type": "Feature", "geometry": {"type": "Point", "coordinates": [-120.72090349999999, 37.18922369]}, "properties": {"date": "2020-04-06", "new": 2, "total": 2, "city": "Merced", "province": "California", "country": "United States"}}, {"type": "Feature", "geometry": {"type": "Point", "coordinates": [-122.33283899999999, 38.50735751]}, "properties": {"date": "2020-04-06", "new": 2, "total": 2, "city": "Napa", "province": "California", "country": "United States"}}, {"type": "Feature", "geometry": {"type": "Point", "coordinates": [-120.76272809999999, 39.30394768]}, "properties": {"date": "2020-04-06", "new": 1, "total": 1, "city": "Nevada", "province": "California", "country": "United States"}}, {"type": "Feature", "geometry": {"type": "Point", "coordinates": [-117.76459979999998, 33.70147516]}, "properties": {"date": "2020-04-06", "new": 48, "total": 48, "city": "Orange", "province": "California", "country": "United States"}}, {"type": "Feature", "geometry": {"type": "Point", "coordinates": [-120.72405690000001, 39.06167234]}, "properties": {"date": "2020-04-06", "new": 3, "total": 3, "city": "Placer", "province": "California", "country": "United States"}}, {"type": "Feature", "geometry": {"type": "Point", "coordinates": [-115.9933578, 33.74314981]}, "properties": {"date": "2020-04-06", "new": 95, "total": 95, "city": "Riverside", "province": "California", "country": "United States"}}, {"type": "Feature", "geometry": {"type": "Point", "coordinates": [-115.9933578, 33.74314981]}, "properties": {"date": "2020-04-06", "new": 52, "total": 52, "city": "Riverside", "province": "California", "country": "United States"}}, {"type": "Feature", "geometry": {"type": "Point", "coordinates": [-121.34253740000001, 38.45106826]}, "properties": {"date": "2020-04-06", "new": 20, "total": 20, "city": "Sacramento", "province": "California", "country": "United States"}}, {"type": "Feature", "geometry": {"type": "Point", "coordinates": [-116.1774685, 34.84060306]}, "properties": {"date": "2020-04-06", "new": 1, "total": 1, "city": "San Bernardino", "province": "California", "country": "United States"}}, {"type": "Feature", "geometry": {"type": "Point", "coordinates": [-116.73653259999999, 33.03484597]}, "properties": {"date": "2020-04-06", "new": 117, "total": 117, "city": "San Diego", "province": "California", "country": "United States"}}, {"type": "Feature", "geometry": {"type": "Point", "coordinates": [-122.43856720000001, 37.75215114]}, "properties": {"date": "2020-04-06", "new": 15, "total": 15, "city": "San Francisco", "province": "California", "country": "United States"}}, {"type": "Feature", "geometry": {"type": "Point", "coordinates": [-121.2730061, 37.93433732]}, "properties": {"date": "2020-04-06", "new": 15, "total": 15, "city": "San Joaquin", "province": "California", "country": "United States"}}, {"type": "Feature", "geometry": {"type": "Point", "coordinates": [-122.32755459999998, 37.422880799999994]}, "properties": {"date": "2020-04-06", "new": 24, "total": 24, "city": "San Mateo", "province": "California", "country": "United States"}}, {"type": "Feature", "geometry": {"type": "Point", "coordinates": [-120.0188492, 34.65329488]}, "properties": {"date": "2020-04-06", "new": 6, "total": 6, "city": "Santa Barbara", "province": "California", "country": "United States"}}, {"type": "Feature", "geometry": {"type": "Point", "coordinates": [-122.0396884, 40.76391419]}, "properties": {"date": "2020-04-06", "new": 3, "total": 3, "city": "Shasta", "province": "California", "country": "United States"}}, {"type": "Feature", "geometry": {"type": "Point", "coordinates": [-122.54074340000001, 41.59198861]}, "properties": {"date": "2020-04-06", "new": 1, "total": 1, "city": "Siskiyou", "province": "California", "country": "United States"}}, {"type": "Feature", "geometry": {"type": "Point", "coordinates": [-122.88625060000001, 38.52746429]}, "properties": {"date": "2020-04-06", "new": 4, "total": 4, "city": "Sonoma", "province": "California", "country": "United States"}}, {"type": "Feature", "geometry": {"type": "Point", "coordinates": [-120.9970722, 37.55862499]}, "properties": {"date": "2020-04-06", "new": 6, "total": 6, "city": "Stanislaus", "province": "California", "country": "United States"}}, {"type": "Feature", "geometry": {"type": "Point", "coordinates": [-118.8020203, 36.22026558]}, "properties": {"date": "2020-04-06", "new": 19, "total": 19, "city": "Tulare", "province": "California", "country": "United States"}}, {"type": "Feature", "geometry": {"type": "Point", "coordinates": [-121.35356440000001, 39.26255932]}, "properties": {"date": "2020-04-06", "new": 2, "total": 2, "city": "Yuba", "province": "California", "country": "United States"}}, {"type": "Feature", "geometry": {"type": "Point", "coordinates": [-104.3362578, 39.87432092]}, "properties": {"date": "2020-04-06", "new": 13, "total": 13, "city": "Adams", "province": "Colorado", "country": "United States"}}, {"type": "Feature", "geometry": {"type": "Point", "coordinates": [-104.3353617, 39.64977461]}, "properties": {"date": "2020-04-06", "new": 44, "total": 44, "city": "Arapahoe", "province": "Colorado", "country": "United States"}}, {"type": "Feature", "geometry": {"type": "Point", "coordinates": [-107.04768670000001, 37.19474156]}, "properties": {"date": "2020-04-06", "new": 5, "total": 5, "city": "Archuleta", "province": "Colorado", "country": "United States"}}, {"type": "Feature", "geometry": {"type": "Point", "coordinates": [-105.3546767, 40.09313619]}, "properties": {"date": "2020-04-06", "new": 12, "total": 12, "city": "Boulder", "province": "Colorado", "country": "United States"}}, {"type": "Feature", "geometry": {"type": "Point", "coordinates": [-107.86313419999999, 38.86246243]}, "properties": {"date": "2020-04-06", "new": 1, "total": 1, "city": "Delta", "province": "Colorado", "country": "United States"}}, {"type": "Feature", "geometry": {"type": "Point", "coordinates": [-104.87256950000001, 39.76018276]}, "properties": {"date": "2020-04-06", "new": 22, "total": 22, "city": "Denver", "province": "Colorado", "country": "United States"}}, {"type": "Feature", "geometry": {"type": "Point", "coordinates": [-104.930001, 39.33133796]}, "properties": {"date": "2020-04-06", "new": 4, "total": 4, "city": "Douglas", "province": "Colorado", "country": "United States"}}, {"type": "Feature", "geometry": {"type": "Point", "coordinates": [-106.6933637, 39.62754308]}, "properties": {"date": "2020-04-06", "new": 16, "total": 16, "city": "Eagle", "province": "Colorado", "country": "United States"}}, {"type": "Feature", "geometry": {"type": "Point", "coordinates": [-104.5251411, 38.83240149]}, "properties": {"date": "2020-04-06", "new": 6, "total": 6, "city": "El Paso", "province": "Colorado", "country": "United States"}}, {"type": "Feature", "geometry": {"type": "Point", "coordinates": [-107.902708, 39.59921777]}, "properties": {"date": "2020-04-06", "new": 1, "total": 1, "city": "Garfield", "province": "Colorado", "country": "United States"}}, {"type": "Feature", "geometry": {"type": "Point", "coordinates": [-107.0320729, 38.66611652]}, "properties": {"date": "2020-04-06", "new": 2, "total": 2, "city": "Gunnison", "province": "Colorado", "country": "United States"}}, {"type": "Feature", "geometry": {"type": "Point", "coordinates": [-105.2517692, 39.58635604]}, "properties": {"date": "2020-04-06", "new": 21, "total": 21, "city": "Jefferson", "province": "Colorado", "country": "United States"}}, {"type": "Feature", "geometry": {"type": "Point", "coordinates": [-107.8429014, 37.28632032]}, "properties": {"date": "2020-04-06", "new": 3, "total": 3, "city": "La Plata", "province": "Colorado", "country": "United States"}}, {"type": "Feature", "geometry": {"type": "Point", "coordinates": [-105.4625784, 40.66671597]}, "properties": {"date": "2020-04-06", "new": 5, "total": 5, "city": "Larimer", "province": "Colorado", "country": "United States"}}, {"type": "Feature", "geometry": {"type": "Point", "coordinates": [-103.110817, 40.7249637]}, "properties": {"date": "2020-04-06", "new": 2, "total": 2, "city": "Logan", "province": "Colorado", "country": "United States"}}, {"type": "Feature", "geometry": {"type": "Point", "coordinates": [-108.469799, 39.01787888]}, "properties": {"date": "2020-04-06", "new": 5, "total": 5, "city": "Mesa", "province": "Colorado", "country": "United States"}}, {"type": "Feature", "geometry": {"type": "Point", "coordinates": [-108.26390220000002, 38.40214114]}, "properties": {"date": "2020-04-06", "new": 2, "total": 2, "city": "Montrose", "province": "Colorado", "country": "United States"}}, {"type": "Feature", "geometry": {"type": "Point", "coordinates": [-103.8093302, 40.26279810000001]}, "properties": {"date": "2020-04-06", "new": 2, "total": 2, "city": "Morgan", "province": "Colorado", "country": "United States"}}, {"type": "Feature", "geometry": {"type": "Point", "coordinates": [-103.7173385, 37.9014485]}, "properties": {"date": "2020-04-06", "new": 1, "total": 1, "city": "Otero", "province": "Colorado", "country": "United States"}}, {"type": "Feature", "geometry": {"type": "Point", "coordinates": [-106.9310027, 39.21720112]}, "properties": {"date": "2020-04-06", "new": 1, "total": 1, "city": "Pitkin", "province": "Colorado", "country": "United States"}}, {"type": "Feature", "geometry": {"type": "Point", "coordinates": [-104.5127437, 38.17359144]}, "properties": {"date": "2020-04-06", "new": 2, "total": 2, "city": "Pueblo", "province": "Colorado", "country": "United States"}}, {"type": "Feature", "geometry": {"type": "Point", "coordinates": [-106.1150762, 39.63803232]}, "properties": {"date": "2020-04-06", "new": 4, "total": 4, "city": "Summit", "province": "Colorado", "country": "United States"}}, {"type": "Feature", "geometry": {"type": "Point", "coordinates": [-104.39296209999999, 40.55499405]}, "properties": {"date": "2020-04-06", "new": 34, "total": 34, "city": "Weld", "province": "Colorado", "country": "United States"}}, {"type": "Feature", "geometry": {"type": "Point", "coordinates": [-73.3881171, 41.26809896]}, "properties": {"date": "2020-04-06", "new": 507, "total": 507, "city": "Fairfield", "province": "Connecticut", "country": "United States"}}, {"type": "Feature", "geometry": {"type": "Point", "coordinates": [-73.3881171, 41.26809896]}, "properties": {"date": "2020-04-06", "new": 162, "total": 162, "city": "Fairfield", "province": "Connecticut", "country": "United States"}}, {"type": "Feature", "geometry": {"type": "Point", "coordinates": [-72.73103891, 41.80283011]}, "properties": {"date": "2020-04-06", "new": 131, "total": 131, "city": "Hartford", "province": "Connecticut", "country": "United States"}}, {"type": "Feature", "geometry": {"type": "Point", "coordinates": [-73.2451475, 41.7937534]}, "properties": {"date": "2020-04-06", "new": 33, "total": 33, "city": "Litchfield", "province": "Connecticut", "country": "United States"}}, {"type": "Feature", "geometry": {"type": "Point", "coordinates": [-72.53714864, 41.45949668]}, "properties": {"date": "2020-04-06", "new": 25, "total": 25, "city": "Middlesex", "province": "Connecticut", "country": "United States"}}, {"type": "Feature", "geometry": {"type": "Point", "coordinates": [-72.93620426, 41.408032500000004]}, "properties": {"date": "2020-04-06", "new": 306, "total": 306, "city": "New Haven", "province": "Connecticut", "country": "United States"}}, {"type": "Feature", "geometry": {"type": "Point", "coordinates": [-72.10430976, 41.48896435]}, "properties": {"date": "2020-04-06", "new": 8, "total": 8, "city": "New London", "province": "Connecticut", "country": "United States"}}, {"type": "Feature", "geometry": {"type": "Point", "coordinates": [-72.3308481, 41.85853803]}, "properties": {"date": "2020-04-06", "new": 9, "total": 9, "city": "Tolland", "province": "Connecticut", "country": "United States"}}, {"type": "Feature", "geometry": {"type": "Point", "coordinates": [-71.98182316, 41.82972709]}, "properties": {"date": "2020-04-06", "new": 8, "total": 8, "city": "Windham", "province": "Connecticut", "country": "United States"}}, {"type": "Feature", "geometry": {"type": "Point", "coordinates": [-75.56884914, 39.08646628]}, "properties": {"date": "2020-04-06", "new": 42, "total": 42, "city": "Kent", "province": "Delaware", "country": "United States"}}, {"type": "Feature", "geometry": {"type": "Point", "coordinates": [-75.64054974, 39.57992638]}, "properties": {"date": "2020-04-06", "new": 60, "total": 60, "city": "New Castle", "province": "Delaware", "country": "United States"}}, {"type": "Feature", "geometry": {"type": "Point", "coordinates": [-75.39031349, 38.66143781]}, "properties": {"date": "2020-04-06", "new": 8, "total": 8, "city": "Sussex", "province": "Delaware", "country": "United States"}}, {"type": "Feature", "geometry": {"type": "Point", "coordinates": [-77.01655992, 38.90417773]}, "properties": {"date": "2020-04-06", "new": 95, "total": 95, "city": "District of Columbia", "province": "District of Columbia", "country": "United States"}}, {"type": "Feature", "geometry": {"type": "Point", "coordinates": [-82.35928158, 29.67866525]}, "properties": {"date": "2020-04-06", "new": 8, "total": 8, "city": "Alachua", "province": "Florida", "country": "United States"}}, {"type": "Feature", "geometry": {"type": "Point", "coordinates": [-82.28467476, 30.33060121]}, "properties": {"date": "2020-04-06", "new": 1, "total": 1, "city": "Baker", "province": "Florida", "country": "United States"}}, {"type": "Feature", "geometry": {"type": "Point", "coordinates": [-82.16611613, 29.95079741]}, "properties": {"date": "2020-04-06", "new": 1, "total": 1, "city": "Bradford", "province": "Florida", "country": "United States"}}, {"type": "Feature", "geometry": {"type": "Point", "coordinates": [-80.73091022, 28.29409504]}, "properties": {"date": "2020-04-06", "new": 9, "total": 9, "city": "Brevard", "province": "Florida", "country": "United States"}}, {"type": "Feature", "geometry": {"type": "Point", "coordinates": [-80.48725556, 26.15184651]}, "properties": {"date": "2020-04-06", "new": 94, "total": 94, "city": "Broward", "province": "Florida", "country": "United States"}}, {"type": "Feature", "geometry": {"type": "Point", "coordinates": [-80.48725556, 26.15184651]}, "properties": {"date": "2020-04-06", "new": 87, "total": 87, "city": "Broward", "province": "Florida", "country": "United States"}}, {"type": "Feature", "geometry": {"type": "Point", "coordinates": [-81.92949121, 26.90131002]}, "properties": {"date": "2020-04-06", "new": 8, "total": 8, "city": "Charlotte", "province": "Florida", "country": "United States"}}, {"type": "Feature", "geometry": {"type": "Point", "coordinates": [-82.47614748, 28.84804315]}, "properties": {"date": "2020-04-06", "new": 2, "total": 2, "city": "Citrus", "province": "Florida", "country": "United States"}}, {"type": "Feature", "geometry": {"type": "Point", "coordinates": [-81.85609986, 29.98319144]}, "properties": {"date": "2020-04-06", "new": 2, "total": 2, "city": "Clay", "province": "Florida", "country": "United States"}}, {"type": "Feature", "geometry": {"type": "Point", "coordinates": [-81.34687065, 26.11091986]}, "properties": {"date": "2020-04-06", "new": 15, "total": 15, "city": "Collier", "province": "Florida", "country": "United States"}}, {"type": "Feature", "geometry": {"type": "Point", "coordinates": [-81.80941373, 27.18677893]}, "properties": {"date": "2020-04-06", "new": 2, "total": 2, "city": "DeSoto", "province": "Florida", "country": "United States"}}, {"type": "Feature", "geometry": {"type": "Point", "coordinates": [-81.66976468, 30.33225875]}, "properties": {"date": "2020-04-06", "new": 62, "total": 62, "city": "Duval", "province": "Florida", "country": "United States"}}, {"type": "Feature", "geometry": {"type": "Point", "coordinates": [-87.37284571, 30.67652764]}, "properties": {"date": "2020-04-06", "new": 11, "total": 11, "city": "Escambia", "province": "Florida", "country": "United States"}}, {"type": "Feature", "geometry": {"type": "Point", "coordinates": [-81.31508595, 29.45933576]}, "properties": {"date": "2020-04-06", "new": 1, "total": 1, "city": "Flagler", "province": "Florida", "country": "United States"}}, {"type": "Feature", "geometry": {"type": "Point", "coordinates": [-84.61915825, 30.57796289]}, "properties": {"date": "2020-04-06", "new": 1, "total": 1, "city": "Gadsden", "province": "Florida", "country": "United States"}}, {"type": "Feature", "geometry": {"type": "Point", "coordinates": [-82.94998918, 30.49673973]}, "properties": {"date": "2020-04-06", "new": 1, "total": 1, "city": "Hamilton", "province": "Florida", "country": "United States"}}, {"type": "Feature", "geometry": {"type": "Point", "coordinates": [-81.16469006, 26.55386945]}, "properties": {"date": "2020-04-06", "new": 2, "total": 2, "city": "Hendry", "province": "Florida", "country": "United States"}}, {"type": "Feature", "geometry": {"type": "Point", "coordinates": [-82.42700204, 28.55364461]}, "properties": {"date": "2020-04-06", "new": 5, "total": 5, "city": "Hernando", "province": "Florida", "country": "United States"}}, {"type": "Feature", "geometry": {"type": "Point", "coordinates": [-82.32013172, 27.9276559]}, "properties": {"date": "2020-04-06", "new": 35, "total": 35, "city": "Hillsborough", "province": "Florida", "country": "United States"}}, {"type": "Feature", "geometry": {"type": "Point", "coordinates": [-80.60556721, 27.69308961]}, "properties": {"date": "2020-04-06", "new": 6, "total": 6, "city": "Indian River", "province": "Florida", "country": "United States"}}, {"type": "Feature", "geometry": {"type": "Point", "coordinates": [-83.89442308, 30.43669112]}, "properties": {"date": "2020-04-06", "new": 2, "total": 2, "city": "Jefferson", "province": "Florida", "country": "United States"}}, {"type": "Feature", "geometry": {"type": "Point", "coordinates": [-81.7125123, 28.76202069]}, "properties": {"date": "2020-04-06", "new": 3, "total": 3, "city": "Lake", "province": "Florida", "country": "United States"}}, {"type": "Feature", "geometry": {"type": "Point", "coordinates": [-81.88399313, 26.58410348]}, "properties": {"date": "2020-04-06", "new": 18, "total": 18, "city": "Lee", "province": "Florida", "country": "United States"}}, {"type": "Feature", "geometry": {"type": "Point", "coordinates": [-84.27491114, 30.45955727]}, "properties": {"date": "2020-04-06", "new": 17, "total": 17, "city": "Leon", "province": "Florida", "country": "United States"}}, {"type": "Feature", "geometry": {"type": "Point", "coordinates": [-83.47398594, 30.44396917]}, "properties": {"date": "2020-04-06", "new": 1, "total": 1, "city": "Madison", "province": "Florida", "country": "United States"}}, {"type": "Feature", "geometry": {"type": "Point", "coordinates": [-82.31831044, 27.47196942]}, "properties": {"date": "2020-04-06", "new": 8, "total": 8, "city": "Manatee", "province": "Florida", "country": "United States"}}, {"type": "Feature", "geometry": {"type": "Point", "coordinates": [-82.05803627, 29.21227113]}, "properties": {"date": "2020-04-06", "new": 3, "total": 3, "city": "Marion", "province": "Florida", "country": "United States"}}, {"type": "Feature", "geometry": {"type": "Point", "coordinates": [-80.43109784, 27.0772071]}, "properties": {"date": "2020-04-06", "new": 23, "total": 23, "city": "Martin", "province": "Florida", "country": "United States"}}, {"type": "Feature", "geometry": {"type": "Point", "coordinates": [-80.55170587, 25.6112362]}, "properties": {"date": "2020-04-06", "new": 335, "total": 335, "city": "Miami-Dade", "province": "Florida", "country": "United States"}}, {"type": "Feature", "geometry": {"type": "Point", "coordinates": [-81.07812416, 25.20904673]}, "properties": {"date": "2020-04-06", "new": 1, "total": 1, "city": "Monroe", "province": "Florida", "country": "United States"}}, {"type": "Feature", "geometry": {"type": "Point", "coordinates": [-81.80297522, 30.61037141]}, "properties": {"date": "2020-04-06", "new": 4, "total": 4, "city": "Nassau", "province": "Florida", "country": "United States"}}, {"type": "Feature", "geometry": {"type": "Point", "coordinates": [-86.59267105, 30.69143028]}, "properties": {"date": "2020-04-06", "new": 3, "total": 3, "city": "Okaloosa", "province": "Florida", "country": "United States"}}, {"type": "Feature", "geometry": {"type": "Point", "coordinates": [-81.31799498, 28.51367621]}, "properties": {"date": "2020-04-06", "new": 31, "total": 31, "city": "Orange", "province": "Florida", "country": "United States"}}, {"type": "Feature", "geometry": {"type": "Point", "coordinates": [-81.14882926, 28.06312234]}, "properties": {"date": "2020-04-06", "new": 10, "total": 10, "city": "Osceola", "province": "Florida", "country": "United States"}}, {"type": "Feature", "geometry": {"type": "Point", "coordinates": [-80.46536002, 26.64676272]}, "properties": {"date": "2020-04-06", "new": 69, "total": 69, "city": "Palm Beach", "province": "Florida", "country": "United States"}}, {"type": "Feature", "geometry": {"type": "Point", "coordinates": [-82.40227529, 28.30810945]}, "properties": {"date": "2020-04-06", "new": 8, "total": 8, "city": "Pasco", "province": "Florida", "country": "United States"}}, {"type": "Feature", "geometry": {"type": "Point", "coordinates": [-82.72239666, 27.93130349]}, "properties": {"date": "2020-04-06", "new": 3, "total": 3, "city": "Pinellas", "province": "Florida", "country": "United States"}}, {"type": "Feature", "geometry": {"type": "Point", "coordinates": [-81.69732947, 27.95027105]}, "properties": {"date": "2020-04-06", "new": 19, "total": 19, "city": "Polk", "province": "Florida", "country": "United States"}}, {"type": "Feature", "geometry": {"type": "Point", "coordinates": [-81.43589967, 29.90096506]}, "properties": {"date": "2020-04-06", "new": 5, "total": 5, "city": "St. Johns", "province": "Florida", "country": "United States"}}, {"type": "Feature", "geometry": {"type": "Point", "coordinates": [-80.47106649, 27.37763908]}, "properties": {"date": "2020-04-06", "new": 18, "total": 18, "city": "St. Lucie", "province": "Florida", "country": "United States"}}, {"type": "Feature", "geometry": {"type": "Point", "coordinates": [-87.02458128, 30.69341450000001]}, "properties": {"date": "2020-04-06", "new": 3, "total": 3, "city": "Santa Rosa", "province": "Florida", "country": "United States"}}, {"type": "Feature", "geometry": {"type": "Point", "coordinates": [-82.33174248, 27.18546175]}, "properties": {"date": "2020-04-06", "new": 11, "total": 11, "city": "Sarasota", "province": "Florida", "country": "United States"}}, {"type": "Feature", "geometry": {"type": "Point", "coordinates": [-81.24060348, 28.7158582]}, "properties": {"date": "2020-04-06", "new": 3, "total": 3, "city": "Seminole", "province": "Florida", "country": "United States"}}, {"type": "Feature", "geometry": {"type": "Point", "coordinates": [-82.0794267, 28.70181754]}, "properties": {"date": "2020-04-06", "new": 5, "total": 5, "city": "Sumter", "province": "Florida", "country": "United States"}}, {"type": "Feature", "geometry": {"type": "Point", "coordinates": [-82.99099670000003, 30.19746066]}, "properties": {"date": "2020-04-06", "new": 14, "total": 14, "city": "Suwannee", "province": "Florida", "country": "United States"}}, {"type": "Feature", "geometry": {"type": "Point", "coordinates": [-86.16935664, 30.64204028]}, "properties": {"date": "2020-04-06", "new": 1, "total": 1, "city": "Walton", "province": "Florida", "country": "United States"}}, {"type": "Feature", "geometry": {"type": "Point", "coordinates": [-82.28909114, 31.74847232]}, "properties": {"date": "2020-04-06", "new": 1, "total": 1, "city": "Appling", "province": "Georgia", "country": "United States"}}, {"type": "Feature", "geometry": {"type": "Point", "coordinates": [-82.45936528, 31.55456473]}, "properties": {"date": "2020-04-06", "new": 1, "total": 1, "city": "Bacon", "province": "Georgia", "country": "United States"}}, {"type": "Feature", "geometry": {"type": "Point", "coordinates": [-83.24701748, 33.06882326]}, "properties": {"date": "2020-04-06", "new": 1, "total": 1, "city": "Baldwin", "province": "Georgia", "country": "United States"}}, {"type": "Feature", "geometry": {"type": "Point", "coordinates": [-83.71436292, 33.99148694]}, "properties": {"date": "2020-04-06", "new": 2, "total": 2, "city": "Barrow", "province": "Georgia", "country": "United States"}}, {"type": "Feature", "geometry": {"type": "Point", "coordinates": [-84.83887523, 34.23732119]}, "properties": {"date": "2020-04-06", "new": 19, "total": 19, "city": "Bartow", "province": "Georgia", "country": "United States"}}, {"type": "Feature", "geometry": {"type": "Point", "coordinates": [-83.22145359, 31.76095874]}, "properties": {"date": "2020-04-06", "new": 1, "total": 1, "city": "Ben Hill", "province": "Georgia", "country": "United States"}}, {"type": "Feature", "geometry": {"type": "Point", "coordinates": [-81.97743999, 31.19576557]}, "properties": {"date": "2020-04-06", "new": 2, "total": 2, "city": "Brantley", "province": "Georgia", "country": "United States"}}, {"type": "Feature", "geometry": {"type": "Point", "coordinates": [-81.44002948, 32.00979311]}, "properties": {"date": "2020-04-06", "new": 5, "total": 5, "city": "Bryan", "province": "Georgia", "country": "United States"}}, {"type": "Feature", "geometry": {"type": "Point", "coordinates": [-81.74811421, 32.39577406]}, "properties": {"date": "2020-04-06", "new": 3, "total": 3, "city": "Bulloch", "province": "Georgia", "country": "United States"}}, {"type": "Feature", "geometry": {"type": "Point", "coordinates": [-81.99928721, 33.05917989]}, "properties": {"date": "2020-04-06", "new": 1, "total": 1, "city": "Burke", "province": "Georgia", "country": "United States"}}, {"type": "Feature", "geometry": {"type": "Point", "coordinates": [-83.95435040000002, 33.283094500000004]}, "properties": {"date": "2020-04-06", "new": 6, "total": 6, "city": "Butts", "province": "Georgia", "country": "United States"}}, {"type": "Feature", "geometry": {"type": "Point", "coordinates": [-84.62725131, 31.53169785]}, "properties": {"date": "2020-04-06", "new": 4, "total": 4, "city": "Calhoun", "province": "Georgia", "country": "United States"}}, {"type": "Feature", "geometry": {"type": "Point", "coordinates": [-85.07976677, 33.58138199]}, "properties": {"date": "2020-04-06", "new": 5, "total": 5, "city": "Carroll", "province": "Georgia", "country": "United States"}}, {"type": "Feature", "geometry": {"type": "Point", "coordinates": [-81.12489526, 32.00043026]}, "properties": {"date": "2020-04-06", "new": 21, "total": 21, "city": "Chatham", "province": "Georgia", "country": "United States"}}, {"type": "Feature", "geometry": {"type": "Point", "coordinates": [-84.47431861, 34.24393976]}, "properties": {"date": "2020-04-06", "new": 11, "total": 11, "city": "Cherokee", "province": "Georgia", "country": "United States"}}, {"type": "Feature", "geometry": {"type": "Point", "coordinates": [-83.37124007, 33.95436462]}, "properties": {"date": "2020-04-06", "new": 7, "total": 7, "city": "Clarke", "province": "Georgia", "country": "United States"}}, {"type": "Feature", "geometry": {"type": "Point", "coordinates": [-84.35594188, 33.54187245]}, "properties": {"date": "2020-04-06", "new": 6, "total": 6, "city": "Clayton", "province": "Georgia", "country": "United States"}}, {"type": "Feature", "geometry": {"type": "Point", "coordinates": [-84.5761255, 33.94243204]}, "properties": {"date": "2020-04-06", "new": 46, "total": 46, "city": "Cobb", "province": "Georgia", "country": "United States"}}, {"type": "Feature", "geometry": {"type": "Point", "coordinates": [-84.5761255, 33.94243204]}, "properties": {"date": "2020-04-06", "new": 13, "total": 13, "city": "Cobb", "province": "Georgia", "country": "United States"}}, {"type": "Feature", "geometry": {"type": "Point", "coordinates": [-83.7677946, 31.18810588]}, "properties": {"date": "2020-04-06", "new": 3, "total": 3, "city": "Colquitt", "province": "Georgia", "country": "United States"}}, {"type": "Feature", "geometry": {"type": "Point", "coordinates": [-82.263524, 33.54534185]}, "properties": {"date": "2020-04-06", "new": 4, "total": 4, "city": "Columbia", "province": "Georgia", "country": "United States"}}, {"type": "Feature", "geometry": {"type": "Point", "coordinates": [-84.76129976, 33.35334302]}, "properties": {"date": "2020-04-06", "new": 9, "total": 9, "city": "Coweta", "province": "Georgia", "country": "United States"}}, {"type": "Feature", "geometry": {"type": "Point", "coordinates": [-83.76811843, 31.92289565]}, "properties": {"date": "2020-04-06", "new": 15, "total": 15, "city": "Crisp", "province": "Georgia", "country": "United States"}}, {"type": "Feature", "geometry": {"type": "Point", "coordinates": [-84.16964071, 34.44244079]}, "properties": {"date": "2020-04-06", "new": 3, "total": 3, "city": "Dawson", "province": "Georgia", "country": "United States"}}, {"type": "Feature", "geometry": {"type": "Point", "coordinates": [-84.57619536, 30.87967778]}, "properties": {"date": "2020-04-06", "new": 3, "total": 3, "city": "Decatur", "province": "Georgia", "country": "United States"}}, {"type": "Feature", "geometry": {"type": "Point", "coordinates": [-84.22396017, 33.76944049]}, "properties": {"date": "2020-04-06", "new": 36, "total": 36, "city": "DeKalb", "province": "Georgia", "country": "United States"}}, {"type": "Feature", "geometry": {"type": "Point", "coordinates": [-83.16948926, 32.17265114]}, "properties": {"date": "2020-04-06", "new": 3, "total": 3, "city": "Dodge", "province": "Georgia", "country": "United States"}}, {"type": "Feature", "geometry": {"type": "Point", "coordinates": [-83.79746561, 32.15630737]}, "properties": {"date": "2020-04-06", "new": 4, "total": 4, "city": "Dooly", "province": "Georgia", "country": "United States"}}, {"type": "Feature", "geometry": {"type": "Point", "coordinates": [-84.21722377, 31.53328528]}, "properties": {"date": "2020-04-06", "new": 30, "total": 30, "city": "Dougherty", "province": "Georgia", "country": "United States"}}, {"type": "Feature", "geometry": {"type": "Point", "coordinates": [-84.77026156, 33.70291126]}, "properties": {"date": "2020-04-06", "new": 16, "total": 16, "city": "Douglas", "province": "Georgia", "country": "United States"}}, {"type": "Feature", "geometry": {"type": "Point", "coordinates": [-84.90255207, 31.32155345]}, "properties": {"date": "2020-04-06", "new": 12, "total": 12, "city": "Early", "province": "Georgia", "country": "United States"}}, {"type": "Feature", "geometry": {"type": "Point", "coordinates": [-81.34280942, 32.36616021]}, "properties": {"date": "2020-04-06", "new": 4, "total": 4, "city": "Effingham", "province": "Georgia", "country": "United States"}}, {"type": "Feature", "geometry": {"type": "Point", "coordinates": [-82.83936148, 34.11302332]}, "properties": {"date": "2020-04-06", "new": 1, "total": 1, "city": "Elbert", "province": "Georgia", "country": "United States"}}, {"type": "Feature", "geometry": {"type": "Point", "coordinates": [-84.316964, 34.86430205]}, "properties": {"date": "2020-04-06", "new": 1, "total": 1, "city": "Fannin", "province": "Georgia", "country": "United States"}}, {"type": "Feature", "geometry": {"type": "Point", "coordinates": [-84.49089434, 33.41357794]}, "properties": {"date": "2020-04-06", "new": 7, "total": 7, "city": "Fayette", "province": "Georgia", "country": "United States"}}, {"type": "Feature", "geometry": {"type": "Point", "coordinates": [-85.21577392, 34.26268279]}, "properties": {"date": "2020-04-06", "new": 4, "total": 4, "city": "Floyd", "province": "Georgia", "country": "United States"}}, {"type": "Feature", "geometry": {"type": "Point", "coordinates": [-84.12315129999998, 34.22604035]}, "properties": {"date": "2020-04-06", "new": 8, "total": 8, "city": "Forsyth", "province": "Georgia", "country": "United States"}}, {"type": "Feature", "geometry": {"type": "Point", "coordinates": [-84.46319413, 33.79216944]}, "properties": {"date": "2020-04-06", "new": 65, "total": 65, "city": "Fulton", "province": "Georgia", "country": "United States"}}, {"type": "Feature", "geometry": {"type": "Point", "coordinates": [-84.87296253, 34.50487351]}, "properties": {"date": "2020-04-06", "new": 1, "total": 1, "city": "Gordon", "province": "Georgia", "country": "United States"}}, {"type": "Feature", "geometry": {"type": "Point", "coordinates": [-84.23418364, 30.87454847]}, "properties": {"date": "2020-04-06", "new": 1, "total": 1, "city": "Grady", "province": "Georgia", "country": "United States"}}, {"type": "Feature", "geometry": {"type": "Point", "coordinates": [-83.17139104, 33.5769205]}, "properties": {"date": "2020-04-06", "new": 3, "total": 3, "city": "Greene", "province": "Georgia", "country": "United States"}}, {"type": "Feature", "geometry": {"type": "Point", "coordinates": [-84.02137802, 33.96044201]}, "properties": {"date": "2020-04-06", "new": 35, "total": 35, "city": "Gwinnett", "province": "Georgia", "country": "United States"}}, {"type": "Feature", "geometry": {"type": "Point", "coordinates": [-83.81896936, 34.32207823]}, "properties": {"date": "2020-04-06", "new": 14, "total": 14, "city": "Hall", "province": "Georgia", "country": "United States"}}, {"type": "Feature", "geometry": {"type": "Point", "coordinates": [-84.90538572, 32.73709786]}, "properties": {"date": "2020-04-06", "new": 3, "total": 3, "city": "Harris", "province": "Georgia", "country": "United States"}}, {"type": "Feature", "geometry": {"type": "Point", "coordinates": [-84.14814659999998, 33.4533428]}, "properties": {"date": "2020-04-06", "new": 11, "total": 11, "city": "Henry", "province": "Georgia", "country": "United States"}}, {"type": "Feature", "geometry": {"type": "Point", "coordinates": [-83.66879087, 32.45802497]}, "properties": {"date": "2020-04-06", "new": 2, "total": 2, "city": "Houston", "province": "Georgia", "country": "United States"}}, {"type": "Feature", "geometry": {"type": "Point", "coordinates": [-83.56814788, 34.13794553]}, "properties": {"date": "2020-04-06", "new": 2, "total": 2, "city": "Jackson", "province": "Georgia", "country": "United States"}}, {"type": "Feature", "geometry": {"type": "Point", "coordinates": [-82.63724870000001, 31.80405727]}, "properties": {"date": "2020-04-06", "new": 1, "total": 1, "city": "Jeff Davis", "province": "Georgia", "country": "United States"}}, {"type": "Feature", "geometry": {"type": "Point", "coordinates": [-81.96040187, 32.79248718]}, "properties": {"date": "2020-04-06", "new": 2, "total": 2, "city": "Jenkins", "province": "Georgia", "country": "United States"}}, {"type": "Feature", "geometry": {"type": "Point", "coordinates": [-83.56019163, 33.02512137]}, "properties": {"date": "2020-04-06", "new": 1, "total": 1, "city": "Jones", "province": "Georgia", "country": "United States"}}, {"type": "Feature", "geometry": {"type": "Point", "coordinates": [-84.14263877, 33.07841647]}, "properties": {"date": "2020-04-06", "new": 7, "total": 7, "city": "Lamar", "province": "Georgia", "country": "United States"}}, {"type": "Feature", "geometry": {"type": "Point", "coordinates": [-83.06472457, 31.03828570000001]}, "properties": {"date": "2020-04-06", "new": 3, "total": 3, "city": "Lanier", "province": "Georgia", "country": "United States"}}, {"type": "Feature", "geometry": {"type": "Point", "coordinates": [-82.92221316, 32.46325233]}, "properties": {"date": "2020-04-06", "new": 1, "total": 1, "city": "Laurens", "province": "Georgia", "country": "United States"}}, {"type": "Feature", "geometry": {"type": "Point", "coordinates": [-84.14324253, 31.779330600000005]}, "properties": {"date": "2020-04-06", "new": 11, "total": 11, "city": "Lee", "province": "Georgia", "country": "United States"}}, {"type": "Feature", "geometry": {"type": "Point", "coordinates": [-81.49251135, 31.82588896]}, "properties": {"date": "2020-04-06", "new": 3, "total": 3, "city": "Liberty", "province": "Georgia", "country": "United States"}}, {"type": "Feature", "geometry": {"type": "Point", "coordinates": [-83.27056716, 30.83568832]}, "properties": {"date": "2020-04-06", "new": 3, "total": 3, "city": "Lowndes", "province": "Georgia", "country": "United States"}}, {"type": "Feature", "geometry": {"type": "Point", "coordinates": [-82.48252774, 33.47851918]}, "properties": {"date": "2020-04-06", "new": 2, "total": 2, "city": "McDuffie", "province": "Georgia", "country": "United States"}}, {"type": "Feature", "geometry": {"type": "Point", "coordinates": [-84.68859732, 33.04163534]}, "properties": {"date": "2020-04-06", "new": 2, "total": 2, "city": "Meriwether", "province": "Georgia", "country": "United States"}}, {"type": "Feature", "geometry": {"type": "Point", "coordinates": [-84.73151117, 31.16568912]}, "properties": {"date": "2020-04-06", "new": 4, "total": 4, "city": "Miller", "province": "Georgia", "country": "United States"}}, {"type": "Feature", "geometry": {"type": "Point", "coordinates": [-84.19381821, 31.22483255]}, "properties": {"date": "2020-04-06", "new": 3, "total": 3, "city": "Mitchell", "province": "Georgia", "country": "United States"}}, {"type": "Feature", "geometry": {"type": "Point", "coordinates": [-83.92097166, 33.014289]}, "properties": {"date": "2020-04-06", "new": 1, "total": 1, "city": "Monroe", "province": "Georgia", "country": "United States"}}, {"type": "Feature", "geometry": {"type": "Point", "coordinates": [-83.49129491, 33.59232073]}, "properties": {"date": "2020-04-06", "new": 3, "total": 3, "city": "Morgan", "province": "Georgia", "country": "United States"}}, {"type": "Feature", "geometry": {"type": "Point", "coordinates": [-84.74993177, 34.78897608]}, "properties": {"date": "2020-04-06", "new": 1, "total": 1, "city": "Murray", "province": "Georgia", "country": "United States"}}, {"type": "Feature", "geometry": {"type": "Point", "coordinates": [-84.87142262, 32.50931999]}, "properties": {"date": "2020-04-06", "new": 4, "total": 4, "city": "Muscogee", "province": "Georgia", "country": "United States"}}, {"type": "Feature", "geometry": {"type": "Point", "coordinates": [-83.84547140000002, 33.55514538]}, "properties": {"date": "2020-04-06", "new": 7, "total": 7, "city": "Newton", "province": "Georgia", "country": "United States"}}, {"type": "Feature", "geometry": {"type": "Point", "coordinates": [-84.86848792, 33.91969522]}, "properties": {"date": "2020-04-06", "new": 4, "total": 4, "city": "Paulding", "province": "Georgia", "country": "United States"}}, {"type": "Feature", "geometry": {"type": "Point", "coordinates": [-83.82937, 32.56934316]}, "properties": {"date": "2020-04-06", "new": 2, "total": 2, "city": "Peach", "province": "Georgia", "country": "United States"}}, {"type": "Feature", "geometry": {"type": "Point", "coordinates": [-82.21598442, 31.35928155]}, "properties": {"date": "2020-04-06", "new": 5, "total": 5, "city": "Pierce", "province": "Georgia", "country": "United States"}}, {"type": "Feature", "geometry": {"type": "Point", "coordinates": [-84.38790389, 33.09310242]}, "properties": {"date": "2020-04-06", "new": 4, "total": 4, "city": "Pike", "province": "Georgia", "country": "United States"}}, {"type": "Feature", "geometry": {"type": "Point", "coordinates": [-85.18677781, 34.00267074]}, "properties": {"date": "2020-04-06", "new": 2, "total": 2, "city": "Polk", "province": "Georgia", "country": "United States"}}, {"type": "Feature", "geometry": {"type": "Point", "coordinates": [-83.47549959999998, 32.23334561]}, "properties": {"date": "2020-04-06", "new": 1, "total": 1, "city": "Pulaski", "province": "Georgia", "country": "United States"}}, {"type": "Feature", "geometry": {"type": "Point", "coordinates": [-83.37552891, 33.32056115]}, "properties": {"date": "2020-04-06", "new": 1, "total": 1, "city": "Putnam", "province": "Georgia", "country": "United States"}}, {"type": "Feature", "geometry": {"type": "Point", "coordinates": [-84.75732369, 31.76622818]}, "properties": {"date": "2020-04-06", "new": 6, "total": 6, "city": "Randolph", "province": "Georgia", "country": "United States"}}, {"type": "Feature", "geometry": {"type": "Point", "coordinates": [-82.07026432, 33.35777107]}, "properties": {"date": "2020-04-06", "new": 5, "total": 5, "city": "Richmond", "province": "Georgia", "country": "United States"}}, {"type": "Feature", "geometry": {"type": "Point", "coordinates": [-84.02202167, 33.65145002]}, "properties": {"date": "2020-04-06", "new": 4, "total": 4, "city": "Rockdale", "province": "Georgia", "country": "United States"}}, {"type": "Feature", "geometry": {"type": "Point", "coordinates": [-84.86823924, 30.93464824]}, "properties": {"date": "2020-04-06", "new": 1, "total": 1, "city": "Seminole", "province": "Georgia", "country": "United States"}}, {"type": "Feature", "geometry": {"type": "Point", "coordinates": [-84.28013991, 33.26310031]}, "properties": {"date": "2020-04-06", "new": 15, "total": 15, "city": "Spalding", "province": "Georgia", "country": "United States"}}, {"type": "Feature", "geometry": {"type": "Point", "coordinates": [-83.29405315, 34.55151201]}, "properties": {"date": "2020-04-06", "new": 2, "total": 2, "city": "Stephens", "province": "Georgia", "country": "United States"}}, {"type": "Feature", "geometry": {"type": "Point", "coordinates": [-84.83208037, 32.07996777]}, "properties": {"date": "2020-04-06", "new": 2, "total": 2, "city": "Stewart", "province": "Georgia", "country": "United States"}}, {"type": "Feature", "geometry": {"type": "Point", "coordinates": [-84.19821492, 32.03650571]}, "properties": {"date": "2020-04-06", "new": 4, "total": 4, "city": "Sumter", "province": "Georgia", "country": "United States"}}, {"type": "Feature", "geometry": {"type": "Point", "coordinates": [-84.53351366, 32.69642758]}, "properties": {"date": "2020-04-06", "new": 1, "total": 1, "city": "Talbot", "province": "Georgia", "country": "United States"}}, {"type": "Feature", "geometry": {"type": "Point", "coordinates": [-84.25077141, 32.55792548]}, "properties": {"date": "2020-04-06", "new": 1, "total": 1, "city": "Taylor", "province": "Georgia", "country": "United States"}}, {"type": "Feature", "geometry": {"type": "Point", "coordinates": [-84.44069698, 31.77527543]}, "properties": {"date": "2020-04-06", "new": 7, "total": 7, "city": "Terrell", "province": "Georgia", "country": "United States"}}, {"type": "Feature", "geometry": {"type": "Point", "coordinates": [-83.91847289, 30.86392347]}, "properties": {"date": "2020-04-06", "new": 2, "total": 2, "city": "Thomas", "province": "Georgia", "country": "United States"}}, {"type": "Feature", "geometry": {"type": "Point", "coordinates": [-83.5236119, 31.45743864]}, "properties": {"date": "2020-04-06", "new": 8, "total": 8, "city": "Tift", "province": "Georgia", "country": "United States"}}, {"type": "Feature", "geometry": {"type": "Point", "coordinates": [-82.32957247, 32.12059861]}, "properties": {"date": "2020-04-06", "new": 2, "total": 2, "city": "Toombs", "province": "Georgia", "country": "United States"}}, {"type": "Feature", "geometry": {"type": "Point", "coordinates": [-82.56904553, 32.40422134]}, "properties": {"date": "2020-04-06", "new": 1, "total": 1, "city": "Treutlen", "province": "Georgia", "country": "United States"}}, {"type": "Feature", "geometry": {"type": "Point", "coordinates": [-85.02812115, 33.03349196]}, "properties": {"date": "2020-04-06", "new": 3, "total": 3, "city": "Troup", "province": "Georgia", "country": "United States"}}, {"type": "Feature", "geometry": {"type": "Point", "coordinates": [-83.62069378, 31.71612656]}, "properties": {"date": "2020-04-06", "new": 2, "total": 2, "city": "Turner", "province": "Georgia", "country": "United States"}}, {"type": "Feature", "geometry": {"type": "Point", "coordinates": [-84.30024826, 32.87920671]}, "properties": {"date": "2020-04-06", "new": 9, "total": 9, "city": "Upson", "province": "Georgia", "country": "United States"}}, {"type": "Feature", "geometry": {"type": "Point", "coordinates": [-83.73552314, 33.78017694]}, "properties": {"date": "2020-04-06", "new": 4, "total": 4, "city": "Walton", "province": "Georgia", "country": "United States"}}, {"type": "Feature", "geometry": {"type": "Point", "coordinates": [-82.42224148, 31.05449097]}, "properties": {"date": "2020-04-06", "new": 4, "total": 4, "city": "Ware", "province": "Georgia", "country": "United States"}}, {"type": "Feature", "geometry": {"type": "Point", "coordinates": [-81.91894878, 31.5521809]}, "properties": {"date": "2020-04-06", "new": 1, "total": 1, "city": "Wayne", "province": "Georgia", "country": "United States"}}, {"type": "Feature", "geometry": {"type": "Point", "coordinates": [-84.54742852, 32.04066113]}, "properties": {"date": "2020-04-06", "new": 2, "total": 2, "city": "Webster", "province": "Georgia", "country": "United States"}}, {"type": "Feature", "geometry": {"type": "Point", "coordinates": [-84.96093476, 34.80987459]}, "properties": {"date": "2020-04-06", "new": 1, "total": 1, "city": "Whitfield", "province": "Georgia", "country": "United States"}}, {"type": "Feature", "geometry": {"type": "Point", "coordinates": [-83.43438555, 31.97496928]}, "properties": {"date": "2020-04-06", "new": 1, "total": 1, "city": "Wilcox", "province": "Georgia", "country": "United States"}}, {"type": "Feature", "geometry": {"type": "Point", "coordinates": [-82.74286107, 33.78290391]}, "properties": {"date": "2020-04-06", "new": 1, "total": 1, "city": "Wilkes", "province": "Georgia", "country": "United States"}}, {"type": "Feature", "geometry": {"type": "Point", "coordinates": [-83.17140684, 32.80291082]}, "properties": {"date": "2020-04-06", "new": 1, "total": 1, "city": "Wilkinson", "province": "Georgia", "country": "United States"}}, {"type": "Feature", "geometry": {"type": "Point", "coordinates": [-83.85090513, 31.55162306]}, "properties": {"date": "2020-04-06", "new": 3, "total": 3, "city": "Worth", "province": "Georgia", "country": "United States"}}, {"type": "Feature", "geometry": {"type": "Point", "coordinates": [-155.5210167, 19.60121157]}, "properties": {"date": "2020-04-06", "new": 1, "total": 1, "city": "Hawaii", "province": "Hawaii", "country": "United States"}}, {"type": "Feature", "geometry": {"type": "Point", "coordinates": [-157.97121819999995, 21.45803166]}, "properties": {"date": "2020-04-06", "new": 11, "total": 11, "city": "Honolulu", "province": "Hawaii", "country": "United States"}}, {"type": "Feature", "geometry": {"type": "Point", "coordinates": [-159.5966786, 22.03935037]},