[{"type": "Feature", "geometry": {"type": "Point", "coordinates": [28.0, -26.0]}, "properties": {"date": "2020-03-22", "new": 7, "total": 50, "city": "", "province": "Gauteng", "country": "South Africa"}}, {"type": "Feature", "geometry": {"type": "Point", "coordinates": [2.9197130000000002, 36.49228]}, "properties": {"date": "2020-03-22", "new": 0, "total": 43, "city": "Blida", "province": "Blida", "country": "Algeria"}}, {"type": "Feature", "geometry": {"type": "Point", "coordinates": [27.0, -28.0]}, "properties": {"date": "2020-03-22", "new": 2, "total": 9, "city": "", "province": "Free State", "country": "South Africa"}}, {"type": "Feature", "geometry": {"type": "Point", "coordinates": [20.0, -34.0]}, "properties": {"date": "2020-03-22", "new": 14, "total": 38, "city": "", "province": "Western Cape", "country": "South Africa"}}, {"type": "Feature", "geometry": {"type": "Point", "coordinates": [30.7216, -28.7422]}, "properties": {"date": "2020-03-22", "new": 9, "total": 13, "city": "", "province": "Kwazulu-Natal", "country": "South Africa"}}, {"type": "Feature", "geometry": {"type": "Point", "coordinates": [37.0, -32.0]}, "properties": {"date": "2020-03-22", "new": 1, "total": 2, "city": "", "province": "Eastern Cape", "country": "South Africa"}}, {"type": "Feature", "geometry": {"type": "Point", "coordinates": [3.0588889999999997, 36.753889]}, "properties": {"date": "2020-03-22", "new": 0, "total": 12, "city": "Algiers", "province": "Algiers", "country": "Algeria"}}, {"type": "Feature", "geometry": {"type": "Point", "coordinates": [47.61266, 29.356559999999998]}, "properties": {"date": "2020-03-22", "new": 0, "total": 9, "city": "", "province": "", "country": "Kuwait"}}, {"type": "Feature", "geometry": {"type": "Point", "coordinates": [29.0, -24.0]}, "properties": {"date": "2020-03-22", "new": 1, "total": 1, "city": "", "province": "Limpopo", "country": "South Africa"}}, {"type": "Feature", "geometry": {"type": "Point", "coordinates": [4.05, 36.716667]}, "properties": {"date": "2020-03-22", "new": 0, "total": 6, "city": "Tizi Ouzou", "province": "Tizi Ouzou", "country": "Algeria"}}, {"type": "Feature", "geometry": {"type": "Point", "coordinates": [7.433333, 36.45]}, "properties": {"date": "2020-03-22", "new": 0, "total": 1, "city": "Guelma", "province": "Guelma", "country": "Algeria"}}, {"type": "Feature", "geometry": {"type": "Point", "coordinates": [-0.283333, 27.866667]}, "properties": {"date": "2020-03-22", "new": 0, "total": 1, "city": "Adrar", "province": "Adrar", "country": "Algeria"}}, {"type": "Feature", "geometry": {"type": "Point", "coordinates": [3.901389, 36.38]}, "properties": {"date": "2020-03-22", "new": 0, "total": 1, "city": "Bouira", "province": "Bouira", "country": "Algeria"}}, {"type": "Feature", "geometry": {"type": "Point", "coordinates": [4.766667, 36.066666999999995]}, "properties": {"date": "2020-03-22", "new": 0, "total": 2, "city": "Bordj Bou-Arreridj", "province": "Bordj Bou-Arreridj", "country": "Algeria"}}, {"type": "Feature", "geometry": {"type": "Point", "coordinates": [7.766667, 36.9]}, "properties": {"date": "2020-03-22", "new": 0, "total": 5, "city": "Annaba", "province": "Annaba", "country": "Algeria"}}, {"type": "Feature", "geometry": {"type": "Point", "coordinates": [5.066667, 36.75]}, "properties": {"date": "2020-03-22", "new": 0, "total": 1, "city": "Bejaia", "province": "Bejaia", "country": "Algeria"}}, {"type": "Feature", "geometry": {"type": "Point", "coordinates": [6.9, 36.866667]}, "properties": {"date": "2020-03-22", "new": 0, "total": 5, "city": "Skikda", "province": "Skikda", "country": "Algeria"}}, {"type": "Feature", "geometry": {"type": "Point", "coordinates": [2.75, 36.2675]}, "properties": {"date": "2020-03-22", "new": 0, "total": 2, "city": "Medea", "province": "Medea", "country": "Algeria"}}, {"type": "Feature", "geometry": {"type": "Point", "coordinates": [7.183333, 33.455556]}, "properties": {"date": "2020-03-22", "new": 0, "total": 2, "city": "El Oued", "province": "El Oued", "country": "Algeria"}}, {"type": "Feature", "geometry": {"type": "Point", "coordinates": [3.4723669999999998, 36.760342]}, "properties": {"date": "2020-03-22", "new": 0, "total": 1, "city": "Boumerdes", "province": "Boumerdes", "country": "Algeria"}}, {"type": "Feature", "geometry": {"type": "Point", "coordinates": [5.4, 36.183333000000005]}, "properties": {"date": "2020-03-22", "new": 0, "total": 1, "city": "Setif", "province": "Setif", "country": "Algeria"}}, {"type": "Feature", "geometry": {"type": "Point", "coordinates": [1.8111110000000001, 35.607778]}, "properties": {"date": "2020-03-22", "new": 0, "total": 1, "city": "Tissemsilt", "province": "Tissemsilt", "country": "Algeria"}}, {"type": "Feature", "geometry": {"type": "Point", "coordinates": [-0.6330560000000001, 35.696944]}, "properties": {"date": "2020-03-22", "new": 0, "total": 6, "city": "Oran", "province": "Oran", "country": "Algeria"}}, {"type": "Feature", "geometry": {"type": "Point", "coordinates": [7.133333, 35.416667]}, "properties": {"date": "2020-03-22", "new": 0, "total": 1, "city": "Khenchela", "province": "Khenchela", "country": "Algeria"}}, {"type": "Feature", "geometry": {"type": "Point", "coordinates": [2.9197130000000002, 36.49228]}, "properties": {"date": "2020-03-22", "new": 31, "total": 50, "city": "Blida", "province": "Blida", "country": "Algeria"}}, {"type": "Feature", "geometry": {"type": "Point", "coordinates": [47.61266, 29.356559999999998]}, "properties": {"date": "2020-03-22", "new": 0, "total": 7, "city": "", "province": "", "country": "Kuwait"}}, {"type": "Feature", "geometry": {"type": "Point", "coordinates": [3.0588889999999997, 36.753889]}, "properties": {"date": "2020-03-22", "new": 7, "total": 9, "city": "Algiers", "province": "Algiers", "country": "Algeria"}}, {"type": "Feature", "geometry": {"type": "Point", "coordinates": [6.9, 36.866667]}, "properties": {"date": "2020-03-22", "new": 3, "total": 6, "city": "Skikda", "province": "Skikda", "country": "Algeria"}}, {"type": "Feature", "geometry": {"type": "Point", "coordinates": [4.05, 36.716667]}, "properties": {"date": "2020-03-22", "new": 3, "total": 4, "city": "Tizi Ouzou", "province": "Tizi Ouzou", "country": "Algeria"}}, {"type": "Feature", "geometry": {"type": "Point", "coordinates": [7.766667, 36.9]}, "properties": {"date": "2020-03-22", "new": 3, "total": 5, "city": "Annaba", "province": "Annaba", "country": "Algeria"}}, {"type": "Feature", "geometry": {"type": "Point", "coordinates": [5.066667, 36.75]}, "properties": {"date": "2020-03-22", "new": 4, "total": 4, "city": "Bejaia", "province": "Bejaia", "country": "Algeria"}}, {"type": "Feature", "geometry": {"type": "Point", "coordinates": [-0.2, 5.55]}, "properties": {"date": "2020-03-22", "new": 0, "total": 15, "city": "Accra", "province": "Greater Accra Region", "country": "Ghana"}}, {"type": "Feature", "geometry": {"type": "Point", "coordinates": [-1.616667, 6.6666669999999995]}, "properties": {"date": "2020-03-22", "new": 0, "total": 3, "city": "Kumasi", "province": "Ashanti Region", "country": "Ghana"}}, {"type": "Feature", "geometry": {"type": "Point", "coordinates": [0.0, 5.6666669999999995]}, "properties": {"date": "2020-03-22", "new": 0, "total": 1, "city": "Tema", "province": "Greater Accra Region", "country": "Ghana"}}, {"type": "Feature", "geometry": {"type": "Point", "coordinates": [-1.2106, 7.977253999999999]}, "properties": {"date": "2020-03-22", "new": 4, "total": 5, "city": "", "province": "", "country": "Ghana"}}, {"type": "Feature", "geometry": {"type": "Point", "coordinates": [29.77867, 26.667959999999997]}, "properties": {"date": "2020-03-22", "new": 0, "total": 1, "city": "", "province": "", "country": "Egypt"}}, {"type": "Feature", "geometry": {"type": "Point", "coordinates": [7.183333, 33.455556]}, "properties": {"date": "2020-03-22", "new": 1, "total": 1, "city": "El Oued", "province": "El Oued", "country": "Algeria"}}, {"type": "Feature", "geometry": {"type": "Point", "coordinates": [-0.6330560000000001, 35.696944]}, "properties": {"date": "2020-03-22", "new": 6, "total": 6, "city": "Oran", "province": "Oran", "country": "Algeria"}}, {"type": "Feature", "geometry": {"type": "Point", "coordinates": [3.4723669999999998, 36.760342]}, "properties": {"date": "2020-03-22", "new": 1, "total": 1, "city": "Boumerdes", "province": "Boumerdes", "country": "Algeria"}}, {"type": "Feature", "geometry": {"type": "Point", "coordinates": [6.6, 36.35]}, "properties": {"date": "2020-03-22", "new": 1, "total": 1, "city": "Constantine", "province": "Constantine", "country": "Algeria"}}, {"type": "Feature", "geometry": {"type": "Point", "coordinates": [56.11048, 20.631079999999997]}, "properties": {"date": "2020-03-22", "new": 0, "total": 2, "city": "", "province": "", "country": "Oman"}}, {"type": "Feature", "geometry": {"type": "Point", "coordinates": [3.901389, 36.38]}, "properties": {"date": "2020-03-22", "new": 1, "total": 1, "city": "Bouira", "province": "Bouira", "country": "Algeria"}}, {"type": "Feature", "geometry": {"type": "Point", "coordinates": [7.433333, 36.45]}, "properties": {"date": "2020-03-22", "new": 1, "total": 1, "city": "Guelma", "province": "Guelma", "country": "Algeria"}}, {"type": "Feature", "geometry": {"type": "Point", "coordinates": [-16.5775, 13.453056]}, "properties": {"date": "2020-03-22", "new": 0, "total": 1, "city": "Banjul", "province": "", "country": "Gambia"}}, {"type": "Feature", "geometry": {"type": "Point", "coordinates": [56.11048, 20.631079999999997]}, "properties": {"date": "2020-03-22", "new": 0, "total": 4, "city": "", "province": "", "country": "Oman"}}, {"type": "Feature", "geometry": {"type": "Point", "coordinates": [37.84561, 0.5537850000000001]}, "properties": {"date": "2020-03-22", "new": 7, "total": 13, "city": "", "province": "", "country": "Kenya"}}, {"type": "Feature", "geometry": {"type": "Point", "coordinates": [39.48, -4.47]}, "properties": {"date": "2020-03-22", "new": 1, "total": 1, "city": "Msambweni", "province": "Kwale County", "country": "Kenya"}}, {"type": "Feature", "geometry": {"type": "Point", "coordinates": [2.674582, 28.42343]}, "properties": {"date": "2020-03-22", "new": 0, "total": 1, "city": "", "province": "", "country": "Algeria"}}, {"type": "Feature", "geometry": {"type": "Point", "coordinates": [35.513059999999996, 33.88694]}, "properties": {"date": "2020-03-22", "new": 0, "total": 3, "city": "Beirut", "province": "Beirut", "country": "Lebanon"}}, {"type": "Feature", "geometry": {"type": "Point", "coordinates": [17.083610999999998, -22.57]}, "properties": {"date": "2020-03-22", "new": 0, "total": 3, "city": "Windhoek", "province": "", "country": "Namibia"}}, {"type": "Feature", "geometry": {"type": "Point", "coordinates": [3.583333, 7.0]}, "properties": {"date": "2020-03-22", "new": 0, "total": 2, "city": "", "province": "Ogun", "country": "Nigeria"}}, {"type": "Feature", "geometry": {"type": "Point", "coordinates": [3.369446, 6.520080999999999]}, "properties": {"date": "2020-03-22", "new": 0, "total": 2, "city": "Lagos", "province": "Lagos", "country": "Nigeria"}}, {"type": "Feature", "geometry": {"type": "Point", "coordinates": [5.25, 7.6666669999999995]}, "properties": {"date": "2020-03-22", "new": 0, "total": 1, "city": "", "province": "Ekiti", "country": "Nigeria"}}, {"type": "Feature", "geometry": {"type": "Point", "coordinates": [3.720668, 6.493394]}, "properties": {"date": "2020-03-22", "new": 0, "total": 2, "city": "Lekki", "province": "Lagos", "country": "Nigeria"}}, {"type": "Feature", "geometry": {"type": "Point", "coordinates": [3.384082, 6.455026999999999]}, "properties": {"date": "2020-03-22", "new": 3, "total": 11, "city": "", "province": "Lagos", "country": "Nigeria"}}, {"type": "Feature", "geometry": {"type": "Point", "coordinates": [8.102438000000001, 9.615492]}, "properties": {"date": "2020-03-22", "new": 3, "total": 7, "city": "", "province": "", "country": "Nigeria"}}, {"type": "Feature", "geometry": {"type": "Point", "coordinates": [7.483333, 9.066667]}, "properties": {"date": "2020-03-22", "new": 1, "total": 4, "city": "Abuja", "province": "Federal Capital Territory", "country": "Nigeria"}}, {"type": "Feature", "geometry": {"type": "Point", "coordinates": [3.916667, 7.396389]}, "properties": {"date": "2020-03-22", "new": 1, "total": 1, "city": "Ibadan", "province": "Oyo", "country": "Nigeria"}}, {"type": "Feature", "geometry": {"type": "Point", "coordinates": [-17.464178, 14.694888]}, "properties": {"date": "2020-03-22", "new": 0, "total": 2, "city": "Hospital Center University De Fann", "province": "", "country": "Senegal"}}, {"type": "Feature", "geometry": {"type": "Point", "coordinates": [17.083610999999998, -22.57]}, "properties": {"date": "2020-03-22", "new": 0, "total": 2, "city": "Windhoek", "province": "", "country": "Namibia"}}, {"type": "Feature", "geometry": {"type": "Point", "coordinates": [17.227929999999997, -22.2558]}, "properties": {"date": "2020-03-22", "new": 0, "total": 2, "city": "", "province": "", "country": "Namibia"}}, {"type": "Feature", "geometry": {"type": "Point", "coordinates": [-17.464178, 14.694888]}, "properties": {"date": "2020-03-22", "new": 0, "total": 3, "city": "Hospital Center University De Fann", "province": "", "country": "Senegal"}}, {"type": "Feature", "geometry": {"type": "Point", "coordinates": [29.92595, -2.00007]}, "properties": {"date": "2020-03-22", "new": 2, "total": 19, "city": "", "province": "", "country": "Rwanda"}}, {"type": "Feature", "geometry": {"type": "Point", "coordinates": [3.369446, 6.520080999999999]}, "properties": {"date": "2020-03-22", "new": 0, "total": 1, "city": "Lagos", "province": "Lagos", "country": "Nigeria"}}, {"type": "Feature", "geometry": {"type": "Point", "coordinates": [35.01527, 31.471090000000004]}, "properties": {"date": "2020-03-22", "new": 0, "total": 3, "city": "", "province": "", "country": "Israel"}}, {"type": "Feature", "geometry": {"type": "Point", "coordinates": [34.88278, 32.009440000000005]}, "properties": {"date": "2020-03-22", "new": 0, "total": 1, "city": "Ben Gurion Airport", "province": "", "country": "Israel"}}, {"type": "Feature", "geometry": {"type": "Point", "coordinates": [25.833333, -17.933332999999998]}, "properties": {"date": "2020-03-22", "new": 0, "total": 1, "city": "Victoria Falls", "province": "Matabeleland North", "country": "Zimbabwe"}}, {"type": "Feature", "geometry": {"type": "Point", "coordinates": [31.05, -17.85]}, "properties": {"date": "2020-03-22", "new": 0, "total": 1, "city": "Harare", "province": "Harare", "country": "Zimbabwe"}}, {"type": "Feature", "geometry": {"type": "Point", "coordinates": [47.61266, 29.356559999999998]}, "properties": {"date": "2020-03-22", "new": 0, "total": 1, "city": "", "province": "", "country": "Kuwait"}}, {"type": "Feature", "geometry": {"type": "Point", "coordinates": [-17.52, 14.75]}, "properties": {"date": "2020-03-22", "new": 0, "total": 1, "city": "Almadies", "province": "Dakar", "country": "Senegal"}}, {"type": "Feature", "geometry": {"type": "Point", "coordinates": [2.340332, 9.664529]}, "properties": {"date": "2020-03-22", "new": 2, "total": 4, "city": "", "province": "", "country": "Benin"}}, {"type": "Feature", "geometry": {"type": "Point", "coordinates": [29.77867, 26.667959999999997]}, "properties": {"date": "2020-03-22", "new": 33, "total": 327, "city": "", "province": "", "country": "Egypt"}}, {"type": "Feature", "geometry": {"type": "Point", "coordinates": [2.340332, 9.664529]}, "properties": {"date": "2020-03-22", "new": 1, "total": 1, "city": "", "province": "", "country": "Benin"}}, {"type": "Feature", "geometry": {"type": "Point", "coordinates": [44.49015, 24.24738]}, "properties": {"date": "2020-03-22", "new": 0, "total": 4, "city": "", "province": "", "country": "Saudi Arabia"}}, {"type": "Feature", "geometry": {"type": "Point", "coordinates": [2.9197130000000002, 36.49228]}, "properties": {"date": "2020-03-22", "new": 0, "total": 2, "city": "", "province": "Blida", "country": "Algeria"}}, {"type": "Feature", "geometry": {"type": "Point", "coordinates": [34.81667, 32.08333]}, "properties": {"date": "2020-03-22", "new": 0, "total": 2, "city": "Ramat Gan", "province": "", "country": "Israel"}}, {"type": "Feature", "geometry": {"type": "Point", "coordinates": [34.65, 31.8]}, "properties": {"date": "2020-03-22", "new": 0, "total": 2, "city": "Ashdod", "province": "", "country": "Israel"}}, {"type": "Feature", "geometry": {"type": "Point", "coordinates": [35.01527, 31.471090000000004]}, "properties": {"date": "2020-03-22", "new": 0, "total": 2, "city": "", "province": "", "country": "Israel"}}, {"type": "Feature", "geometry": {"type": "Point", "coordinates": [34.85, 32.03333]}, "properties": {"date": "2020-03-22", "new": 0, "total": 1, "city": "Or Yehuda", "province": "", "country": "Israel"}}, {"type": "Feature", "geometry": {"type": "Point", "coordinates": [51.19044, 25.28442]}, "properties": {"date": "2020-03-22", "new": 0, "total": 8, "city": "", "province": "", "country": "Qatar"}}, {"type": "Feature", "geometry": {"type": "Point", "coordinates": [47.61266, 29.356559999999998]}, "properties": {"date": "2020-03-22", "new": 0, "total": 17, "city": "", "province": "", "country": "Kuwait"}}, {"type": "Feature", "geometry": {"type": "Point", "coordinates": [9.577214, 34.16168]}, "properties": {"date": "2020-03-22", "new": 0, "total": 1, "city": "", "province": "", "country": "Tunisia"}}, {"type": "Feature", "geometry": {"type": "Point", "coordinates": [36.795759999999994, 31.266170000000002]}, "properties": {"date": "2020-03-22", "new": 0, "total": 1, "city": "", "province": "", "country": "Jordan"}}, {"type": "Feature", "geometry": {"type": "Point", "coordinates": [2.674582, 28.42343]}, "properties": {"date": "2020-03-22", "new": 0, "total": 2, "city": "", "province": "", "country": "Algeria"}}, {"type": "Feature", "geometry": {"type": "Point", "coordinates": [-7.58333, 33.53333]}, "properties": {"date": "2020-03-22", "new": 0, "total": 1, "city": "Casablanca", "province": "Casablanca-Settat", "country": "Morocco"}}, {"type": "Feature", "geometry": {"type": "Point", "coordinates": [35.89294, 33.9225]}, "properties": {"date": "2020-03-22", "new": 0, "total": 3, "city": "", "province": "", "country": "Lebanon"}}, {"type": "Feature", "geometry": {"type": "Point", "coordinates": [37.84561, 0.5537850000000001]}, "properties": {"date": "2020-03-22", "new": 0, "total": 1, "city": "", "province": "", "country": "Kenya"}}, {"type": "Feature", "geometry": {"type": "Point", "coordinates": [56.11048, 20.631079999999997]}, "properties": {"date": "2020-03-22", "new": 0, "total": 5, "city": "", "province": "", "country": "Oman"}}, {"type": "Feature", "geometry": {"type": "Point", "coordinates": [117.7166, 31.646959999999996]}, "properties": {"date": "2020-03-22", "new": 0, "total": 1, "city": "Chaohu City, Hefei City", "province": "Anhui", "country": "China"}}, {"type": "Feature", "geometry": {"type": "Point", "coordinates": [117.3428, 31.79444]}, "properties": {"date": "2020-03-22", "new": 0, "total": 1, "city": "Hefei City", "province": "Anhui", "country": "China"}}, {"type": "Feature", "geometry": {"type": "Point", "coordinates": [107.4326, 30.259759999999996]}, "properties": {"date": "2020-03-22", "new": 0, "total": 1, "city": "Dianjiang County", "province": "Chongqing", "country": "China"}}, {"type": "Feature", "geometry": {"type": "Point", "coordinates": [111.6133, 27.73964]}, "properties": {"date": "2020-03-22", "new": 0, "total": 1, "city": "Loudi City", "province": "Hunan", "country": "China"}}, {"type": "Feature", "geometry": {"type": "Point", "coordinates": [119.1325, 34.534]}, "properties": {"date": "2020-03-22", "new": 0, "total": 13, "city": "Lianyungang City", "province": "Jiangsu", "country": "China"}}, {"type": "Feature", "geometry": {"type": "Point", "coordinates": [118.9639, 33.357009999999995]}, "properties": {"date": "2020-03-22", "new": 0, "total": 25, "city": "Huai'An City", "province": "Jiangsu", "country": "China"}}, {"type": "Feature", "geometry": {"type": "Point", "coordinates": [119.4729, 32.73976]}, "properties": {"date": "2020-03-22", "new": 0, "total": 5, "city": "Yangzhou City", "province": "Jiangsu", "country": "China"}}, {"type": "Feature", "geometry": {"type": "Point", "coordinates": [119.4537, 32.01638]}, "properties": {"date": "2020-03-22", "new": 0, "total": 5, "city": "Zhenjiang City", "province": "Jiangsu", "country": "China"}}, {"type": "Feature", "geometry": {"type": "Point", "coordinates": [118.8424, 31.92997]}, "properties": {"date": "2020-03-22", "new": 0, "total": 14, "city": "Nanjing City", "province": "Jiangsu", "country": "China"}}, {"type": "Feature", "geometry": {"type": "Point", "coordinates": [120.0767, 31.52812]}, "properties": {"date": "2020-03-22", "new": 0, "total": 11, "city": "Wuxi City", "province": "Jiangsu", "country": "China"}}, {"type": "Feature", "geometry": {"type": "Point", "coordinates": [111.9523, 28.576829999999998]}, "properties": {"date": "2020-03-22", "new": 0, "total": 4, "city": "Yiyang City", "province": "Hunan", "country": "China"}}, {"type": "Feature", "geometry": {"type": "Point", "coordinates": [117.5145, 34.3568]}, "properties": {"date": "2020-03-22", "new": 0, "total": 14, "city": "Xuzhou City", "province": "Jiangsu", "country": "China"}}, {"type": "Feature", "geometry": {"type": "Point", "coordinates": [119.6369, 31.62592]}, "properties": {"date": "2020-03-22", "new": 0, "total": 17, "city": "Changzhou City", "province": "Jiangsu", "country": "China"}}, {"type": "Feature", "geometry": {"type": "Point", "coordinates": [121.0053, 32.1975]}, "properties": {"date": "2020-03-22", "new": 0, "total": 7, "city": "Nantong City", "province": "Jiangsu", "country": "China"}}, {"type": "Feature", "geometry": {"type": "Point", "coordinates": [120.1736, 33.52337]}, "properties": {"date": "2020-03-22", "new": 0, "total": 3, "city": "Yancheng City", "province": "Jiangsu", "country": "China"}}, {"type": "Feature", "geometry": {"type": "Point", "coordinates": [120.6418, 31.378020000000003]}, "properties": {"date": "2020-03-22", "new": 0, "total": 12, "city": "Suzhou City", "province": "Jiangsu", "country": "China"}}, {"type": "Feature", "geometry": {"type": "Point", "coordinates": [112.5737, 26.796020000000002]}, "properties": {"date": "2020-03-22", "new": 0, "total": 3, "city": "Hengyang City", "province": "Hunan", "country": "China"}}, {"type": "Feature", "geometry": {"type": "Point", "coordinates": [120.0575, 32.57248]}, "properties": {"date": "2020-03-22", "new": 0, "total": 3, "city": "Taizhou City", "province": "Jiangsu", "country": "China"}}, {"type": "Feature", "geometry": {"type": "Point", "coordinates": [111.5202, 29.30245]}, "properties": {"date": "2020-03-22", "new": 0, "total": 7, "city": "Changde City", "province": "Hunan", "country": "China"}}, {"type": "Feature", "geometry": {"type": "Point", "coordinates": [118.5202, 33.786809999999996]}, "properties": {"date": "2020-03-22", "new": 0, "total": 2, "city": "Suqian City", "province": "Jiangsu", "country": "China"}}, {"type": "Feature", "geometry": {"type": "Point", "coordinates": [106.7437, 29.81392]}, "properties": {"date": "2020-03-22", "new": 0, "total": 1, "city": "Yubei District", "province": "Chongqing", "country": "China"}}, {"type": "Feature", "geometry": {"type": "Point", "coordinates": [116.0257, 28.66149]}, "properties": {"date": "2020-03-22", "new": 0, "total": 18, "city": "Nanchang City", "province": "Jiangxi", "country": "China"}}, {"type": "Feature", "geometry": {"type": "Point", "coordinates": [114.9732, 28.30755]}, "properties": {"date": "2020-03-22", "new": 0, "total": 13, "city": "Yichun City", "province": "Jiangxi", "country": "China"}}, {"type": "Feature", "geometry": {"type": "Point", "coordinates": [117.4692, 28.77693]}, "properties": {"date": "2020-03-22", "new": 0, "total": 6, "city": "Shangrao City", "province": "Jiangxi", "country": "China"}}, {"type": "Feature", "geometry": {"type": "Point", "coordinates": [112.6022, 27.73204]}, "properties": {"date": "2020-03-22", "new": 0, "total": 2, "city": "Xiangtan City", "province": "Hunan", "country": "China"}}, {"type": "Feature", "geometry": {"type": "Point", "coordinates": [114.8515, 27.84546]}, "properties": {"date": "2020-03-22", "new": 0, "total": 5, "city": "Xinyu City", "province": "Jiangxi", "country": "China"}}, {"type": "Feature", "geometry": {"type": "Point", "coordinates": [115.2745, 25.71368]}, "properties": {"date": "2020-03-22", "new": 0, "total": 5, "city": "Ganzhou City", "province": "Jiangxi", "country": "China"}}, {"type": "Feature", "geometry": {"type": "Point", "coordinates": [116.4344, 27.51128]}, "properties": {"date": "2020-03-22", "new": 0, "total": 4, "city": "Fuzhou City", "province": "Jiangxi", "country": "China"}}, {"type": "Feature", "geometry": {"type": "Point", "coordinates": [115.4418, 29.3255]}, "properties": {"date": "2020-03-22", "new": 0, "total": 6, "city": "Jiujiang City", "province": "Jiangxi", "country": "China"}}, {"type": "Feature", "geometry": {"type": "Point", "coordinates": [110.8759, 26.91525]}, "properties": {"date": "2020-03-22", "new": 0, "total": 2, "city": "Shaoyang City", "province": "Hunan", "country": "China"}}, {"type": "Feature", "geometry": {"type": "Point", "coordinates": [117.2708, 29.309990000000003]}, "properties": {"date": "2020-03-22", "new": 0, "total": 1, "city": "Jingdezhen City", "province": "Jiangxi", "country": "China"}}, {"type": "Feature", "geometry": {"type": "Point", "coordinates": [109.3486, 31.5058]}, "properties": {"date": "2020-03-22", "new": 0, "total": 2, "city": "Wuxi County", "province": "Chongqing", "country": "China"}}, {"type": "Feature", "geometry": {"type": "Point", "coordinates": [119.3656, 25.631429999999998]}, "properties": {"date": "2020-03-22", "new": 0, "total": 2, "city": "Fuqing City, Fuzhou City", "province": "Fujian", "country": "China"}}, {"type": "Feature", "geometry": {"type": "Point", "coordinates": [118.1235, 24.46555]}, "properties": {"date": "2020-03-22", "new": 0, "total": 1, "city": "Siming District, Xiamen City", "province": "Fujian", "country": "China"}}, {"type": "Feature", "geometry": {"type": "Point", "coordinates": [118.1138, 24.67595]}, "properties": {"date": "2020-03-22", "new": 0, "total": 9, "city": "Xiamen City", "province": "Fujian", "country": "China"}}, {"type": "Feature", "geometry": {"type": "Point", "coordinates": [117.7956, 24.39413]}, "properties": {"date": "2020-03-22", "new": 0, "total": 1, "city": "Longhai City, Zhangzhou City", "province": "Fujian", "country": "China"}}, {"type": "Feature", "geometry": {"type": "Point", "coordinates": [118.3777, 25.01462]}, "properties": {"date": "2020-03-22", "new": 0, "total": 3, "city": "Nan'An City, Quanzhou City", "province": "Fujian", "country": "China"}}, {"type": "Feature", "geometry": {"type": "Point", "coordinates": [119.1789, 26.05196]}, "properties": {"date": "2020-03-22", "new": 0, "total": 7, "city": "Fuzhou City", "province": "Fujian", "country": "China"}}, {"type": "Feature", "geometry": {"type": "Point", "coordinates": [116.4151, 40.18535]}, "properties": {"date": "2020-03-22", "new": 0, "total": 3, "city": "", "province": "Beijing", "country": "China"}}, {"type": "Feature", "geometry": {"type": "Point", "coordinates": [117.4428, 24.37045]}, "properties": {"date": "2020-03-22", "new": 0, "total": 3, "city": "Zhangzhou City", "province": "Fujian", "country": "China"}}, {"type": "Feature", "geometry": {"type": "Point", "coordinates": [118.2574, 25.21145]}, "properties": {"date": "2020-03-22", "new": 0, "total": 2, "city": "Quanzhou City", "province": "Fujian", "country": "China"}}, {"type": "Feature", "geometry": {"type": "Point", "coordinates": [118.8892, 25.45184]}, "properties": {"date": "2020-03-22", "new": 0, "total": 3, "city": "Putian City", "province": "Fujian", "country": "China"}}, {"type": "Feature", "geometry": {"type": "Point", "coordinates": [118.1433, 27.341520000000003]}, "properties": {"date": "2020-03-22", "new": 0, "total": 5, "city": "Nanping City", "province": "Fujian", "country": "China"}}, {"type": "Feature", "geometry": {"type": "Point", "coordinates": [103.8756, 36.07809]}, "properties": {"date": "2020-03-22", "new": 0, "total": 2, "city": "Chengguan District, Lanzhou City", "province": "Gansu", "country": "China"}}, {"type": "Feature", "geometry": {"type": "Point", "coordinates": [103.6554, 36.351259999999996]}, "properties": {"date": "2020-03-22", "new": 0, "total": 1, "city": "Lanzhou City", "province": "Gansu", "country": "China"}}, {"type": "Feature", "geometry": {"type": "Point", "coordinates": [116.7739, 23.79656]}, "properties": {"date": "2020-03-22", "new": 0, "total": 3, "city": "Chaozhou City", "province": "Guangdong", "country": "China"}}, {"type": "Feature", "geometry": {"type": "Point", "coordinates": [114.1291, 22.65389]}, "properties": {"date": "2020-03-22", "new": 0, "total": 60, "city": "Shenzhen City", "province": "Guangdong", "country": "China"}}, {"type": "Feature", "geometry": {"type": "Point", "coordinates": [113.5364, 23.349829999999997]}, "properties": {"date": "2020-03-22", "new": 0, "total": 31, "city": "Guangzhou City", "province": "Guangdong", "country": "China"}}, {"type": "Feature", "geometry": {"type": "Point", "coordinates": [120.4404, 27.905379999999997]}, "properties": {"date": "2020-03-22", "new": 0, "total": 2, "city": "Wenzhou City", "province": "Zhejiang", "country": "China"}}, {"type": "Feature", "geometry": {"type": "Point", "coordinates": [113.361, 22.16925]}, "properties": {"date": "2020-03-22", "new": 0, "total": 12, "city": "Zhuhai City", "province": "Guangdong", "country": "China"}}, {"type": "Feature", "geometry": {"type": "Point", "coordinates": [112.9444, 23.0131]}, "properties": {"date": "2020-03-22", "new": 0, "total": 6, "city": "Foshan City", "province": "Guangdong", "country": "China"}}, {"type": "Feature", "geometry": {"type": "Point", "coordinates": [113.8738, 22.93336]}, "properties": {"date": "2020-03-22", "new": 0, "total": 5, "city": "Dongguan City", "province": "Guangdong", "country": "China"}}, {"type": "Feature", "geometry": {"type": "Point", "coordinates": [114.4983, 23.24435]}, "properties": {"date": "2020-03-22", "new": 0, "total": 3, "city": "Huizhou City", "province": "Guangdong", "country": "China"}}, {"type": "Feature", "geometry": {"type": "Point", "coordinates": [116.5856, 23.334329999999998]}, "properties": {"date": "2020-03-22", "new": 0, "total": 2, "city": "Shantou City", "province": "Guangdong", "country": "China"}}, {"type": "Feature", "geometry": {"type": "Point", "coordinates": [112.6714, 22.28417]}, "properties": {"date": "2020-03-22", "new": 0, "total": 2, "city": "Jiangmen City", "province": "Guangdong", "country": "China"}}, {"type": "Feature", "geometry": {"type": "Point", "coordinates": [110.1654, 21.10003]}, "properties": {"date": "2020-03-22", "new": 0, "total": 2, "city": "Zhanjiang City", "province": "Guangdong", "country": "China"}}, {"type": "Feature", "geometry": {"type": "Point", "coordinates": [115.5411, 23.0011]}, "properties": {"date": "2020-03-22", "new": 0, "total": 1, "city": "Shanwei City", "province": "Guangdong", "country": "China"}}, {"type": "Feature", "geometry": {"type": "Point", "coordinates": [113.4305, 23.35183]}, "properties": {"date": "2020-03-22", "new": 0, "total": 37, "city": "", "province": "Guangdong", "country": "China"}}, {"type": "Feature", "geometry": {"type": "Point", "coordinates": [120.7547, 30.63995]}, "properties": {"date": "2020-03-22", "new": 0, "total": 3, "city": "Jiaxing City", "province": "Zhejiang", "country": "China"}}, {"type": "Feature", "geometry": {"type": "Point", "coordinates": [106.7064, 26.84311]}, "properties": {"date": "2020-03-22", "new": 0, "total": 3, "city": "Guiyang City", "province": "Guizhou", "country": "China"}}, {"type": "Feature", "geometry": {"type": "Point", "coordinates": [107.0848, 28.171429999999997]}, "properties": {"date": "2020-03-22", "new": 0, "total": 3, "city": "Zunyi City", "province": "Guizhou", "country": "China"}}, {"type": "Feature", "geometry": {"type": "Point", "coordinates": [104.8908, 26.136229999999998]}, "properties": {"date": "2020-03-22", "new": 0, "total": 4, "city": "Liupanshui City", "province": "Guizhou", "country": "China"}}, {"type": "Feature", "geometry": {"type": "Point", "coordinates": [120.63600000000001, 29.7353]}, "properties": {"date": "2020-03-22", "new": 0, "total": 1, "city": "Shaoxing City", "province": "Zhejiang", "country": "China"}}, {"type": "Feature", "geometry": {"type": "Point", "coordinates": [105.2156, 27.06873]}, "properties": {"date": "2020-03-22", "new": 0, "total": 2, "city": "Bijie City", "province": "Guizhou", "country": "China"}}, {"type": "Feature", "geometry": {"type": "Point", "coordinates": [108.5408, 27.973740000000003]}, "properties": {"date": "2020-03-22", "new": 0, "total": 1, "city": "Tongren City", "province": "Guizhou", "country": "China"}}, {"type": "Feature", "geometry": {"type": "Point", "coordinates": [108.5576, 26.50835]}, "properties": {"date": "2020-03-22", "new": 0, "total": 1, "city": "Qiandongnan Prefecture", "province": "Guizhou", "country": "China"}}, {"type": "Feature", "geometry": {"type": "Point", "coordinates": [106.8782, 26.829420000000002]}, "properties": {"date": "2020-03-22", "new": 0, "total": 3, "city": "", "province": "Guizhou", "country": "China"}}, {"type": "Feature", "geometry": {"type": "Point", "coordinates": [110.4222, 19.83166]}, "properties": {"date": "2020-03-22", "new": 0, "total": 2, "city": "Haikou City", "province": "Hainan", "country": "China"}}, {"type": "Feature", "geometry": {"type": "Point", "coordinates": [117.22484399999999, 31.828313]}, "properties": {"date": "2020-03-22", "new": 0, "total": 1, "city": "High-Tech Zone, Hefei City", "province": "Anhui", "country": "China"}}, {"type": "Feature", "geometry": {"type": "Point", "coordinates": [109.4197, 18.39084]}, "properties": {"date": "2020-03-22", "new": 0, "total": 1, "city": "Sanya City", "province": "Hainan", "country": "China"}}, {"type": "Feature", "geometry": {"type": "Point", "coordinates": [109.4028, 19.571170000000002]}, "properties": {"date": "2020-03-22", "new": 0, "total": 1, "city": "Danzhou City", "province": "Hainan", "country": "China"}}, {"type": "Feature", "geometry": {"type": "Point", "coordinates": [109.9475, 18.56796]}, "properties": {"date": "2020-03-22", "new": 0, "total": 1, "city": "Lingshui County", "province": "Hainan", "country": "China"}}, {"type": "Feature", "geometry": {"type": "Point", "coordinates": [109.0491, 18.65009]}, "properties": {"date": "2020-03-22", "new": 0, "total": 1, "city": "Ledong County", "province": "Hainan", "country": "China"}}, {"type": "Feature", "geometry": {"type": "Point", "coordinates": [109.7128, 19.80185]}, "properties": {"date": "2020-03-22", "new": 0, "total": 1, "city": "Lingao County", "province": "Hainan", "country": "China"}}, {"type": "Feature", "geometry": {"type": "Point", "coordinates": [115.0351, 40.87393]}, "properties": {"date": "2020-03-22", "new": 0, "total": 5, "city": "Zhangjiakou City", "province": "Hebei", "country": "China"}}, {"type": "Feature", "geometry": {"type": "Point", "coordinates": [116.7593, 38.26855]}, "properties": {"date": "2020-03-22", "new": 0, "total": 10, "city": "Cangzhou City", "province": "Hebei", "country": "China"}}, {"type": "Feature", "geometry": {"type": "Point", "coordinates": [114.5421, 36.55381]}, "properties": {"date": "2020-03-22", "new": 0, "total": 3, "city": "Handan City", "province": "Hebei", "country": "China"}}, {"type": "Feature", "geometry": {"type": "Point", "coordinates": [114.8155, 37.21327]}, "properties": {"date": "2020-03-22", "new": 0, "total": 4, "city": "Xingtai City", "province": "Hebei", "country": "China"}}, {"type": "Feature", "geometry": {"type": "Point", "coordinates": [114.4384, 38.13361]}, "properties": {"date": "2020-03-22", "new": 0, "total": 1, "city": "Shijiazhuang City", "province": "Hebei", "country": "China"}}, {"type": "Feature", "geometry": {"type": "Point", "coordinates": [115.1701, 39.02267]}, "properties": {"date": "2020-03-22", "new": 0, "total": 5, "city": "Baoding City", "province": "Hebei", "country": "China"}}, {"type": "Feature", "geometry": {"type": "Point", "coordinates": [121.1116, 28.775]}, "properties": {"date": "2020-03-22", "new": 0, "total": 8, "city": "Taizhou City", "province": "Zhejiang", "country": "China"}}, {"type": "Feature", "geometry": {"type": "Point", "coordinates": [117.5457, 41.35324]}, "properties": {"date": "2020-03-22", "new": 0, "total": 1, "city": "Chengde City", "province": "Hebei", "country": "China"}}, {"type": "Feature", "geometry": {"type": "Point", "coordinates": [115.8236, 37.76365]}, "properties": {"date": "2020-03-22", "new": 0, "total": 1, "city": "Hengshui City", "province": "Hebei", "country": "China"}}, {"type": "Feature", "geometry": {"type": "Point", "coordinates": [118.3354, 39.72276]}, "properties": {"date": "2020-03-22", "new": 0, "total": 4, "city": "Tangshan City", "province": "Hebei", "country": "China"}}, {"type": "Feature", "geometry": {"type": "Point", "coordinates": [140.65972299999999, 41.8598035]}, "properties": {"date": "2020-03-22", "new": 0, "total": 1, "city": "Hakodate", "province": "Hokkaido", "country": "Japan"}}, {"type": "Feature", "geometry": {"type": "Point", "coordinates": [48.9672792, 31.496225]}, "properties": {"date": "2020-03-22", "new": 0, "total": 1, "city": "", "province": "Khuzestan", "country": "Iran"}}, {"type": "Feature", "geometry": {"type": "Point", "coordinates": [120.9772, 14.5958]}, "properties": {"date": "2020-03-22", "new": 0, "total": 26, "city": "Manila", "province": "Metro Manila", "country": "Philippines"}}, {"type": "Feature", "geometry": {"type": "Point", "coordinates": [121.05, 14.52]}, "properties": {"date": "2020-03-22", "new": 0, "total": 13, "city": "Taguig", "province": "Metro Manila", "country": "Philippines"}}, {"type": "Feature", "geometry": {"type": "Point", "coordinates": [121.12, 14.57]}, "properties": {"date": "2020-03-22", "new": 0, "total": 8, "city": "Cainta", "province": "Rizal", "country": "Philippines"}}, {"type": "Feature", "geometry": {"type": "Point", "coordinates": [121.03, 14.55]}, "properties": {"date": "2020-03-22", "new": 0, "total": 30, "city": "Makati", "province": "Metro Manila", "country": "Philippines"}}, {"type": "Feature", "geometry": {"type": "Point", "coordinates": [121.0833, 14.575]}, "properties": {"date": "2020-03-22", "new": 0, "total": 29, "city": "Pasig", "province": "Metro Manila", "country": "Philippines"}}, {"type": "Feature", "geometry": {"type": "Point", "coordinates": [121.1, 14.65]}, "properties": {"date": "2020-03-22", "new": 0, "total": 10, "city": "Marikina", "province": "Metro Manila", "country": "Philippines"}}, {"type": "Feature", "geometry": {"type": "Point", "coordinates": [121.03, 14.63]}, "properties": {"date": "2020-03-22", "new": 1, "total": 76, "city": "Quezon", "province": "Metro Manila", "country": "Philippines"}}, {"type": "Feature", "geometry": {"type": "Point", "coordinates": [121.03, 14.6]}, "properties": {"date": "2020-03-22", "new": 0, "total": 41, "city": "San Juan", "province": "Metro Manila", "country": "Philippines"}}, {"type": "Feature", "geometry": {"type": "Point", "coordinates": [120.9367, 14.4297]}, "properties": {"date": "2020-03-22", "new": 0, "total": 1, "city": "Imus", "province": "Cavite", "country": "Philippines"}}, {"type": "Feature", "geometry": {"type": "Point", "coordinates": [121.0453, 14.8139]}, "properties": {"date": "2020-03-22", "new": 0, "total": 2, "city": "San Jose Del Monte", "province": "Bulacan", "country": "Philippines"}}, {"type": "Feature", "geometry": {"type": "Point", "coordinates": [123.121269, 9.590661]}, "properties": {"date": "2020-03-22", "new": 0, "total": 1, "city": "Bais", "province": "Negros Oriental", "country": "Philippines"}}, {"type": "Feature", "geometry": {"type": "Point", "coordinates": [123.07, 13.7]}, "properties": {"date": "2020-03-22", "new": 0, "total": 1, "city": "Libmanan", "province": "Camarines Sur", "country": "Philippines"}}, {"type": "Feature", "geometry": {"type": "Point", "coordinates": [120.98, 14.45]}, "properties": {"date": "2020-03-22", "new": 0, "total": 7, "city": "Las Pinas", "province": "Metro Manila", "country": "Philippines"}}, {"type": "Feature", "geometry": {"type": "Point", "coordinates": [123.15, 9.92]}, "properties": {"date": "2020-03-22", "new": 0, "total": 1, "city": "Tayasan", "province": "Negros Oriental", "country": "Philippines"}}, {"type": "Feature", "geometry": {"type": "Point", "coordinates": [120.97, 14.65]}, "properties": {"date": "2020-03-22", "new": 0, "total": 8, "city": "Caloocan", "province": "Metro Manila", "country": "Philippines"}}, {"type": "Feature", "geometry": {"type": "Point", "coordinates": [121.03, 14.58]}, "properties": {"date": "2020-03-22", "new": 1, "total": 22, "city": "Mandaluyong", "province": "Metro Manila", "country": "Philippines"}}, {"type": "Feature", "geometry": {"type": "Point", "coordinates": [121.0, 13.83]}, "properties": {"date": "2020-03-22", "new": 0, "total": 4, "city": "Batangas", "province": "Batangas", "country": "Philippines"}}, {"type": "Feature", "geometry": {"type": "Point", "coordinates": [121.02, 14.47]}, "properties": {"date": "2020-03-22", "new": 0, "total": 13, "city": "Paranaque", "province": "Metro Manila", "country": "Philippines"}}, {"type": "Feature", "geometry": {"type": "Point", "coordinates": [120.94193999999999, 15.07889]}, "properties": {"date": "2020-03-22", "new": 0, "total": 2, "city": "San Ildefonso", "province": "Bulacan", "country": "Philippines"}}, {"type": "Feature", "geometry": {"type": "Point", "coordinates": [120.5419, 15.0719]}, "properties": {"date": "2020-03-22", "new": 0, "total": 1, "city": "Porac", "province": "Pampanga", "country": "Philippines"}}, {"type": "Feature", "geometry": {"type": "Point", "coordinates": [120.53, 14.8]}, "properties": {"date": "2020-03-22", "new": 0, "total": 1, "city": "Orani", "province": "Bataan", "country": "Philippines"}}, {"type": "Feature", "geometry": {"type": "Point", "coordinates": [121.62, 13.93]}, "properties": {"date": "2020-03-22", "new": 0, "total": 1, "city": "Lucena", "province": "Quezon", "country": "Philippines"}}, {"type": "Feature", "geometry": {"type": "Point", "coordinates": [121.12, 14.32]}, "properties": {"date": "2020-03-22", "new": 0, "total": 2, "city": "Santa Rosa", "province": "Laguna", "country": "Philippines"}}, {"type": "Feature", "geometry": {"type": "Point", "coordinates": [121.17628899999998, 14.584244]}, "properties": {"date": "2020-03-22", "new": 0, "total": 5, "city": "Antipolo", "province": "Rizal", "country": "Philippines"}}, {"type": "Feature", "geometry": {"type": "Point", "coordinates": [120.94, 14.33]}, "properties": {"date": "2020-03-22", "new": 0, "total": 2, "city": "Dasmarinas", "province": "Cavite", "country": "Philippines"}}, {"type": "Feature", "geometry": {"type": "Point", "coordinates": [121.0, 14.55]}, "properties": {"date": "2020-03-22", "new": 0, "total": 2, "city": "Pasay", "province": "Metro Manila", "country": "Philippines"}}, {"type": "Feature", "geometry": {"type": "Point", "coordinates": [120.68, 15.03]}, "properties": {"date": "2020-03-22", "new": 0, "total": 1, "city": "San Fernando", "province": "Pampanga", "country": "Philippines"}}, {"type": "Feature", "geometry": {"type": "Point", "coordinates": [120.5, 14.93]}, "properties": {"date": "2020-03-22", "new": 0, "total": 1, "city": "Floridablanca", "province": "Pampanga", "country": "Philippines"}}, {"type": "Feature", "geometry": {"type": "Point", "coordinates": [121.1622, 13.9411]}, "properties": {"date": "2020-03-22", "new": 0, "total": 1, "city": "Lipa", "province": "Batangas", "country": "Philippines"}}, {"type": "Feature", "geometry": {"type": "Point", "coordinates": [120.88, 13.92]}, "properties": {"date": "2020-03-22", "new": 0, "total": 1, "city": "Lemery", "province": "Batangas", "country": "Philippines"}}, {"type": "Feature", "geometry": {"type": "Point", "coordinates": [127.6804, 48.03987]}, "properties": {"date": "2020-03-22", "new": 0, "total": 22, "city": "", "province": "Heilongjiang", "country": "China"}}, {"type": "Feature", "geometry": {"type": "Point", "coordinates": [120.7, 17.43]}, "properties": {"date": "2020-03-22", "new": 0, "total": 1, "city": "Manabo", "province": "Abra", "country": "Philippines"}}, {"type": "Feature", "geometry": {"type": "Point", "coordinates": [120.8114, 14.8433]}, "properties": {"date": "2020-03-22", "new": 0, "total": 1, "city": "Malolos", "province": "Bulacan", "country": "Philippines"}}, {"type": "Feature", "geometry": {"type": "Point", "coordinates": [120.88, 14.83]}, "properties": {"date": "2020-03-22", "new": 0, "total": 1, "city": "Guiguinto", "province": "Bulacan", "country": "Philippines"}}, {"type": "Feature", "geometry": {"type": "Point", "coordinates": [120.59794, 15.480170000000001]}, "properties": {"date": "2020-03-22", "new": 0, "total": 1, "city": "Tarlac", "province": "Tarlac", "country": "Philippines"}}, {"type": "Feature", "geometry": {"type": "Point", "coordinates": [125.95, 7.15]}, "properties": {"date": "2020-03-22", "new": 0, "total": 1, "city": "Pantukan", "province": "Davao De Oro", "country": "Philippines"}}, {"type": "Feature", "geometry": {"type": "Point", "coordinates": [120.975, 14.23056]}, "properties": {"date": "2020-03-22", "new": 0, "total": 1, "city": "Silang", "province": "Cavite", "country": "Philippines"}}, {"type": "Feature", "geometry": {"type": "Point", "coordinates": [124.25, 7.22]}, "properties": {"date": "2020-03-22", "new": 0, "total": 1, "city": "Cotabato", "province": "Maguindanao", "country": "Philippines"}}, {"type": "Feature", "geometry": {"type": "Point", "coordinates": [121.05, 14.38]}, "properties": {"date": "2020-03-22", "new": 0, "total": 6, "city": "Muntinlupa", "province": "Metro Manila", "country": "Philippines"}}, {"type": "Feature", "geometry": {"type": "Point", "coordinates": [120.9, 14.95]}, "properties": {"date": "2020-03-22", "new": 0, "total": 1, "city": "Baliuag", "province": "Bulacan", "country": "Philippines"}}, {"type": "Feature", "geometry": {"type": "Point", "coordinates": [120.964453, 14.462422]}, "properties": {"date": "2020-03-22", "new": 0, "total": 4, "city": "Bacoor", "province": "Cavite", "country": "Philippines"}}, {"type": "Feature", "geometry": {"type": "Point", "coordinates": [123.9, 10.3]}, "properties": {"date": "2020-03-22", "new": 0, "total": 1, "city": "Cebu", "province": "Cebu", "country": "Philippines"}}, {"type": "Feature", "geometry": {"type": "Point", "coordinates": [121.1325, 14.569170000000002]}, "properties": {"date": "2020-03-22", "new": 0, "total": 3, "city": "Taytay", "province": "Rizal", "country": "Philippines"}}, {"type": "Feature", "geometry": {"type": "Point", "coordinates": [124.3, 8.0]}, "properties": {"date": "2020-03-22", "new": 0, "total": 1, "city": "Marawi", "province": "Lanao Del Sur", "country": "Philippines"}}, {"type": "Feature", "geometry": {"type": "Point", "coordinates": [120.85306000000001, 14.39444]}, "properties": {"date": "2020-03-22", "new": 0, "total": 1, "city": "Tanza", "province": "Cavite", "country": "Philippines"}}, {"type": "Feature", "geometry": {"type": "Point", "coordinates": [120.98, 14.7]}, "properties": {"date": "2020-03-22", "new": 0, "total": 2, "city": "Valenzuela", "province": "Metro Manila", "country": "Philippines"}}, {"type": "Feature", "geometry": {"type": "Point", "coordinates": [120.88, 14.38]}, "properties": {"date": "2020-03-22", "new": 0, "total": 1, "city": "General Trias", "province": "Cavite", "country": "Philippines"}}, {"type": "Feature", "geometry": {"type": "Point", "coordinates": [120.85, 14.42]}, "properties": {"date": "2020-03-22", "new": 0, "total": 1, "city": "Rosario", "province": "Cavite", "country": "Philippines"}}, {"type": "Feature", "geometry": {"type": "Point", "coordinates": [121.15, 14.08]}, "properties": {"date": "2020-03-22", "new": 0, "total": 1, "city": "Tanauan", "province": "Batangas", "country": "Philippines"}}, {"type": "Feature", "geometry": {"type": "Point", "coordinates": [120.3446, 16.4316]}, "properties": {"date": "2020-03-22", "new": 0, "total": 2, "city": "Caba", "province": "La Union", "country": "Philippines"}}, {"type": "Feature", "geometry": {"type": "Point", "coordinates": [121.12194, 14.69694]}, "properties": {"date": "2020-03-22", "new": 0, "total": 1, "city": "San Mateo", "province": "Rizal", "country": "Philippines"}}, {"type": "Feature", "geometry": {"type": "Point", "coordinates": [125.6, 7.07]}, "properties": {"date": "2020-03-22", "new": 0, "total": 2, "city": "Davao", "province": "Davao Del Sur", "country": "Philippines"}}, {"type": "Feature", "geometry": {"type": "Point", "coordinates": [122.95091699999999, 10.676458]}, "properties": {"date": "2020-03-22", "new": 0, "total": 1, "city": "Bacolod", "province": "Negros Occidental", "country": "Philippines"}}, {"type": "Feature", "geometry": {"type": "Point", "coordinates": [118.75, 9.75]}, "properties": {"date": "2020-03-22", "new": 0, "total": 1, "city": "Puerto Princesa", "province": "Palawan", "country": "Philippines"}}, {"type": "Feature", "geometry": {"type": "Point", "coordinates": [121.72, 17.62]}, "properties": {"date": "2020-03-22", "new": 0, "total": 1, "city": "Tuguegarao", "province": "Cagayan", "country": "Philippines"}}, {"type": "Feature", "geometry": {"type": "Point", "coordinates": [120.95, 14.73]}, "properties": {"date": "2020-03-22", "new": 0, "total": 1, "city": "Meycauayan", "province": "Bulacan", "country": "Philippines"}}, {"type": "Feature", "geometry": {"type": "Point", "coordinates": [122.32, 10.67]}, "properties": {"date": "2020-03-22", "new": 0, "total": 1, "city": "Guimbal", "province": "Iloilo", "country": "Philippines"}}, {"type": "Feature", "geometry": {"type": "Point", "coordinates": [120.9, 15.27]}, "properties": {"date": "2020-03-22", "new": 0, "total": 1, "city": "San Isidro", "province": "Nueva Ecija", "country": "Philippines"}}, {"type": "Feature", "geometry": {"type": "Point", "coordinates": [120.97, 15.48]}, "properties": {"date": "2020-03-22", "new": 0, "total": 1, "city": "Cabanatuan", "province": "Nueva Ecija", "country": "Philippines"}}, {"type": "Feature", "geometry": {"type": "Point", "coordinates": [120.96, 14.82]}, "properties": {"date": "2020-03-22", "new": 0, "total": 1, "city": "Santa Maria", "province": "Bulacan", "country": "Philippines"}}, {"type": "Feature", "geometry": {"type": "Point", "coordinates": [122.8484, 11.816130000000001]}, "properties": {"date": "2020-03-22", "new": 0, "total": 3, "city": "", "province": "", "country": "Philippines"}}, {"type": "Feature", "geometry": {"type": "Point", "coordinates": [76.895833, 43.2775]}, "properties": {"date": "2020-03-22", "new": 2, "total": 24, "city": "Almaty", "province": "Almaty", "country": "Kazakhstan"}}, {"type": "Feature", "geometry": {"type": "Point", "coordinates": [71.43333299999999, 51.166667]}, "properties": {"date": "2020-03-22", "new": 1, "total": 30, "city": "Nur-Sultan", "province": "", "country": "Kazakhstan"}}, {"type": "Feature", "geometry": {"type": "Point", "coordinates": [114.1324, 22.38074]}, "properties": {"date": "2020-03-22", "new": 0, "total": 2, "city": "Hong Kong", "province": "Hong Kong", "country": "China"}}, {"type": "Feature", "geometry": {"type": "Point", "coordinates": [111.7063, 27.63327]}, "properties": {"date": "2020-03-22", "new": 0, "total": 3, "city": "", "province": "Hunan", "country": "China"}}, {"type": "Feature", "geometry": {"type": "Point", "coordinates": [73.166667, 49.833333]}, "properties": {"date": "2020-03-22", "new": 0, "total": 2, "city": "Karaganda", "province": "Karaganda", "country": "Kazakhstan"}}, {"type": "Feature", "geometry": {"type": "Point", "coordinates": [76.6215, 43.1994]}, "properties": {"date": "2020-03-22", "new": 0, "total": 1, "city": "Karasay", "province": "Almaty", "country": "Kazakhstan"}}, {"type": "Feature", "geometry": {"type": "Point", "coordinates": [67.28734, 48.4384]}, "properties": {"date": "2020-03-22", "new": 1, "total": 1, "city": "", "province": "", "country": "Kazakhstan"}}, {"type": "Feature", "geometry": {"type": "Point", "coordinates": [78.0, 45.0]}, "properties": {"date": "2020-03-22", "new": 1, "total": 1, "city": "", "province": "Almaty", "country": "Kazakhstan"}}, {"type": "Feature", "geometry": {"type": "Point", "coordinates": [57.166667000000004, 50.283333]}, "properties": {"date": "2020-03-22", "new": 1, "total": 1, "city": "", "province": "Aktobe", "country": "Kazakhstan"}}, {"type": "Feature", "geometry": {"type": "Point", "coordinates": [113.1532, 28.227590000000003]}, "properties": {"date": "2020-03-22", "new": 0, "total": 18, "city": "Changsha City", "province": "Hunan", "country": "China"}}, {"type": "Feature", "geometry": {"type": "Point", "coordinates": [112.5737, 26.796020000000002]}, "properties": {"date": "2020-03-22", "new": 0, "total": 1, "city": "Hengyang City", "province": "Hunan", "country": "China"}}, {"type": "Feature", "geometry": {"type": "Point", "coordinates": [113.5158, 27.12398]}, "properties": {"date": "2020-03-22", "new": 0, "total": 3, "city": "Zhuzhou City", "province": "Hunan", "country": "China"}}, {"type": "Feature", "geometry": {"type": "Point", "coordinates": [112.6022, 27.73204]}, "properties": {"date": "2020-03-22", "new": 0, "total": 3, "city": "Xiangtan City", "province": "Hunan", "country": "China"}}, {"type": "Feature", "geometry": {"type": "Point", "coordinates": [110.8759, 26.91525]}, "properties": {"date": "2020-03-22", "new": 0, "total": 5, "city": "Shaoyang City", "province": "Hunan", "country": "China"}}, {"type": "Feature", "geometry": {"type": "Point", "coordinates": [113.25399999999999, 29.0682]}, "properties": {"date": "2020-03-22", "new": 0, "total": 1, "city": "Yueyang City", "province": "Hunan", "country": "China"}}, {"type": "Feature", "geometry": {"type": "Point", "coordinates": [121.03, 14.63]}, "properties": {"date": "2020-03-22", "new": 21, "total": 28, "city": "Quezon", "province": "Metro Manila", "country": "Philippines"}}, {"type": "Feature", "geometry": {"type": "Point", "coordinates": [113.25399999999999, 29.0682]}, "properties": {"date": "2020-03-22", "new": 0, "total": 7, "city": "Yueyang City", "province": "Hunan", "country": "China"}}, {"type": "Feature", "geometry": {"type": "Point", "coordinates": [121.03, 14.55]}, "properties": {"date": "2020-03-22", "new": 15, "total": 17, "city": "Makati", "province": "Metro Manila", "country": "Philippines"}}, {"type": "Feature", "geometry": {"type": "Point", "coordinates": [121.0833, 14.575]}, "properties": {"date": "2020-03-22", "new": 6, "total": 8, "city": "Pasig", "province": "Metro Manila", "country": "Philippines"}}, {"type": "Feature", "geometry": {"type": "Point", "coordinates": [121.17628899999998, 14.584244]}, "properties": {"date": "2020-03-22", "new": 1, "total": 2, "city": "Antipolo", "province": "Rizal", "country": "Philippines"}}, {"type": "Feature", "geometry": {"type": "Point", "coordinates": [121.12, 14.57]}, "properties": {"date": "2020-03-22", "new": 6, "total": 7, "city": "Cainta", "province": "Rizal", "country": "Philippines"}}, {"type": "Feature", "geometry": {"type": "Point", "coordinates": [121.0, 14.55]}, "properties": {"date": "2020-03-22", "new": 2, "total": 3, "city": "Pasay", "province": "Metro Manila", "country": "Philippines"}}, {"type": "Feature", "geometry": {"type": "Point", "coordinates": [121.02, 14.47]}, "properties": {"date": "2020-03-22", "new": 5, "total": 6, "city": "Paranaque", "province": "Metro Manila", "country": "Philippines"}}, {"type": "Feature", "geometry": {"type": "Point", "coordinates": [122.8484, 11.816130000000001]}, "properties": {"date": "2020-03-22", "new": 8, "total": 9, "city": "", "province": "", "country": "Philippines"}}, {"type": "Feature", "geometry": {"type": "Point", "coordinates": [120.9772, 14.5958]}, "properties": {"date": "2020-03-22", "new": 20, "total": 20, "city": "Manila", "province": "Metro Manila", "country": "Philippines"}}, {"type": "Feature", "geometry": {"type": "Point", "coordinates": [116.4151, 40.18535]}, "properties": {"date": "2020-03-22", "new": 0, "total": 1, "city": "", "province": "Beijing", "country": "China"}}, {"type": "Feature", "geometry": {"type": "Point", "coordinates": [121.1116, 28.775]}, "properties": {"date": "2020-03-22", "new": 0, "total": 4, "city": "Taizhou City", "province": "Zhejiang", "country": "China"}}, {"type": "Feature", "geometry": {"type": "Point", "coordinates": [121.03, 14.58]}, "properties": {"date": "2020-03-22", "new": 5, "total": 5, "city": "Mandaluyong", "province": "Metro Manila", "country": "Philippines"}}, {"type": "Feature", "geometry": {"type": "Point", "coordinates": [120.8114, 14.8433]}, "properties": {"date": "2020-03-22", "new": 1, "total": 1, "city": "Malolos", "province": "Bulacan", "country": "Philippines"}}, {"type": "Feature", "geometry": {"type": "Point", "coordinates": [120.97, 14.65]}, "properties": {"date": "2020-03-22", "new": 1, "total": 1, "city": "Caloocan", "province": "Metro Manila", "country": "Philippines"}}, {"type": "Feature", "geometry": {"type": "Point", "coordinates": [121.03, 14.6]}, "properties": {"date": "2020-03-22", "new": 11, "total": 12, "city": "San Juan", "province": "Metro Manila", "country": "Philippines"}}, {"type": "Feature", "geometry": {"type": "Point", "coordinates": [121.1, 14.65]}, "properties": {"date": "2020-03-22", "new": 5, "total": 5, "city": "Marikina", "province": "Metro Manila", "country": "Philippines"}}, {"type": "Feature", "geometry": {"type": "Point", "coordinates": [125.6, 7.07]}, "properties": {"date": "2020-03-22", "new": 2, "total": 2, "city": "Davao", "province": "Davao Del Sur", "country": "Philippines"}}, {"type": "Feature", "geometry": {"type": "Point", "coordinates": [111.5202, 29.30245]}, "properties": {"date": "2020-03-22", "new": 0, "total": 2, "city": "Changde City", "province": "Hunan", "country": "China"}}, {"type": "Feature", "geometry": {"type": "Point", "coordinates": [121.0453, 14.8139]}, "properties": {"date": "2020-03-22", "new": 1, "total": 1, "city": "San Jose Del Monte", "province": "Bulacan", "country": "Philippines"}}, {"type": "Feature", "geometry": {"type": "Point", "coordinates": [120.9, 14.95]}, "properties": {"date": "2020-03-22", "new": 1, "total": 1, "city": "Baliuag", "province": "Bulacan", "country": "Philippines"}}, {"type": "Feature", "geometry": {"type": "Point", "coordinates": [110.5265, 29.393279999999997]}, "properties": {"date": "2020-03-22", "new": 0, "total": 1, "city": "Zhangjiajie City", "province": "Hunan", "country": "China"}}, {"type": "Feature", "geometry": {"type": "Point", "coordinates": [120.98, 14.45]}, "properties": {"date": "2020-03-22", "new": 3, "total": 3, "city": "Las Pinas", "province": "Metro Manila", "country": "Philippines"}}, {"type": "Feature", "geometry": {"type": "Point", "coordinates": [121.12, 14.32]}, "properties": {"date": "2020-03-22", "new": 1, "total": 1, "city": "Santa Rosa", "province": "Laguna", "country": "Philippines"}}, {"type": "Feature", "geometry": {"type": "Point", "coordinates": [111.9523, 28.576829999999998]}, "properties": {"date": "2020-03-22", "new": 0, "total": 4, "city": "Yiyang City", "province": "Hunan", "country": "China"}}, {"type": "Feature", "geometry": {"type": "Point", "coordinates": [121.05, 14.52]}, "properties": {"date": "2020-03-22", "new": 5, "total": 5, "city": "Taguig", "province": "Metro Manila", "country": "Philippines"}}, {"type": "Feature", "geometry": {"type": "Point", "coordinates": [121.05, 14.38]}, "properties": {"date": "2020-03-22", "new": 4, "total": 5, "city": "Muntinlupa", "province": "Metro Manila", "country": "Philippines"}}, {"type": "Feature", "geometry": {"type": "Point", "coordinates": [113.1376, 25.81815]}, "properties": {"date": "2020-03-22", "new": 0, "total": 1, "city": "Chenzhou City", "province": "Hunan", "country": "China"}}, {"type": "Feature", "geometry": {"type": "Point", "coordinates": [111.7296, 25.779320000000002]}, "properties": {"date": "2020-03-22", "new": 0, "total": 2, "city": "Yongzhou City", "province": "Hunan", "country": "China"}}, {"type": "Feature", "geometry": {"type": "Point", "coordinates": [110.0777, 27.55503]}, "properties": {"date": "2020-03-22", "new": 0, "total": 2, "city": "Huaihua City", "province": "Hunan", "country": "China"}}, {"type": "Feature", "geometry": {"type": "Point", "coordinates": [111.6133, 27.73964]}, "properties": {"date": "2020-03-22", "new": 0, "total": 6, "city": "Loudi City", "province": "Hunan", "country": "China"}}, {"type": "Feature", "geometry": {"type": "Point", "coordinates": [109.7267, 28.6973]}, "properties": {"date": "2020-03-22", "new": 0, "total": 1, "city": "Xiangxi Prefecture", "province": "Hunan", "country": "China"}}, {"type": "Feature", "geometry": {"type": "Point", "coordinates": [108.6337, 39.42306]}, "properties": {"date": "2020-03-22", "new": 0, "total": 1, "city": "Ordos City", "province": "Inner Mongolia", "country": "China"}}, {"type": "Feature", "geometry": {"type": "Point", "coordinates": [107.56700000000001, 41.453509999999994]}, "properties": {"date": "2020-03-22", "new": 0, "total": 1, "city": "Bayannur City", "province": "Inner Mongolia", "country": "China"}}, {"type": "Feature", "geometry": {"type": "Point", "coordinates": [118.8424, 31.92997]}, "properties": {"date": "2020-03-22", "new": 0, "total": 3, "city": "Nanjing City", "province": "Jiangsu", "country": "China"}}, {"type": "Feature", "geometry": {"type": "Point", "coordinates": [120.0767, 31.52812]}, "properties": {"date": "2020-03-22", "new": 0, "total": 1, "city": "Wuxi City", "province": "Jiangsu", "country": "China"}}, {"type": "Feature", "geometry": {"type": "Point", "coordinates": [117.5145, 34.3568]}, "properties": {"date": "2020-03-22", "new": 0, "total": 3, "city": "Xuzhou City", "province": "Jiangsu", "country": "China"}}, {"type": "Feature", "geometry": {"type": "Point", "coordinates": [119.6369, 31.62592]}, "properties": {"date": "2020-03-22", "new": 0, "total": 1, "city": "Changzhou City", "province": "Jiangsu", "country": "China"}}, {"type": "Feature", "geometry": {"type": "Point", "coordinates": [120.6418, 31.378020000000003]}, "properties": {"date": "2020-03-22", "new": 0, "total": 2, "city": "Suzhou City", "province": "Jiangsu", "country": "China"}}, {"type": "Feature", "geometry": {"type": "Point", "coordinates": [121.0053, 32.1975]}, "properties": {"date": "2020-03-22", "new": 0, "total": 2, "city": "Nantong City", "province": "Jiangsu", "country": "China"}}, {"type": "Feature", "geometry": {"type": "Point", "coordinates": [119.1325, 34.534]}, "properties": {"date": "2020-03-22", "new": 0, "total": 4, "city": "Lianyungang City", "province": "Jiangsu", "country": "China"}}, {"type": "Feature", "geometry": {"type": "Point", "coordinates": [121.12194, 14.69694]}, "properties": {"date": "2020-03-22", "new": 0, "total": 1, "city": "San Mateo", "province": "Rizal", "country": "Philippines"}}, {"type": "Feature", "geometry": {"type": "Point", "coordinates": [113.5364, 23.349829999999997]}, "properties": {"date": "2020-03-22", "new": 0, "total": 4, "city": "Guangzhou City", "province": "Guangdong", "country": "China"}}, {"type": "Feature", "geometry": {"type": "Point", "coordinates": [118.9639, 33.357009999999995]}, "properties": {"date": "2020-03-22", "new": 0, "total": 2, "city": "Huai'An City", "province": "Jiangsu", "country": "China"}}, {"type": "Feature", "geometry": {"type": "Point", "coordinates": [120.1736, 33.52337]}, "properties": {"date": "2020-03-22", "new": 0, "total": 5, "city": "Yancheng City", "province": "Jiangsu", "country": "China"}}, {"type": "Feature", "geometry": {"type": "Point", "coordinates": [119.4729, 32.73976]}, "properties": {"date": "2020-03-22", "new": 0, "total": 5, "city": "Yangzhou City", "province": "Jiangsu", "country": "China"}}, {"type": "Feature", "geometry": {"type": "Point", "coordinates": [120.0575, 32.57248]}, "properties": {"date": "2020-03-22", "new": 0, "total": 5, "city": "Taizhou City", "province": "Jiangsu", "country": "China"}}, {"type": "Feature", "geometry": {"type": "Point", "coordinates": [118.5202, 33.786809999999996]}, "properties": {"date": "2020-03-22", "new": 0, "total": 1, "city": "Suqian City", "province": "Jiangsu", "country": "China"}}, {"type": "Feature", "geometry": {"type": "Point", "coordinates": [119.4564, 32.9902]}, "properties": {"date": "2020-03-22", "new": 0, "total": 5, "city": "", "province": "Jiangsu", "country": "China"}}, {"type": "Feature", "geometry": {"type": "Point", "coordinates": [116.0257, 28.66149]}, "properties": {"date": "2020-03-22", "new": 0, "total": 16, "city": "Nanchang City", "province": "Jiangxi", "country": "China"}}, {"type": "Feature", "geometry": {"type": "Point", "coordinates": [103.8472, 1.322098]}, "properties": {"date": "2020-03-22", "new": 0, "total": 2, "city": "National Centre For Infectious Diseases", "province": "", "country": "Singapore"}}, {"type": "Feature", "geometry": {"type": "Point", "coordinates": [114.8515, 27.84546]}, "properties": {"date": "2020-03-22", "new": 0, "total": 12, "city": "Xinyu City", "province": "Jiangxi", "country": "China"}}, {"type": "Feature", "geometry": {"type": "Point", "coordinates": [117.4692, 28.77693]}, "properties": {"date": "2020-03-22", "new": 0, "total": 4, "city": "Shangrao City", "province": "Jiangxi", "country": "China"}}, {"type": "Feature", "geometry": {"type": "Point", "coordinates": [-2.95214, 54.37002]}, "properties": {"date": "2020-03-22", "new": 231, "total": 961, "city": "", "province": "", "country": "United Kingdom"}}, {"type": "Feature", "geometry": {"type": "Point", "coordinates": [-3.80735, 50.76352]}, "properties": {"date": "2020-03-22", "new": 0, "total": 12, "city": "Devon", "province": "England", "country": "United Kingdom"}}, {"type": "Feature", "geometry": {"type": "Point", "coordinates": [-0.21468, 51.82614]}, "properties": {"date": "2020-03-22", "new": 0, "total": 14, "city": "Hertfordshire", "province": "England", "country": "United Kingdom"}}, {"type": "Feature", "geometry": {"type": "Point", "coordinates": [0.736684, 51.21928]}, "properties": {"date": "2020-03-22", "new": 0, "total": 13, "city": "Kent", "province": "England", "country": "United Kingdom"}}, {"type": "Feature", "geometry": {"type": "Point", "coordinates": [-2.95214, 54.37002]}, "properties": {"date": "2020-03-22", "new": 434, "total": 434, "city": "", "province": "", "country": "United Kingdom"}}, {"type": "Feature", "geometry": {"type": "Point", "coordinates": [4.240024, 51.038740000000004]}, "properties": {"date": "2020-03-22", "new": 412, "total": 412, "city": "", "province": "Flanders", "country": "Belgium"}}, {"type": "Feature", "geometry": {"type": "Point", "coordinates": [4.367412, 50.836459999999995]}, "properties": {"date": "2020-03-22", "new": 70, "total": 70, "city": "", "province": "Brussels", "country": "Belgium"}}, {"type": "Feature", "geometry": {"type": "Point", "coordinates": [5.009932, 50.316559999999996]}, "properties": {"date": "2020-03-22", "new": 84, "total": 84, "city": "", "province": "Wallonia", "country": "Belgium"}}, {"type": "Feature", "geometry": {"type": "Point", "coordinates": [5.009932, 50.316559999999996]}, "properties": {"date": "2020-03-22", "new": 15, "total": 15, "city": "", "province": "Wallonia", "country": "Belgium"}}, {"type": "Feature", "geometry": {"type": "Point", "coordinates": [4.6585730000000005, 50.647090000000006]}, "properties": {"date": "2020-03-22", "new": 5, "total": 5, "city": "", "province": "", "country": "Belgium"}}, {"type": "Feature", "geometry": {"type": "Point", "coordinates": [4.544331, 45.52689]}, "properties": {"date": "2020-03-22", "new": 165, "total": 165, "city": "", "province": "Auvergne-Rhone-Alpes", "country": "France"}}, {"type": "Feature", "geometry": {"type": "Point", "coordinates": [4.805711, 47.24071]}, "properties": {"date": "2020-03-22", "new": 275, "total": 275, "city": "", "province": "Bourgogne-Franche-Comte", "country": "France"}}, {"type": "Feature", "geometry": {"type": "Point", "coordinates": [1.6839119999999999, 47.49442]}, "properties": {"date": "2020-03-22", "new": 37, "total": 37, "city": "", "province": "Centre-Val De Loire", "country": "France"}}, {"type": "Feature", "geometry": {"type": "Point", "coordinates": [5.610144999999999, 48.6973]}, "properties": {"date": "2020-03-22", "new": 306, "total": 306, "city": "", "province": "Grand Est", "country": "France"}}, {"type": "Feature", "geometry": {"type": "Point", "coordinates": [2.768493, 49.97759]}, "properties": {"date": "2020-03-22", "new": 145, "total": 145, "city": "", "province": "Hauts-De-France", "country": "France"}}, {"type": "Feature", "geometry": {"type": "Point", "coordinates": [2.502813, 48.71114]}, "properties": {"date": "2020-03-22", "new": 52, "total": 52, "city": "", "province": "Ile-De-France", "country": "France"}}, {"type": "Feature", "geometry": {"type": "Point", "coordinates": [2.502813, 48.71114]}, "properties": {"date": "2020-03-22", "new": 536, "total": 536, "city": "", "province": "Ile-De-France", "country": "France"}}, {"type": "Feature", "geometry": {"type": "Point", "coordinates": [0.21928699999999998, 45.23337]}, "properties": {"date": "2020-03-22", "new": 91, "total": 91, "city": "", "province": "Nouvelle-Aquitaine", "country": "France"}}, {"type": "Feature", "geometry": {"type": "Point", "coordinates": [2.145857, 43.71275]}, "properties": {"date": "2020-03-22", "new": 60, "total": 60, "city": "", "province": "Occitanie", "country": "France"}}, {"type": "Feature", "geometry": {"type": "Point", "coordinates": [-0.81128, 47.48646]}, "properties": {"date": "2020-03-22", "new": 36, "total": 36, "city": "", "province": "Pays De La Loire", "country": "France"}}, {"type": "Feature", "geometry": {"type": "Point", "coordinates": [11.41584, 48.968]}, "properties": {"date": "2020-03-22", "new": 277, "total": 277, "city": "", "province": "Bavaria", "country": "Germany"}}, {"type": "Feature", "geometry": {"type": "Point", "coordinates": [11.41584, 48.968]}, "properties": {"date": "2020-03-22", "new": 413, "total": 413, "city": "", "province": "Bavaria", "country": "Germany"}}, {"type": "Feature", "geometry": {"type": "Point", "coordinates": [13.40179, 52.5017]}, "properties": {"date": "2020-03-22", "new": 158, "total": 158, "city": "", "province": "Berlin", "country": "Germany"}}, {"type": "Feature", "geometry": {"type": "Point", "coordinates": [13.3945, 52.48271]}, "properties": {"date": "2020-03-22", "new": 20, "total": 20, "city": "", "province": "Brandenburg", "country": "Germany"}}, {"type": "Feature", "geometry": {"type": "Point", "coordinates": [8.74424, 53.19888]}, "properties": {"date": "2020-03-22", "new": 23, "total": 23, "city": "", "province": "Bremen", "country": "Germany"}}, {"type": "Feature", "geometry": {"type": "Point", "coordinates": [10.020719999999999, 53.54661]}, "properties": {"date": "2020-03-22", "new": 285, "total": 285, "city": "", "province": "Hamburg", "country": "Germany"}}, {"type": "Feature", "geometry": {"type": "Point", "coordinates": [12.555480000000001, 53.75765]}, "properties": {"date": "2020-03-22", "new": 7, "total": 7, "city": "", "province": "Mecklenburg-Vorpommern", "country": "Germany"}}, {"type": "Feature", "geometry": {"type": "Point", "coordinates": [7.566159, 51.48744]}, "properties": {"date": "2020-03-22", "new": 3, "total": 3, "city": "", "province": "North Rhine-Westphalia", "country": "Germany"}}, {"type": "Feature", "geometry": {"type": "Point", "coordinates": [7.4476770000000005, 49.91972]}, "properties": {"date": "2020-03-22", "new": 91, "total": 91, "city": "", "province": "Rhineland-Palatinate", "country": "Germany"}}, {"type": "Feature", "geometry": {"type": "Point", "coordinates": [7.4476770000000005, 49.91972]}, "properties": {"date": "2020-03-22", "new": 24, "total": 24, "city": "", "province": "Rhineland-Palatinate", "country": "Germany"}}, {"type": "Feature", "geometry": {"type": "Point", "coordinates": [9.807215, 54.18756]}, "properties": {"date": "2020-03-22", "new": 39, "total": 39, "city": "", "province": "Schleswig-Holstein", "country": "Germany"}}, {"type": "Feature", "geometry": {"type": "Point", "coordinates": [19.3788, 52.19262]}, "properties": {"date": "2020-03-22", "new": 1, "total": 1, "city": "", "province": "", "country": "Poland"}}, {"type": "Feature", "geometry": {"type": "Point", "coordinates": [-7.4381, 41.3609]}, "properties": {"date": "2020-03-22", "new": 181, "total": 181, "city": "", "province": "Norte", "country": "Portugal"}}, {"type": "Feature", "geometry": {"type": "Point", "coordinates": [-9.1393, 38.7223]}, "properties": {"date": "2020-03-22", "new": 86, "total": 86, "city": "", "province": "Lisbon", "country": "Portugal"}}, {"type": "Feature", "geometry": {"type": "Point", "coordinates": [-8.1339, 40.6721]}, "properties": {"date": "2020-03-22", "new": 43, "total": 43, "city": "", "province": "Centro", "country": "Portugal"}}, {"type": "Feature", "geometry": {"type": "Point", "coordinates": [-7.8001, 38.2004]}, "properties": {"date": "2020-03-22", "new": 2, "total": 2, "city": "", "province": "Alentejo", "country": "Portugal"}}, {"type": "Feature", "geometry": {"type": "Point", "coordinates": [-7.9308, 37.018]}, "properties": {"date": "2020-03-22", "new": 4, "total": 4, "city": "", "province": "Algarve", "country": "Portugal"}}, {"type": "Feature", "geometry": {"type": "Point", "coordinates": [-16.9595, 32.7607]}, "properties": {"date": "2020-03-22", "new": 2, "total": 2, "city": "", "province": "Madeira", "country": "Portugal"}}, {"type": "Feature", "geometry": {"type": "Point", "coordinates": [-25.506134, 37.794594000000004]}, "properties": {"date": "2020-03-22", "new": 1, "total": 1, "city": "", "province": "Azores", "country": "Portugal"}}, {"type": "Feature", "geometry": {"type": "Point", "coordinates": [-8.49677, 39.64485]}, "properties": {"date": "2020-03-22", "new": 1, "total": 1, "city": "", "province": "", "country": "Portugal"}}, {"type": "Feature", "geometry": {"type": "Point", "coordinates": [-4.5729516, 37.469545600000004]}, "properties": {"date": "2020-03-22", "new": 210, "total": 210, "city": "", "province": "Andalusia", "country": "Spain"}}, {"type": "Feature", "geometry": {"type": "Point", "coordinates": [-0.6577978, 41.531831200000006]}, "properties": {"date": "2020-03-22", "new": 108, "total": 108, "city": "", "province": "Aragon", "country": "Spain"}}, {"type": "Feature", "geometry": {"type": "Point", "coordinates": [-15.664589999999999, 28.3447827]}, "properties": {"date": "2020-03-22", "new": 66, "total": 66, "city": "", "province": "Canary Islands", "country": "Spain"}}, {"type": "Feature", "geometry": {"type": "Point", "coordinates": [-4.0311648, 43.1976135]}, "properties": {"date": "2020-03-22", "new": 67, "total": 67, "city": "", "province": "Cantabria", "country": "Spain"}}, {"type": "Feature", "geometry": {"type": "Point", "coordinates": [1.530937, 41.803774100000005]}, "properties": {"date": "2020-03-22", "new": 165, "total": 165, "city": "", "province": "Catalonia", "country": "Spain"}}, {"type": "Feature", "geometry": {"type": "Point", "coordinates": [1.530937, 41.803774100000005]}, "properties": {"date": "2020-03-22", "new": 336, "total": 336, "city": "", "province": "Catalonia", "country": "Spain"}}, {"type": "Feature", "geometry": {"type": "Point", "coordinates": [-0.5529151, 39.412298299999996]}, "properties": {"date": "2020-03-22", "new": 241, "total": 241, "city": "", "province": "Valencian Community", "country": "Spain"}}, {"type": "Feature", "geometry": {"type": "Point", "coordinates": [-6.150383799999999, 39.19928]}, "properties": {"date": "2020-03-22", "new": 30, "total": 30, "city": "", "province": "Extremadura", "country": "Spain"}}, {"type": "Feature", "geometry": {"type": "Point", "coordinates": [-7.9114304, 42.7623342]}, "properties": {"date": "2020-03-22", "new": 176, "total": 176, "city": "", "province": "Galicia", "country": "Spain"}}, {"type": "Feature", "geometry": {"type": "Point", "coordinates": [-2.5175644, 42.275643200000005]}, "properties": {"date": "2020-03-22", "new": 90, "total": 90, "city": "", "province": "La Rioja", "country": "Spain"}}, {"type": "Feature", "geometry": {"type": "Point", "coordinates": [10.5, 59.333332999999996]}, "properties": {"date": "2020-03-22", "new": 32, "total": 32, "city": "", "province": "Viken", "country": "Norway"}}, {"type": "Feature", "geometry": {"type": "Point", "coordinates": [6.723611, 60.887778000000004]}, "properties": {"date": "2020-03-22", "new": 14, "total": 14, "city": "", "province": "Vestland", "country": "Norway"}}, {"type": "Feature", "geometry": {"type": "Point", "coordinates": [7.668458, 58.779592]}, "properties": {"date": "2020-03-22", "new": 9, "total": 9, "city": "", "province": "Agder", "country": "Norway"}}, {"type": "Feature", "geometry": {"type": "Point", "coordinates": [4.854292, 52.28908]}, "properties": {"date": "2020-03-22", "new": 1, "total": 4, "city": "Amstelveen", "province": "North Holland", "country": "Netherlands"}}, {"type": "Feature", "geometry": {"type": "Point", "coordinates": [4.892435, 52.37249]}, "properties": {"date": "2020-03-22", "new": 27, "total": 61, "city": "Amsterdam", "province": "North Holland", "country": "Netherlands"}}, {"type": "Feature", "geometry": {"type": "Point", "coordinates": [5.929241, 52.19052]}, "properties": {"date": "2020-03-22", "new": 1, "total": 4, "city": "Apeldoorn", "province": "Gelderland", "country": "Netherlands"}}, {"type": "Feature", "geometry": {"type": "Point", "coordinates": [5.9000449999999995, 52.00193]}, "properties": {"date": "2020-03-22", "new": 1, "total": 3, "city": "Arnhem", "province": "Gelderland", "country": "Netherlands"}}, {"type": "Feature", "geometry": {"type": "Point", "coordinates": [5.786942, 51.38794]}, "properties": {"date": "2020-03-22", "new": 0, "total": 3, "city": "Asten", "province": "North Brabant", "country": "Netherlands"}}, {"type": "Feature", "geometry": {"type": "Point", "coordinates": [4.527607, 51.85127]}, "properties": {"date": "2020-03-22", "new": 1, "total": 5, "city": "Barendrecht", "province": "South Holland", "country": "Netherlands"}}, {"type": "Feature", "geometry": {"type": "Point", "coordinates": [6.075601, 51.271609999999995]}, "properties": {"date": "2020-03-22", "new": 2, "total": 4, "city": "Beesel", "province": "Limburg", "country": "Netherlands"}}, {"type": "Feature", "geometry": {"type": "Point", "coordinates": [4.294055999999999, 51.5074]}, "properties": {"date": "2020-03-22", "new": 1, "total": 2, "city": "Bergen Op Zoom", "province": "North Brabant", "country": "Netherlands"}}, {"type": "Feature", "geometry": {"type": "Point", "coordinates": [5.5270980000000005, 51.6856]}, "properties": {"date": "2020-03-22", "new": 16, "total": 20, "city": "Bernheze", "province": "North Brabant", "country": "Netherlands"}}, {"type": "Feature", "geometry": {"type": "Point", "coordinates": [5.4026440000000004, 51.51486]}, "properties": {"date": "2020-03-22", "new": 3, "total": 6, "city": "Best", "province": "North Brabant", "country": "Netherlands"}}, {"type": "Feature", "geometry": {"type": "Point", "coordinates": [5.747301, 51.86363]}, "properties": {"date": "2020-03-22", "new": 2, "total": 3, "city": "Beuningen", "province": "Gelderland", "country": "Netherlands"}}, {"type": "Feature", "geometry": {"type": "Point", "coordinates": [5.244527, 51.37358]}, "properties": {"date": "2020-03-22", "new": 4, "total": 5, "city": "Bladel", "province": "North Brabant", "country": "Netherlands"}}, {"type": "Feature", "geometry": {"type": "Point", "coordinates": [5.2626550000000005, 52.279070000000004]}, "properties": {"date": "2020-03-22", "new": 0, "total": 1, "city": "Blaricum", "province": "North Holland", "country": "Netherlands"}}, {"type": "Feature", "geometry": {"type": "Point", "coordinates": [4.586449, 52.38458]}, "properties": {"date": "2020-03-22", "new": 0, "total": 5, "city": "Bloemendaal", "province": "North Holland", "country": "Netherlands"}}, {"type": "Feature", "geometry": {"type": "Point", "coordinates": [5.701105999999999, 51.6078]}, "properties": {"date": "2020-03-22", "new": 5, "total": 12, "city": "Boekel", "province": "North Brabant", "country": "Netherlands"}}, {"type": "Feature", "geometry": {"type": "Point", "coordinates": [6.75418, 52.31297]}, "properties": {"date": "2020-03-22", "new": 1, "total": 2, "city": "Borne", "province": "Overijssel", "country": "Netherlands"}}, {"type": "Feature", "geometry": {"type": "Point", "coordinates": [5.957294999999999, 51.62285]}, "properties": {"date": "2020-03-22", "new": 1, "total": 2, "city": "Boxmeer", "province": "North Brabant", "country": "Netherlands"}}, {"type": "Feature", "geometry": {"type": "Point", "coordinates": [5.332333, 51.5792]}, "properties": {"date": "2020-03-22", "new": 1, "total": 6, "city": "Boxtel", "province": "North Brabant", "country": "Netherlands"}}, {"type": "Feature", "geometry": {"type": "Point", "coordinates": [4.7648269999999995, 51.58559]}, "properties": {"date": "2020-03-22", "new": 7, "total": 19, "city": "Breda", "province": "North Brabant", "country": "Netherlands"}}, {"type": "Feature", "geometry": {"type": "Point", "coordinates": [5.221458, 52.04137]}, "properties": {"date": "2020-03-22", "new": 0, "total": 1, "city": "Bunnik", "province": "Utrecht", "country": "Netherlands"}}, {"type": "Feature", "geometry": {"type": "Point", "coordinates": [4.684088, 52.55615]}, "properties": {"date": "2020-03-22", "new": 1, "total": 2, "city": "Castricum", "province": "North Holland", "country": "Netherlands"}}, {"type": "Feature", "geometry": {"type": "Point", "coordinates": [6.746017999999999, 52.741119999999995]}, "properties": {"date": "2020-03-22", "new": 0, "total": 1, "city": "Coevorden", "province": "Drenthe", "country": "Netherlands"}}, {"type": "Feature", "geometry": {"type": "Point", "coordinates": [5.600739, 51.286429999999996]}, "properties": {"date": "2020-03-22", "new": 2, "total": 5, "city": "Cranendonck", "province": "North Brabant", "country": "Netherlands"}}, {"type": "Feature", "geometry": {"type": "Point", "coordinates": [5.215008, 51.94632]}, "properties": {"date": "2020-03-22", "new": 0, "total": 1, "city": "Culemborg", "province": "Gelderland", "country": "Netherlands"}}, {"type": "Feature", "geometry": {"type": "Point", "coordinates": [6.285126999999999, 52.515240000000006]}, "properties": {"date": "2020-03-22", "new": 3, "total": 4, "city": "Dalfsen", "province": "Overijssel", "country": "Netherlands"}}, {"type": "Feature", "geometry": {"type": "Point", "coordinates": [5.178725, 52.1419]}, "properties": {"date": "2020-03-22", "new": 1, "total": 2, "city": "De Bilt", "province": "Utrecht", "country": "Netherlands"}}, {"type": "Feature", "geometry": {"type": "Point", "coordinates": [6.38181, 52.701809999999995]}, "properties": {"date": "2020-03-22", "new": 0, "total": 1, "city": "De Wolden", "province": "Drenthe", "country": "Netherlands"}}, {"type": "Feature", "geometry": {"type": "Point", "coordinates": [4.367829, 51.99438]}, "properties": {"date": "2020-03-22", "new": 1, "total": 3, "city": "Delft", "province": "South Holland", "country": "Netherlands"}}, {"type": "Feature", "geometry": {"type": "Point", "coordinates": [4.754961, 52.92213]}, "properties": {"date": "2020-03-22", "new": 0, "total": 1, "city": "Den Helder", "province": "North Holland", "country": "Netherlands"}}, {"type": "Feature", "geometry": {"type": "Point", "coordinates": [5.8349400000000005, 51.43777]}, "properties": {"date": "2020-03-22", "new": 3, "total": 9, "city": "Deurne", "province": "North Brabant", "country": "Netherlands"}}, {"type": "Feature", "geometry": {"type": "Point", "coordinates": [6.223303, 52.273759999999996]}, "properties": {"date": "2020-03-22", "new": 0, "total": 9, "city": "Deventer", "province": "Overijssel", "country": "Netherlands"}}, {"type": "Feature", "geometry": {"type": "Point", "coordinates": [6.920286, 52.372440000000005]}, "properties": {"date": "2020-03-22", "new": 1, "total": 5, "city": "Dinkelland", "province": "Overijssel", "country": "Netherlands"}}, {"type": "Feature", "geometry": {"type": "Point", "coordinates": [6.332715, 51.95991]}, "properties": {"date": "2020-03-22", "new": 0, "total": 1, "city": "Doetinchem", "province": "Gelderland", "country": "Netherlands"}}, {"type": "Feature", "geometry": {"type": "Point", "coordinates": [4.713613, 51.784459999999996]}, "properties": {"date": "2020-03-22", "new": 1, "total": 2, "city": "Dordrecht", "province": "South Holland", "country": "Netherlands"}}, {"type": "Feature", "geometry": {"type": "Point", "coordinates": [5.151483, 52.679390000000005]}, "properties": {"date": "2020-03-22", "new": 0, "total": 2, "city": "Drechterland", "province": "North Holland", "country": "Netherlands"}}, {"type": "Feature", "geometry": {"type": "Point", "coordinates": [4.763907, 51.69951]}, "properties": {"date": "2020-03-22", "new": 0, "total": 1, "city": "Drimmelen", "province": "North Brabant", "country": "Netherlands"}}, {"type": "Feature", "geometry": {"type": "Point", "coordinates": [5.707658, 52.502140000000004]}, "properties": {"date": "2020-03-22", "new": 0, "total": 1, "city": "Dronten", "province": "Flevoland", "country": "Netherlands"}}, {"type": "Feature", "geometry": {"type": "Point", "coordinates": [5.915679, 51.08752]}, "properties": {"date": "2020-03-22", "new": 1, "total": 5, "city": "Echt-Susteren", "province": "Limburg", "country": "Netherlands"}}, {"type": "Feature", "geometry": {"type": "Point", "coordinates": [5.047484, 52.50362]}, "properties": {"date": "2020-03-22", "new": 1, "total": 2, "city": "Edam-Volendam", "province": "North Holland", "country": "Netherlands"}}, {"type": "Feature", "geometry": {"type": "Point", "coordinates": [5.734705, 52.077020000000005]}, "properties": {"date": "2020-03-22", "new": 3, "total": 7, "city": "Ede", "province": "Gelderland", "country": "Netherlands"}}, {"type": "Feature", "geometry": {"type": "Point", "coordinates": [5.3206690000000005, 51.39777]}, "properties": {"date": "2020-03-22", "new": 2, "total": 3, "city": "Eersel", "province": "North Brabant", "country": "Netherlands"}}, {"type": "Feature", "geometry": {"type": "Point", "coordinates": [5.464637000000001, 51.45139]}, "properties": {"date": "2020-03-22", "new": 11, "total": 18, "city": "Eindhoven", "province": "North Brabant", "country": "Netherlands"}}, {"type": "Feature", "geometry": {"type": "Point", "coordinates": [5.2770790000000005, 52.7163]}, "properties": {"date": "2020-03-22", "new": 1, "total": 2, "city": "Enkhuizen", "province": "North Holland", "country": "Netherlands"}}, {"type": "Feature", "geometry": {"type": "Point", "coordinates": [6.886621000000001, 52.22275]}, "properties": {"date": "2020-03-22", "new": 2, "total": 10, "city": "Enschede", "province": "Overijssel", "country": "Netherlands"}}, {"type": "Feature", "geometry": {"type": "Point", "coordinates": [5.962379, 52.32592]}, "properties": {"date": "2020-03-22", "new": 2, "total": 4, "city": "Epe", "province": "Gelderland", "country": "Netherlands"}}, {"type": "Feature", "geometry": {"type": "Point", "coordinates": [5.674308, 52.288109999999996]}, "properties": {"date": "2020-03-22", "new": 2, "total": 4, "city": "Ermelo", "province": "Gelderland", "country": "Netherlands"}}, {"type": "Feature", "geometry": {"type": "Point", "coordinates": [4.647988, 51.578829999999996]}, "properties": {"date": "2020-03-22", "new": 2, "total": 5, "city": "Etten-Leur", "province": "North Brabant", "country": "Netherlands"}}, {"type": "Feature", "geometry": {"type": "Point", "coordinates": [5.76198, 51.54214]}, "properties": {"date": "2020-03-22", "new": 8, "total": 14, "city": "Gemert-Bakel", "province": "North Brabant", "country": "Netherlands"}}, {"type": "Feature", "geometry": {"type": "Point", "coordinates": [5.9923779999999995, 51.6991]}, "properties": {"date": "2020-03-22", "new": 2, "total": 3, "city": "Gennep", "province": "Limburg", "country": "Netherlands"}}, {"type": "Feature", "geometry": {"type": "Point", "coordinates": [5.036533, 51.51208]}, "properties": {"date": "2020-03-22", "new": 1, "total": 2, "city": "Goirle", "province": "North Brabant", "country": "Netherlands"}}, {"type": "Feature", "geometry": {"type": "Point", "coordinates": [4.708678, 52.015370000000004]}, "properties": {"date": "2020-03-22", "new": 3, "total": 5, "city": "Gouda", "province": "South Holland", "country": "Netherlands"}}, {"type": "Feature", "geometry": {"type": "Point", "coordinates": [5.750535, 51.74442]}, "properties": {"date": "2020-03-22", "new": 4, "total": 6, "city": "Grave", "province": "North Brabant", "country": "Netherlands"}}, {"type": "Feature", "geometry": {"type": "Point", "coordinates": [6.572024000000001, 53.221759999999996]}, "properties": {"date": "2020-03-22", "new": 7, "total": 18, "city": "Groningen", "province": "Groningen", "country": "Netherlands"}}, {"type": "Feature", "geometry": {"type": "Point", "coordinates": [5.223475, 51.62707]}, "properties": {"date": "2020-03-22", "new": 2, "total": 3, "city": "Haaren", "province": "North Brabant", "country": "Netherlands"}}, {"type": "Feature", "geometry": {"type": "Point", "coordinates": [4.649588, 52.38322]}, "properties": {"date": "2020-03-22", "new": 2, "total": 10, "city": "Haarlem", "province": "North Holland", "country": "Netherlands"}}, {"type": "Feature", "geometry": {"type": "Point", "coordinates": [4.686049, 52.296890000000005]}, "properties": {"date": "2020-03-22", "new": 4, "total": 8, "city": "Haarlemmermeer", "province": "North Holland", "country": "Netherlands"}}, {"type": "Feature", "geometry": {"type": "Point", "coordinates": [4.525487, 51.59106]}, "properties": {"date": "2020-03-22", "new": 2, "total": 5, "city": "Halderberge", "province": "North Brabant", "country": "Netherlands"}}, {"type": "Feature", "geometry": {"type": "Point", "coordinates": [6.5786679999999995, 52.5871]}, "properties": {"date": "2020-03-22", "new": 0, "total": 2, "city": "Hardenberg", "province": "Overijssel", "country": "Netherlands"}}, {"type": "Feature", "geometry": {"type": "Point", "coordinates": [5.454179, 53.175]}, "properties": {"date": "2020-03-22", "new": 0, "total": 2, "city": "Harlingen", "province": "Friesland", "country": "Netherlands"}}, {"type": "Feature", "geometry": {"type": "Point", "coordinates": [6.060643, 52.47514]}, "properties": {"date": "2020-03-22", "new": 0, "total": 1, "city": "Hattem", "province": "Gelderland", "country": "Netherlands"}}, {"type": "Feature", "geometry": {"type": "Point", "coordinates": [4.617533, 52.34437]}, "properties": {"date": "2020-03-22", "new": 0, "total": 4, "city": "Heemstede", "province": "North Holland", "country": "Netherlands"}}, {"type": "Feature", "geometry": {"type": "Point", "coordinates": [6.058027, 52.4065]}, "properties": {"date": "2020-03-22", "new": 0, "total": 4, "city": "Heerde", "province": "Gelderland", "country": "Netherlands"}}, {"type": "Feature", "geometry": {"type": "Point", "coordinates": [6.0276819999999995, 52.97513000000001]}, "properties": {"date": "2020-03-22", "new": 0, "total": 1, "city": "Heerenveen", "province": "Friesland", "country": "Netherlands"}}, {"type": "Feature", "geometry": {"type": "Point", "coordinates": [4.8470059999999995, 52.67559]}, "properties": {"date": "2020-03-22", "new": 3, "total": 5, "city": "Heerhugowaard", "province": "North Holland", "country": "Netherlands"}}, {"type": "Feature", "geometry": {"type": "Point", "coordinates": [5.976617, 50.89836]}, "properties": {"date": "2020-03-22", "new": 5, "total": 6, "city": "Heerlen", "province": "Limburg", "country": "Netherlands"}}, {"type": "Feature", "geometry": {"type": "Point", "coordinates": [4.710519000000001, 52.59928000000001]}, "properties": {"date": "2020-03-22", "new": 2, "total": 3, "city": "Heiloo", "province": "North Holland", "country": "Netherlands"}}, {"type": "Feature", "geometry": {"type": "Point", "coordinates": [6.4602, 52.387240000000006]}, "properties": {"date": "2020-03-22", "new": 1, "total": 2, "city": "Hellendoorn", "province": "Overijssel", "country": "Netherlands"}}, {"type": "Feature", "geometry": {"type": "Point", "coordinates": [5.664255000000001, 51.47767]}, "properties": {"date": "2020-03-22", "new": 6, "total": 12, "city": "Helmond", "province": "North Brabant", "country": "Netherlands"}}, {"type": "Feature", "geometry": {"type": "Point", "coordinates": [5.165035, 51.69743]}, "properties": {"date": "2020-03-22", "new": 4, "total": 8, "city": "Heusden", "province": "North Brabant", "country": "Netherlands"}}, {"type": "Feature", "geometry": {"type": "Point", "coordinates": [5.148827, 51.47991]}, "properties": {"date": "2020-03-22", "new": 1, "total": 2, "city": "Hilvarenbeek", "province": "North Brabant", "country": "Netherlands"}}, {"type": "Feature", "geometry": {"type": "Point", "coordinates": [5.172623000000001, 52.223420000000004]}, "properties": {"date": "2020-03-22", "new": 0, "total": 2, "city": "Hilversum", "province": "North Holland", "country": "Netherlands"}}, {"type": "Feature", "geometry": {"type": "Point", "coordinates": [6.599916, 52.23737]}, "properties": {"date": "2020-03-22", "new": 1, "total": 2, "city": "Hof Van Twente", "province": "Overijssel", "country": "Netherlands"}}, {"type": "Feature", "geometry": {"type": "Point", "coordinates": [6.522577, 52.72325]}, "properties": {"date": "2020-03-22", "new": 0, "total": 1, "city": "Hoogeveen", "province": "Drenthe", "country": "Netherlands"}}, {"type": "Feature", "geometry": {"type": "Point", "coordinates": [5.073049, 52.65433]}, "properties": {"date": "2020-03-22", "new": 1, "total": 6, "city": "Hoorn", "province": "North Holland", "country": "Netherlands"}}, {"type": "Feature", "geometry": {"type": "Point", "coordinates": [6.0591800000000005, 51.45341]}, "properties": {"date": "2020-03-22", "new": 0, "total": 2, "city": "Horst Aan De Maas", "province": "Limburg", "country": "Netherlands"}}, {"type": "Feature", "geometry": {"type": "Point", "coordinates": [5.1862010000000005, 52.00457]}, "properties": {"date": "2020-03-22", "new": 4, "total": 6, "city": "Houten", "province": "Utrecht", "country": "Netherlands"}}, {"type": "Feature", "geometry": {"type": "Point", "coordinates": [5.939394999999999, 52.55546]}, "properties": {"date": "2020-03-22", "new": 2, "total": 9, "city": "Kampen", "province": "Overijssel", "country": "Netherlands"}}, {"type": "Feature", "geometry": {"type": "Point", "coordinates": [4.410069999999999, 52.1947]}, "properties": {"date": "2020-03-22", "new": 1, "total": 3, "city": "Katwijk", "province": "South Holland", "country": "Netherlands"}}, {"type": "Feature", "geometry": {"type": "Point", "coordinates": [6.055039, 50.87182]}, "properties": {"date": "2020-03-22", "new": 2, "total": 3, "city": "Kerkrade", "province": "Limburg", "country": "Netherlands"}}, {"type": "Feature", "geometry": {"type": "Point", "coordinates": [5.6185730000000005, 51.53221]}, "properties": {"date": "2020-03-22", "new": 3, "total": 5, "city": "Laarbeek", "province": "North Brabant", "country": "Netherlands"}}, {"type": "Feature", "geometry": {"type": "Point", "coordinates": [6.039125, 50.906290000000006]}, "properties": {"date": "2020-03-22", "new": 1, "total": 3, "city": "Landgraaf", "province": "Limburg", "country": "Netherlands"}}, {"type": "Feature", "geometry": {"type": "Point", "coordinates": [5.80895, 53.189840000000004]}, "properties": {"date": "2020-03-22", "new": 0, "total": 3, "city": "Leeuwarden", "province": "Friesland", "country": "Netherlands"}}, {"type": "Feature", "geometry": {"type": "Point", "coordinates": [4.486765, 52.1547]}, "properties": {"date": "2020-03-22", "new": 0, "total": 2, "city": "Leiden", "province": "South Holland", "country": "Netherlands"}}, {"type": "Feature", "geometry": {"type": "Point", "coordinates": [4.423724, 52.090140000000005]}, "properties": {"date": "2020-03-22", "new": 1, "total": 3, "city": "Leidschendam-Voorburg", "province": "South Holland", "country": "Netherlands"}}, {"type": "Feature", "geometry": {"type": "Point", "coordinates": [5.422243, 52.12281]}, "properties": {"date": "2020-03-22", "new": 0, "total": 2, "city": "Leusden", "province": "Utrecht", "country": "Netherlands"}}, {"type": "Feature", "geometry": {"type": "Point", "coordinates": [5.0520760000000005, 51.641459999999995]}, "properties": {"date": "2020-03-22", "new": 2, "total": 3, "city": "Loon Op Zand", "province": "North Brabant", "country": "Netherlands"}}, {"type": "Feature", "geometry": {"type": "Point", "coordinates": [4.949662, 51.98565]}, "properties": {"date": "2020-03-22", "new": 2, "total": 3, "city": "Lopik", "province": "Utrecht", "country": "Netherlands"}}, {"type": "Feature", "geometry": {"type": "Point", "coordinates": [7.008508, 52.3044]}, "properties": {"date": "2020-03-22", "new": 0, "total": 1, "city": "Losser", "province": "Overijssel", "country": "Netherlands"}}, {"type": "Feature", "geometry": {"type": "Point", "coordinates": [4.250736, 51.92392]}, "properties": {"date": "2020-03-22", "new": 2, "total": 3, "city": "Maassluis", "province": "South Holland", "country": "Netherlands"}}, {"type": "Feature", "geometry": {"type": "Point", "coordinates": [5.706455, 50.85335]}, "properties": {"date": "2020-03-22", "new": 2, "total": 3, "city": "Maastricht", "province": "Limburg", "country": "Netherlands"}}, {"type": "Feature", "geometry": {"type": "Point", "coordinates": [5.103957, 52.75557]}, "properties": {"date": "2020-03-22", "new": 1, "total": 2, "city": "Medemblik", "province": "North Holland", "country": "Netherlands"}}, {"type": "Feature", "geometry": {"type": "Point", "coordinates": [3.646428, 51.501999999999995]}, "properties": {"date": "2020-03-22", "new": 1, "total": 2, "city": "Middelburg", "province": "Zeeland", "country": "Netherlands"}}, {"type": "Feature", "geometry": {"type": "Point", "coordinates": [5.098776, 52.03112]}, "properties": {"date": "2020-03-22", "new": 0, "total": 1, "city": "Nieuwegein", "province": "Utrecht", "country": "Netherlands"}}, {"type": "Feature", "geometry": {"type": "Point", "coordinates": [4.807894999999999, 52.1486]}, "properties": {"date": "2020-03-22", "new": 1, "total": 2, "city": "Nieuwkoop", "province": "South Holland", "country": "Netherlands"}}, {"type": "Feature", "geometry": {"type": "Point", "coordinates": [5.4914309999999995, 52.2111]}, "properties": {"date": "2020-03-22", "new": 0, "total": 2, "city": "Nijkerk", "province": "Gelderland", "country": "Netherlands"}}, {"type": "Feature", "geometry": {"type": "Point", "coordinates": [5.844022, 51.83961]}, "properties": {"date": "2020-03-22", "new": 8, "total": 13, "city": "Nijmegen", "province": "Gelderland", "country": "Netherlands"}}, {"type": "Feature", "geometry": {"type": "Point", "coordinates": [5.773121, 52.712830000000004]}, "properties": {"date": "2020-03-22", "new": 0, "total": 1, "city": "Noordoostpolder", "province": "Flevoland", "country": "Netherlands"}}, {"type": "Feature", "geometry": {"type": "Point", "coordinates": [4.4725589999999995, 52.268840000000004]}, "properties": {"date": "2020-03-22", "new": 3, "total": 4, "city": "Noordwijk", "province": "South Holland", "country": "Netherlands"}}, {"type": "Feature", "geometry": {"type": "Point", "coordinates": [5.79314, 52.33935]}, "properties": {"date": "2020-03-22", "new": 4, "total": 9, "city": "Nunspeet", "province": "Gelderland", "country": "Netherlands"}}, {"type": "Feature", "geometry": {"type": "Point", "coordinates": [4.472553, 52.184740000000005]}, "properties": {"date": "2020-03-22", "new": 0, "total": 1, "city": "Oegstgeest", "province": "South Holland", "country": "Netherlands"}}, {"type": "Feature", "geometry": {"type": "Point", "coordinates": [5.202834999999999, 51.55311]},