[{"type": "Feature", "geometry": {"type": "Point", "coordinates": [120.4404, 27.905379999999997]}, "properties": {"date": "2020-03-17", "new": 0, "total": 19, "city": "Wenzhou City", "province": "Zhejiang", "country": "China"}}, {"type": "Feature", "geometry": {"type": "Point", "coordinates": [108.9258, 32.761829999999996]}, "properties": {"date": "2020-03-17", "new": 0, "total": 1, "city": "Ankang City", "province": "Shaanxi", "country": "China"}}, {"type": "Feature", "geometry": {"type": "Point", "coordinates": [43.5106, 42.185159999999996]}, "properties": {"date": "2020-03-17", "new": 1, "total": 9, "city": "", "province": "", "country": "Georgia"}}, {"type": "Feature", "geometry": {"type": "Point", "coordinates": [121.9821, 37.12174]}, "properties": {"date": "2020-03-17", "new": 0, "total": 2, "city": "Weihai City", "province": "Shandong", "country": "China"}}, {"type": "Feature", "geometry": {"type": "Point", "coordinates": [-63.146, 44.86639]}, "properties": {"date": "2020-03-17", "new": 0, "total": 4, "city": "Halifax", "province": "Nova Scotia", "country": "Canada"}}, {"type": "Feature", "geometry": {"type": "Point", "coordinates": [-63.3127, 45.16043]}, "properties": {"date": "2020-03-17", "new": 2, "total": 2, "city": "", "province": "Nova Scotia", "country": "Canada"}}, {"type": "Feature", "geometry": {"type": "Point", "coordinates": [-60.6761, 53.1936]}, "properties": {"date": "2020-03-17", "new": 2, "total": 3, "city": "", "province": "Newfoundland And Labrador", "country": "Canada"}}, {"type": "Feature", "geometry": {"type": "Point", "coordinates": [121.4792, 29.711470000000002]}, "properties": {"date": "2020-03-17", "new": 0, "total": 21, "city": "Ningbo City", "province": "Zhejiang", "country": "China"}}, {"type": "Feature", "geometry": {"type": "Point", "coordinates": [-113.49, 53.534440000000004]}, "properties": {"date": "2020-03-17", "new": 2, "total": 9, "city": "Edmonton", "province": "Alberta", "country": "Canada"}}, {"type": "Feature", "geometry": {"type": "Point", "coordinates": [-114.06700000000001, 51.05]}, "properties": {"date": "2020-03-17", "new": 18, "total": 49, "city": "Calgary", "province": "Alberta", "country": "Canada"}}, {"type": "Feature", "geometry": {"type": "Point", "coordinates": [118.2809, 35.31235]}, "properties": {"date": "2020-03-17", "new": 0, "total": 2, "city": "Linyi City", "province": "Shandong", "country": "China"}}, {"type": "Feature", "geometry": {"type": "Point", "coordinates": [-73.5617, 45.50889]}, "properties": {"date": "2020-03-17", "new": 4, "total": 14, "city": "Montreal", "province": "Quebec", "country": "Canada"}}, {"type": "Feature", "geometry": {"type": "Point", "coordinates": [-73.1, 45.38333]}, "properties": {"date": "2020-03-17", "new": 3, "total": 9, "city": "Monteregie Region", "province": "Quebec", "country": "Canada"}}, {"type": "Feature", "geometry": {"type": "Point", "coordinates": [-71.8651, 54.164719999999996]}, "properties": {"date": "2020-03-17", "new": 3, "total": 7, "city": "", "province": "Quebec", "country": "Canada"}}, {"type": "Feature", "geometry": {"type": "Point", "coordinates": [-73.0, 47.0]}, "properties": {"date": "2020-03-17", "new": 0, "total": 2, "city": "Mauricie", "province": "Quebec", "country": "Canada"}}, {"type": "Feature", "geometry": {"type": "Point", "coordinates": [121.1116, 28.775]}, "properties": {"date": "2020-03-17", "new": 0, "total": 24, "city": "Taizhou City", "province": "Zhejiang", "country": "China"}}, {"type": "Feature", "geometry": {"type": "Point", "coordinates": [120.1436, 36.454840000000004]}, "properties": {"date": "2020-03-17", "new": 0, "total": 3, "city": "Qingdao City", "province": "Shandong", "country": "China"}}, {"type": "Feature", "geometry": {"type": "Point", "coordinates": [119.9524, 29.117459999999998]}, "properties": {"date": "2020-03-17", "new": 0, "total": 7, "city": "Jinhua City", "province": "Zhejiang", "country": "China"}}, {"type": "Feature", "geometry": {"type": "Point", "coordinates": [-1.46183, 52.65185]}, "properties": {"date": "2020-03-17", "new": 0, "total": 4, "city": "", "province": "England", "country": "United Kingdom"}}, {"type": "Feature", "geometry": {"type": "Point", "coordinates": [126.991, 37.53337]}, "properties": {"date": "2020-03-17", "new": 0, "total": 15, "city": "", "province": "Seoul", "country": "South Korea"}}, {"type": "Feature", "geometry": {"type": "Point", "coordinates": [129.0816, 35.20261]}, "properties": {"date": "2020-03-17", "new": 0, "total": 19, "city": "", "province": "Busan", "country": "South Korea"}}, {"type": "Feature", "geometry": {"type": "Point", "coordinates": [128.58, 35.78134]}, "properties": {"date": "2020-03-17", "new": 0, "total": 579, "city": "", "province": "Daegu", "country": "South Korea"}}, {"type": "Feature", "geometry": {"type": "Point", "coordinates": [119.0713, 36.55315]}, "properties": {"date": "2020-03-17", "new": 0, "total": 1, "city": "Weifang City", "province": "Shandong", "country": "China"}}, {"type": "Feature", "geometry": {"type": "Point", "coordinates": [120.7547, 30.63995]}, "properties": {"date": "2020-03-17", "new": 0, "total": 2, "city": "Jiaxing City", "province": "Zhejiang", "country": "China"}}, {"type": "Feature", "geometry": {"type": "Point", "coordinates": [118.67399999999999, 28.9356]}, "properties": {"date": "2020-03-17", "new": 0, "total": 2, "city": "Quzhou City", "province": "Zhejiang", "country": "China"}}, {"type": "Feature", "geometry": {"type": "Point", "coordinates": [119.4715, 29.901659999999996]}, "properties": {"date": "2020-03-17", "new": 0, "total": 18, "city": "Hangzhou City", "province": "Zhejiang", "country": "China"}}, {"type": "Feature", "geometry": {"type": "Point", "coordinates": [119.1358, 35.58324]}, "properties": {"date": "2020-03-17", "new": 0, "total": 1, "city": "Rizhao City", "province": "Shandong", "country": "China"}}, {"type": "Feature", "geometry": {"type": "Point", "coordinates": [126.4911, 37.54383]}, "properties": {"date": "2020-03-17", "new": 0, "total": 1, "city": "", "province": "Incheon", "country": "South Korea"}}, {"type": "Feature", "geometry": {"type": "Point", "coordinates": [128.7493, 36.3174]}, "properties": {"date": "2020-03-17", "new": 0, "total": 72, "city": "", "province": "North Gyeongsang", "country": "South Korea"}}, {"type": "Feature", "geometry": {"type": "Point", "coordinates": [128.2776, 35.30105]}, "properties": {"date": "2020-03-17", "new": 0, "total": 13, "city": "", "province": "South Gyeongsang", "country": "South Korea"}}, {"type": "Feature", "geometry": {"type": "Point", "coordinates": [127.1853, 37.4929]}, "properties": {"date": "2020-03-17", "new": 0, "total": 13, "city": "", "province": "Gyeonggi", "country": "South Korea"}}, {"type": "Feature", "geometry": {"type": "Point", "coordinates": [127.3786, 36.31876]}, "properties": {"date": "2020-03-17", "new": 0, "total": 5, "city": "", "province": "Daejeon", "country": "South Korea"}}, {"type": "Feature", "geometry": {"type": "Point", "coordinates": [129.2415, 35.53651]}, "properties": {"date": "2020-03-17", "new": 0, "total": 3, "city": "", "province": "Ulsan", "country": "South Korea"}}, {"type": "Feature", "geometry": {"type": "Point", "coordinates": [111.5202, 29.30245]}, "properties": {"date": "2020-03-17", "new": 0, "total": 4, "city": "Changde City", "province": "Hunan", "country": "China"}}, {"type": "Feature", "geometry": {"type": "Point", "coordinates": [113.1532, 28.227590000000003]}, "properties": {"date": "2020-03-17", "new": 0, "total": 11, "city": "Changsha City", "province": "Hunan", "country": "China"}}, {"type": "Feature", "geometry": {"type": "Point", "coordinates": [126.8305, 36.52683]}, "properties": {"date": "2020-03-17", "new": 0, "total": 5, "city": "", "province": "South Chungcheong", "country": "South Korea"}}, {"type": "Feature", "geometry": {"type": "Point", "coordinates": [144.3156, -36.8716]}, "properties": {"date": "2020-03-17", "new": 0, "total": 1, "city": "", "province": "Victoria", "country": "Australia"}}, {"type": "Feature", "geometry": {"type": "Point", "coordinates": [117.0851, 36.734140000000004]}, "properties": {"date": "2020-03-17", "new": 0, "total": 2, "city": "Jinan City", "province": "Shandong", "country": "China"}}, {"type": "Feature", "geometry": {"type": "Point", "coordinates": [112.5737, 26.796020000000002]}, "properties": {"date": "2020-03-17", "new": 0, "total": 3, "city": "Hengyang City", "province": "Hunan", "country": "China"}}, {"type": "Feature", "geometry": {"type": "Point", "coordinates": [110.0777, 27.55503]}, "properties": {"date": "2020-03-17", "new": 0, "total": 5, "city": "Huaihua City", "province": "Hunan", "country": "China"}}, {"type": "Feature", "geometry": {"type": "Point", "coordinates": [111.6133, 27.73964]}, "properties": {"date": "2020-03-17", "new": 0, "total": 3, "city": "Loudi City", "province": "Hunan", "country": "China"}}, {"type": "Feature", "geometry": {"type": "Point", "coordinates": [110.8759, 26.91525]}, "properties": {"date": "2020-03-17", "new": 0, "total": 10, "city": "Shaoyang City", "province": "Hunan", "country": "China"}}, {"type": "Feature", "geometry": {"type": "Point", "coordinates": [103.74320300000001, 1.3337502]}, "properties": {"date": "2020-03-17", "new": 0, "total": 3, "city": "Ng Teng Fong General Hospital", "province": "", "country": "Singapore"}}, {"type": "Feature", "geometry": {"type": "Point", "coordinates": [120.8051, 37.24217]}, "properties": {"date": "2020-03-17", "new": 0, "total": 2, "city": "Yantai City", "province": "Shandong", "country": "China"}}, {"type": "Feature", "geometry": {"type": "Point", "coordinates": [120.7506, 29.58788]}, "properties": {"date": "2020-03-17", "new": 0, "total": 3, "city": "Shengzhou City, Shaoxing City", "province": "Zhejiang", "country": "China"}}, {"type": "Feature", "geometry": {"type": "Point", "coordinates": [127.8187, 36.70252]}, "properties": {"date": "2020-03-17", "new": 0, "total": 2, "city": "", "province": "North Chungcheong", "country": "South Korea"}}, {"type": "Feature", "geometry": {"type": "Point", "coordinates": [112.6022, 27.73204]}, "properties": {"date": "2020-03-17", "new": 0, "total": 1, "city": "Xiangtan City", "province": "Hunan", "country": "China"}}, {"type": "Feature", "geometry": {"type": "Point", "coordinates": [109.7267, 28.6973]}, "properties": {"date": "2020-03-17", "new": 0, "total": 1, "city": "Xiangxi Prefecture", "province": "Hunan", "country": "China"}}, {"type": "Feature", "geometry": {"type": "Point", "coordinates": [111.9523, 28.576829999999998]}, "properties": {"date": "2020-03-17", "new": 0, "total": 3, "city": "Yiyang City", "province": "Hunan", "country": "China"}}, {"type": "Feature", "geometry": {"type": "Point", "coordinates": [111.7296, 25.779320000000002]}, "properties": {"date": "2020-03-17", "new": 0, "total": 3, "city": "Yongzhou City", "province": "Hunan", "country": "China"}}, {"type": "Feature", "geometry": {"type": "Point", "coordinates": [113.25399999999999, 29.0682]}, "properties": {"date": "2020-03-17", "new": 0, "total": 2, "city": "Yueyang City", "province": "Hunan", "country": "China"}}, {"type": "Feature", "geometry": {"type": "Point", "coordinates": [116.7332, 35.37464]}, "properties": {"date": "2020-03-17", "new": 0, "total": 1, "city": "Jining City", "province": "Shandong", "country": "China"}}, {"type": "Feature", "geometry": {"type": "Point", "coordinates": [118.8424, 31.92997]}, "properties": {"date": "2020-03-17", "new": 0, "total": 5, "city": "Nanjing City", "province": "Jiangsu", "country": "China"}}, {"type": "Feature", "geometry": {"type": "Point", "coordinates": [121.0053, 32.1975]}, "properties": {"date": "2020-03-17", "new": 0, "total": 3, "city": "Nantong City", "province": "Jiangsu", "country": "China"}}, {"type": "Feature", "geometry": {"type": "Point", "coordinates": [120.6418, 31.378020000000003]}, "properties": {"date": "2020-03-17", "new": 0, "total": 4, "city": "Suzhou City", "province": "Jiangsu", "country": "China"}}, {"type": "Feature", "geometry": {"type": "Point", "coordinates": [103.8345, 1.280224]}, "properties": {"date": "2020-03-17", "new": 0, "total": 1, "city": "Singapore General Hospital", "province": "", "country": "Singapore"}}, {"type": "Feature", "geometry": {"type": "Point", "coordinates": [-7.4381, 41.3609]}, "properties": {"date": "2020-03-17", "new": 58, "total": 192, "city": "", "province": "Norte", "country": "Portugal"}}, {"type": "Feature", "geometry": {"type": "Point", "coordinates": [120.0575, 32.57248]}, "properties": {"date": "2020-03-17", "new": 0, "total": 1, "city": "Taizhou City", "province": "Jiangsu", "country": "China"}}, {"type": "Feature", "geometry": {"type": "Point", "coordinates": [105.784921, 19.806749]}, "properties": {"date": "2020-03-17", "new": 0, "total": 1, "city": "Thanh Hoa", "province": "Thanh Hoa", "country": "Vietnam"}}, {"type": "Feature", "geometry": {"type": "Point", "coordinates": [120.0767, 31.52812]}, "properties": {"date": "2020-03-17", "new": 0, "total": 1, "city": "Wuxi City", "province": "Jiangsu", "country": "China"}}, {"type": "Feature", "geometry": {"type": "Point", "coordinates": [-9.1393, 38.7223]}, "properties": {"date": "2020-03-17", "new": 38, "total": 179, "city": "", "province": "Lisbon", "country": "Portugal"}}, {"type": "Feature", "geometry": {"type": "Point", "coordinates": [117.5145, 34.3568]}, "properties": {"date": "2020-03-17", "new": 0, "total": 7, "city": "Xuzhou City", "province": "Jiangsu", "country": "China"}}, {"type": "Feature", "geometry": {"type": "Point", "coordinates": [-8.1339, 40.6721]}, "properties": {"date": "2020-03-17", "new": 20, "total": 50, "city": "", "province": "Centro", "country": "Portugal"}}, {"type": "Feature", "geometry": {"type": "Point", "coordinates": [117.22484399999999, 31.828313]}, "properties": {"date": "2020-03-17", "new": 0, "total": 1, "city": "High-Tech Zone, Hefei City", "province": "Anhui", "country": "China"}}, {"type": "Feature", "geometry": {"type": "Point", "coordinates": [112.3157, 37.96001]}, "properties": {"date": "2020-03-17", "new": 0, "total": 1, "city": "Taiyuan City", "province": "Shanxi", "country": "China"}}, {"type": "Feature", "geometry": {"type": "Point", "coordinates": [103.8472, 1.322098]}, "properties": {"date": "2020-03-17", "new": 0, "total": 4, "city": "National Centre For Infectious Diseases", "province": "", "country": "Singapore"}}, {"type": "Feature", "geometry": {"type": "Point", "coordinates": [-7.9308, 37.018]}, "properties": {"date": "2020-03-17", "new": 1, "total": 14, "city": "", "province": "Algarve", "country": "Portugal"}}, {"type": "Feature", "geometry": {"type": "Point", "coordinates": [120.9559, 23.75947]}, "properties": {"date": "2020-03-17", "new": 0, "total": 1, "city": "", "province": "Taiwan", "country": ""}}, {"type": "Feature", "geometry": {"type": "Point", "coordinates": [136.3764, 34.51017]}, "properties": {"date": "2020-03-17", "new": 0, "total": 1, "city": "", "province": "Mie", "country": "Japan"}}, {"type": "Feature", "geometry": {"type": "Point", "coordinates": [135.4426, 35.255]}, "properties": {"date": "2020-03-17", "new": 0, "total": 1, "city": "", "province": "Kyoto Prefecture", "country": "Japan"}}, {"type": "Feature", "geometry": {"type": "Point", "coordinates": [139.4468, 35.71145]}, "properties": {"date": "2020-03-17", "new": 0, "total": 1, "city": "", "province": "Tokyo", "country": "Japan"}}, {"type": "Feature", "geometry": {"type": "Point", "coordinates": [116.4151, 40.18535]}, "properties": {"date": "2020-03-17", "new": 0, "total": 12, "city": "", "province": "Beijing", "country": "China"}}, {"type": "Feature", "geometry": {"type": "Point", "coordinates": [103.8256, 30.70291]}, "properties": {"date": "2020-03-17", "new": 0, "total": 4, "city": "Chengdu City", "province": "Sichuan", "country": "China"}}, {"type": "Feature", "geometry": {"type": "Point", "coordinates": [-8.49677, 39.64485]}, "properties": {"date": "2020-03-17", "new": 0, "total": 5, "city": "", "province": "", "country": "Portugal"}}, {"type": "Feature", "geometry": {"type": "Point", "coordinates": [-25.506134, 37.794594000000004]}, "properties": {"date": "2020-03-17", "new": 0, "total": 1, "city": "", "province": "Azores", "country": "Portugal"}}, {"type": "Feature", "geometry": {"type": "Point", "coordinates": [126.9667, 37.56667]}, "properties": {"date": "2020-03-17", "new": 0, "total": 2, "city": "Seoul", "province": "Seoul", "country": "South Korea"}}, {"type": "Feature", "geometry": {"type": "Point", "coordinates": [87.78531, 43.73043]}, "properties": {"date": "2020-03-17", "new": 0, "total": 1, "city": "Urumqi City", "province": "Xinjiang", "country": "China"}}, {"type": "Feature", "geometry": {"type": "Point", "coordinates": [106.5376, 29.55234]}, "properties": {"date": "2020-03-17", "new": 0, "total": 3, "city": "Yuzhong District", "province": "Chongqing", "country": "China"}}, {"type": "Feature", "geometry": {"type": "Point", "coordinates": [106.70700000000001, 29.62085]}, "properties": {"date": "2020-03-17", "new": 0, "total": 2, "city": "Jiangbei District", "province": "Chongqing", "country": "China"}}, {"type": "Feature", "geometry": {"type": "Point", "coordinates": [106.7437, 29.81392]}, "properties": {"date": "2020-03-17", "new": 0, "total": 1, "city": "Yubei District", "province": "Chongqing", "country": "China"}}, {"type": "Feature", "geometry": {"type": "Point", "coordinates": [105.7388, 29.65237]}, "properties": {"date": "2020-03-17", "new": 0, "total": 2, "city": "Dazu District", "province": "Chongqing", "country": "China"}}, {"type": "Feature", "geometry": {"type": "Point", "coordinates": [108.3787, 31.27337]}, "properties": {"date": "2020-03-17", "new": 0, "total": 1, "city": "Kaizhou District", "province": "Chongqing", "country": "China"}}, {"type": "Feature", "geometry": {"type": "Point", "coordinates": [107.7139, 30.661240000000003]}, "properties": {"date": "2020-03-17", "new": 0, "total": 1, "city": "Liangping District", "province": "Chongqing", "country": "China"}}, {"type": "Feature", "geometry": {"type": "Point", "coordinates": [107.4326, 30.259759999999996]}, "properties": {"date": "2020-03-17", "new": 0, "total": 3, "city": "Dianjiang County", "province": "Chongqing", "country": "China"}}, {"type": "Feature", "geometry": {"type": "Point", "coordinates": [107.9107, 30.338520000000003]}, "properties": {"date": "2020-03-17", "new": 0, "total": 1, "city": "Zhongxian County", "province": "Chongqing", "country": "China"}}, {"type": "Feature", "geometry": {"type": "Point", "coordinates": [108.8523, 31.03847]}, "properties": {"date": "2020-03-17", "new": 0, "total": 1, "city": "Yunyang County", "province": "Chongqing", "country": "China"}}, {"type": "Feature", "geometry": {"type": "Point", "coordinates": [109.3486, 31.5058]}, "properties": {"date": "2020-03-17", "new": 0, "total": 2, "city": "Wuxi County", "province": "Chongqing", "country": "China"}}, {"type": "Feature", "geometry": {"type": "Point", "coordinates": [103.74320300000001, 1.3337502]}, "properties": {"date": "2020-03-17", "new": 0, "total": 2, "city": "Ng Teng Fong General Hospital", "province": "", "country": "Singapore"}}, {"type": "Feature", "geometry": {"type": "Point", "coordinates": [101.4437, 36.82615]}, "properties": {"date": "2020-03-17", "new": 0, "total": 2, "city": "Xining City", "province": "Qinghai", "country": "China"}}, {"type": "Feature", "geometry": {"type": "Point", "coordinates": [109.8538, 40.21311]}, "properties": {"date": "2020-03-17", "new": 0, "total": 1, "city": "Dalad Banner, Ordos City", "province": "Inner Mongolia", "country": "China"}}, {"type": "Feature", "geometry": {"type": "Point", "coordinates": [108.0604, 41.03795]}, "properties": {"date": "2020-03-17", "new": 0, "total": 1, "city": "Wuyuan County, Bayannur City", "province": "Inner Mongolia", "country": "China"}}, {"type": "Feature", "geometry": {"type": "Point", "coordinates": [106.1281, 34.73969]}, "properties": {"date": "2020-03-17", "new": 0, "total": 1, "city": "Qingshui County, Tianshui City", "province": "Gansu", "country": "China"}}, {"type": "Feature", "geometry": {"type": "Point", "coordinates": [105.1839, 35.208220000000004]}, "properties": {"date": "2020-03-17", "new": 0, "total": 1, "city": "Tongwei County, Dingxi City", "province": "Gansu", "country": "China"}}, {"type": "Feature", "geometry": {"type": "Point", "coordinates": [110.3056, 19.48603]}, "properties": {"date": "2020-03-17", "new": 0, "total": 1, "city": "Ding'An County", "province": "Hainan", "country": "China"}}, {"type": "Feature", "geometry": {"type": "Point", "coordinates": [110.4018, 19.20959]}, "properties": {"date": "2020-03-17", "new": 0, "total": 1, "city": "Qionghai City", "province": "Hainan", "country": "China"}}, {"type": "Feature", "geometry": {"type": "Point", "coordinates": [109.9475, 18.56796]}, "properties": {"date": "2020-03-17", "new": 0, "total": 1, "city": "Lingshui County", "province": "Hainan", "country": "China"}}, {"type": "Feature", "geometry": {"type": "Point", "coordinates": [107.0848, 28.171429999999997]}, "properties": {"date": "2020-03-17", "new": 0, "total": 1, "city": "Zunyi City", "province": "Guizhou", "country": "China"}}, {"type": "Feature", "geometry": {"type": "Point", "coordinates": [107.6465, 31.370140000000003]}, "properties": {"date": "2020-03-17", "new": 0, "total": 1, "city": "Dazhou City", "province": "Sichuan", "country": "China"}}, {"type": "Feature", "geometry": {"type": "Point", "coordinates": [107.9382, 26.6305]}, "properties": {"date": "2020-03-17", "new": 0, "total": 1, "city": "Kaili City, Qiandongnan Prefecture", "province": "Guizhou", "country": "China"}}, {"type": "Feature", "geometry": {"type": "Point", "coordinates": [105.2156, 27.06873]}, "properties": {"date": "2020-03-17", "new": 0, "total": 1, "city": "Bijie City", "province": "Guizhou", "country": "China"}}, {"type": "Feature", "geometry": {"type": "Point", "coordinates": [114.1324, 22.38074]}, "properties": {"date": "2020-03-17", "new": 0, "total": 2, "city": "Hong Kong", "province": "Hong Kong", "country": "China"}}, {"type": "Feature", "geometry": {"type": "Point", "coordinates": [117.3428, 31.79444]}, "properties": {"date": "2020-03-17", "new": 0, "total": 11, "city": "Hefei City", "province": "Anhui", "country": "China"}}, {"type": "Feature", "geometry": {"type": "Point", "coordinates": [115.7036, 32.9188]}, "properties": {"date": "2020-03-17", "new": 0, "total": 10, "city": "Fuyang City", "province": "Anhui", "country": "China"}}, {"type": "Feature", "geometry": {"type": "Point", "coordinates": [104.7008, 31.8534]}, "properties": {"date": "2020-03-17", "new": 0, "total": 2, "city": "Mianyang City", "province": "Sichuan", "country": "China"}}, {"type": "Feature", "geometry": {"type": "Point", "coordinates": [117.32600000000001, 33.10901]}, "properties": {"date": "2020-03-17", "new": 0, "total": 7, "city": "Bengbu City", "province": "Anhui", "country": "China"}}, {"type": "Feature", "geometry": {"type": "Point", "coordinates": [116.3151, 31.75941]}, "properties": {"date": "2020-03-17", "new": 0, "total": 1, "city": "Lu'An City", "province": "Anhui", "country": "China"}}, {"type": "Feature", "geometry": {"type": "Point", "coordinates": [117.3658, 30.28525]}, "properties": {"date": "2020-03-17", "new": 0, "total": 2, "city": "Chizhou City", "province": "Anhui", "country": "China"}}, {"type": "Feature", "geometry": {"type": "Point", "coordinates": [118.0713, 29.90755]}, "properties": {"date": "2020-03-17", "new": 0, "total": 1, "city": "Huangshan City", "province": "Anhui", "country": "China"}}, {"type": "Feature", "geometry": {"type": "Point", "coordinates": [118.0713, 29.90755]}, "properties": {"date": "2020-03-17", "new": 0, "total": 1, "city": "Huangshan City", "province": "Anhui", "country": "China"}}, {"type": "Feature", "geometry": {"type": "Point", "coordinates": [4.240024, 51.038740000000004]}, "properties": {"date": "2020-03-17", "new": 106, "total": 284, "city": "", "province": "Flanders", "country": "Belgium"}}, {"type": "Feature", "geometry": {"type": "Point", "coordinates": [117.8965, 30.944670000000002]}, "properties": {"date": "2020-03-17", "new": 0, "total": 4, "city": "Tongling City", "province": "Anhui", "country": "China"}}, {"type": "Feature", "geometry": {"type": "Point", "coordinates": [4.367412, 50.836459999999995]}, "properties": {"date": "2020-03-17", "new": 33, "total": 50, "city": "", "province": "Brussels", "country": "Belgium"}}, {"type": "Feature", "geometry": {"type": "Point", "coordinates": [119.4715, 29.901659999999996]}, "properties": {"date": "2020-03-17", "new": 0, "total": 16, "city": "Hangzhou City", "province": "Zhejiang", "country": "China"}}, {"type": "Feature", "geometry": {"type": "Point", "coordinates": [5.009932, 50.316559999999996]}, "properties": {"date": "2020-03-17", "new": 38, "total": 106, "city": "", "province": "Wallonia", "country": "Belgium"}}, {"type": "Feature", "geometry": {"type": "Point", "coordinates": [4.6585730000000005, 50.647090000000006]}, "properties": {"date": "2020-03-17", "new": 8, "total": 15, "city": "", "province": "", "country": "Belgium"}}, {"type": "Feature", "geometry": {"type": "Point", "coordinates": [121.1116, 28.775]}, "properties": {"date": "2020-03-17", "new": 0, "total": 17, "city": "Taizhou City", "province": "Zhejiang", "country": "China"}}, {"type": "Feature", "geometry": {"type": "Point", "coordinates": [121.4792, 29.711470000000002]}, "properties": {"date": "2020-03-17", "new": 0, "total": 5, "city": "Ningbo City", "province": "Zhejiang", "country": "China"}}, {"type": "Feature", "geometry": {"type": "Point", "coordinates": [119.8686, 30.74578]}, "properties": {"date": "2020-03-17", "new": 0, "total": 1, "city": "Huzhou City", "province": "Zhejiang", "country": "China"}}, {"type": "Feature", "geometry": {"type": "Point", "coordinates": [117.3333, 39.297129999999996]}, "properties": {"date": "2020-03-17", "new": 0, "total": 3, "city": "Tianjin City", "province": "Tianjin", "country": "China"}}, {"type": "Feature", "geometry": {"type": "Point", "coordinates": [122.1883, 30.09654]}, "properties": {"date": "2020-03-17", "new": 0, "total": 1, "city": "Zhoushan City", "province": "Zhejiang", "country": "China"}}, {"type": "Feature", "geometry": {"type": "Point", "coordinates": [119.5133, 28.20076]}, "properties": {"date": "2020-03-17", "new": 0, "total": 1, "city": "Lishui City", "province": "Zhejiang", "country": "China"}}, {"type": "Feature", "geometry": {"type": "Point", "coordinates": [120.7506, 29.58788]}, "properties": {"date": "2020-03-17", "new": 0, "total": 2, "city": "Shengzhou City, Shaoxing City", "province": "Zhejiang", "country": "China"}}, {"type": "Feature", "geometry": {"type": "Point", "coordinates": [120.63600000000001, 29.7353]}, "properties": {"date": "2020-03-17", "new": 0, "total": 4, "city": "Shaoxing City", "province": "Zhejiang", "country": "China"}}, {"type": "Feature", "geometry": {"type": "Point", "coordinates": [119.9524, 29.117459999999998]}, "properties": {"date": "2020-03-17", "new": 0, "total": 7, "city": "Jinhua City", "province": "Zhejiang", "country": "China"}}, {"type": "Feature", "geometry": {"type": "Point", "coordinates": [120.4404, 27.905379999999997]}, "properties": {"date": "2020-03-17", "new": 0, "total": 32, "city": "Wenzhou City", "province": "Zhejiang", "country": "China"}}, {"type": "Feature", "geometry": {"type": "Point", "coordinates": [87.78531, 43.73043]}, "properties": {"date": "2020-03-17", "new": 0, "total": 1, "city": "Urumqi City", "province": "Xinjiang", "country": "China"}}, {"type": "Feature", "geometry": {"type": "Point", "coordinates": [-2.95214, 54.37002]}, "properties": {"date": "2020-03-17", "new": 407, "total": 901, "city": "", "province": "", "country": "United Kingdom"}}, {"type": "Feature", "geometry": {"type": "Point", "coordinates": [114.1291, 22.65389]}, "properties": {"date": "2020-03-17", "new": 0, "total": 30, "city": "Shenzhen City", "province": "Guangdong", "country": "China"}}, {"type": "Feature", "geometry": {"type": "Point", "coordinates": [120.7547, 30.63995]}, "properties": {"date": "2020-03-17", "new": 0, "total": 3, "city": "Jiaxing City", "province": "Zhejiang", "country": "China"}}, {"type": "Feature", "geometry": {"type": "Point", "coordinates": [113.5364, 23.349829999999997]}, "properties": {"date": "2020-03-17", "new": 0, "total": 31, "city": "Guangzhou City", "province": "Guangdong", "country": "China"}}, {"type": "Feature", "geometry": {"type": "Point", "coordinates": [120.63600000000001, 29.7353]}, "properties": {"date": "2020-03-17", "new": 0, "total": 1, "city": "Shaoxing City", "province": "Zhejiang", "country": "China"}}, {"type": "Feature", "geometry": {"type": "Point", "coordinates": [-1.51989, 12.3714]}, "properties": {"date": "2020-03-17", "new": 0, "total": 2, "city": "Ouagadougou", "province": "", "country": "Burkina Faso"}}, {"type": "Feature", "geometry": {"type": "Point", "coordinates": [113.361, 22.16925]}, "properties": {"date": "2020-03-17", "new": 0, "total": 12, "city": "Zhuhai City", "province": "Guangdong", "country": "China"}}, {"type": "Feature", "geometry": {"type": "Point", "coordinates": [121.1116, 28.775]}, "properties": {"date": "2020-03-17", "new": 0, "total": 2, "city": "Taizhou City", "province": "Zhejiang", "country": "China"}}, {"type": "Feature", "geometry": {"type": "Point", "coordinates": [112.9444, 23.0131]}, "properties": {"date": "2020-03-17", "new": 0, "total": 6, "city": "Foshan City", "province": "Guangdong", "country": "China"}}, {"type": "Feature", "geometry": {"type": "Point", "coordinates": [113.8738, 22.93336]}, "properties": {"date": "2020-03-17", "new": 0, "total": 5, "city": "Dongguan City", "province": "Guangdong", "country": "China"}}, {"type": "Feature", "geometry": {"type": "Point", "coordinates": [15.30144, -4.38828]}, "properties": {"date": "2020-03-17", "new": 0, "total": 1, "city": "Kinshasa", "province": "", "country": "Democratic Republic Of The Congo"}}, {"type": "Feature", "geometry": {"type": "Point", "coordinates": [114.4983, 23.24435]}, "properties": {"date": "2020-03-17", "new": 0, "total": 3, "city": "Huizhou City", "province": "Guangdong", "country": "China"}}, {"type": "Feature", "geometry": {"type": "Point", "coordinates": [116.5856, 23.334329999999998]}, "properties": {"date": "2020-03-17", "new": 0, "total": 2, "city": "Shantou City", "province": "Guangdong", "country": "China"}}, {"type": "Feature", "geometry": {"type": "Point", "coordinates": [112.6714, 22.28417]}, "properties": {"date": "2020-03-17", "new": 0, "total": 1, "city": "Jiangmen City", "province": "Guangdong", "country": "China"}}, {"type": "Feature", "geometry": {"type": "Point", "coordinates": [121.1116, 28.775]}, "properties": {"date": "2020-03-17", "new": 0, "total": 4, "city": "Taizhou City", "province": "Zhejiang", "country": "China"}}, {"type": "Feature", "geometry": {"type": "Point", "coordinates": [118.3354, 39.72276]}, "properties": {"date": "2020-03-17", "new": 0, "total": 2, "city": "Tangshan City", "province": "Hebei", "country": "China"}}, {"type": "Feature", "geometry": {"type": "Point", "coordinates": [115.1701, 39.02267]}, "properties": {"date": "2020-03-17", "new": 0, "total": 4, "city": "Baoding City", "province": "Hebei", "country": "China"}}, {"type": "Feature", "geometry": {"type": "Point", "coordinates": [114.8155, 37.21327]}, "properties": {"date": "2020-03-17", "new": 0, "total": 2, "city": "Xingtai City", "province": "Hebei", "country": "China"}}, {"type": "Feature", "geometry": {"type": "Point", "coordinates": [114.5421, 36.55381]}, "properties": {"date": "2020-03-17", "new": 0, "total": 1, "city": "Handan City", "province": "Hebei", "country": "China"}}, {"type": "Feature", "geometry": {"type": "Point", "coordinates": [127.6804, 48.03987]}, "properties": {"date": "2020-03-17", "new": 0, "total": 22, "city": "", "province": "Heilongjiang", "country": "China"}}, {"type": "Feature", "geometry": {"type": "Point", "coordinates": [113.5364, 23.349829999999997]}, "properties": {"date": "2020-03-17", "new": 0, "total": 10, "city": "Guangzhou City", "province": "Guangdong", "country": "China"}}, {"type": "Feature", "geometry": {"type": "Point", "coordinates": [103.8472, 1.322098]}, "properties": {"date": "2020-03-17", "new": 0, "total": 5, "city": "National Centre For Infectious Diseases", "province": "", "country": "Singapore"}}, {"type": "Feature", "geometry": {"type": "Point", "coordinates": [114.1324, 22.38074]}, "properties": {"date": "2020-03-17", "new": 0, "total": 2, "city": "Hong Kong", "province": "Hong Kong", "country": "China"}}, {"type": "Feature", "geometry": {"type": "Point", "coordinates": [111.7063, 27.63327]}, "properties": {"date": "2020-03-17", "new": 0, "total": 3, "city": "", "province": "Hunan", "country": "China"}}, {"type": "Feature", "geometry": {"type": "Point", "coordinates": [113.1532, 28.227590000000003]}, "properties": {"date": "2020-03-17", "new": 0, "total": 18, "city": "Changsha City", "province": "Hunan", "country": "China"}}, {"type": "Feature", "geometry": {"type": "Point", "coordinates": [112.5737, 26.796020000000002]}, "properties": {"date": "2020-03-17", "new": 0, "total": 1, "city": "Hengyang City", "province": "Hunan", "country": "China"}}, {"type": "Feature", "geometry": {"type": "Point", "coordinates": [113.5158, 27.12398]}, "properties": {"date": "2020-03-17", "new": 0, "total": 3, "city": "Zhuzhou City", "province": "Hunan", "country": "China"}}, {"type": "Feature", "geometry": {"type": "Point", "coordinates": [112.6022, 27.73204]}, "properties": {"date": "2020-03-17", "new": 0, "total": 3, "city": "Xiangtan City", "province": "Hunan", "country": "China"}}, {"type": "Feature", "geometry": {"type": "Point", "coordinates": [110.8759, 26.91525]}, "properties": {"date": "2020-03-17", "new": 0, "total": 5, "city": "Shaoyang City", "province": "Hunan", "country": "China"}}, {"type": "Feature", "geometry": {"type": "Point", "coordinates": [113.25399999999999, 29.0682]}, "properties": {"date": "2020-03-17", "new": 0, "total": 8, "city": "Yueyang City", "province": "Hunan", "country": "China"}}, {"type": "Feature", "geometry": {"type": "Point", "coordinates": [111.5202, 29.30245]}, "properties": {"date": "2020-03-17", "new": 0, "total": 2, "city": "Changde City", "province": "Hunan", "country": "China"}}, {"type": "Feature", "geometry": {"type": "Point", "coordinates": [110.5265, 29.393279999999997]}, "properties": {"date": "2020-03-17", "new": 0, "total": 1, "city": "Zhangjiajie City", "province": "Hunan", "country": "China"}}, {"type": "Feature", "geometry": {"type": "Point", "coordinates": [111.9523, 28.576829999999998]}, "properties": {"date": "2020-03-17", "new": 0, "total": 4, "city": "Yiyang City", "province": "Hunan", "country": "China"}}, {"type": "Feature", "geometry": {"type": "Point", "coordinates": [103.74320300000001, 1.3337502]}, "properties": {"date": "2020-03-17", "new": 0, "total": 1, "city": "Ng Teng Fong General Hospital", "province": "", "country": "Singapore"}}, {"type": "Feature", "geometry": {"type": "Point", "coordinates": [113.1376, 25.81815]}, "properties": {"date": "2020-03-17", "new": 0, "total": 1, "city": "Chenzhou City", "province": "Hunan", "country": "China"}}, {"type": "Feature", "geometry": {"type": "Point", "coordinates": [111.7296, 25.779320000000002]}, "properties": {"date": "2020-03-17", "new": 0, "total": 2, "city": "Yongzhou City", "province": "Hunan", "country": "China"}}, {"type": "Feature", "geometry": {"type": "Point", "coordinates": [110.0777, 27.55503]}, "properties": {"date": "2020-03-17", "new": 0, "total": 2, "city": "Huaihua City", "province": "Hunan", "country": "China"}}, {"type": "Feature", "geometry": {"type": "Point", "coordinates": [111.6133, 27.73964]}, "properties": {"date": "2020-03-17", "new": 0, "total": 6, "city": "Loudi City", "province": "Hunan", "country": "China"}}, {"type": "Feature", "geometry": {"type": "Point", "coordinates": [109.7267, 28.6973]}, "properties": {"date": "2020-03-17", "new": 0, "total": 1, "city": "Xiangxi Prefecture", "province": "Hunan", "country": "China"}}, {"type": "Feature", "geometry": {"type": "Point", "coordinates": [108.6337, 39.42306]}, "properties": {"date": "2020-03-17", "new": 0, "total": 1, "city": "Ordos City", "province": "Inner Mongolia", "country": "China"}}, {"type": "Feature", "geometry": {"type": "Point", "coordinates": [107.56700000000001, 41.453509999999994]}, "properties": {"date": "2020-03-17", "new": 0, "total": 1, "city": "Bayannur City", "province": "Inner Mongolia", "country": "China"}}, {"type": "Feature", "geometry": {"type": "Point", "coordinates": [118.8424, 31.92997]}, "properties": {"date": "2020-03-17", "new": 0, "total": 3, "city": "Nanjing City", "province": "Jiangsu", "country": "China"}}, {"type": "Feature", "geometry": {"type": "Point", "coordinates": [120.0767, 31.52812]}, "properties": {"date": "2020-03-17", "new": 0, "total": 1, "city": "Wuxi City", "province": "Jiangsu", "country": "China"}}, {"type": "Feature", "geometry": {"type": "Point", "coordinates": [117.5145, 34.3568]}, "properties": {"date": "2020-03-17", "new": 0, "total": 3, "city": "Xuzhou City", "province": "Jiangsu", "country": "China"}}, {"type": "Feature", "geometry": {"type": "Point", "coordinates": [119.6369, 31.62592]}, "properties": {"date": "2020-03-17", "new": 0, "total": 1, "city": "Changzhou City", "province": "Jiangsu", "country": "China"}}, {"type": "Feature", "geometry": {"type": "Point", "coordinates": [120.6418, 31.378020000000003]}, "properties": {"date": "2020-03-17", "new": 0, "total": 2, "city": "Suzhou City", "province": "Jiangsu", "country": "China"}}, {"type": "Feature", "geometry": {"type": "Point", "coordinates": [121.0053, 32.1975]}, "properties": {"date": "2020-03-17", "new": 0, "total": 2, "city": "Nantong City", "province": "Jiangsu", "country": "China"}}, {"type": "Feature", "geometry": {"type": "Point", "coordinates": [119.1325, 34.534]}, "properties": {"date": "2020-03-17", "new": 0, "total": 4, "city": "Lianyungang City", "province": "Jiangsu", "country": "China"}}, {"type": "Feature", "geometry": {"type": "Point", "coordinates": [114.1291, 22.65389]}, "properties": {"date": "2020-03-17", "new": 0, "total": 15, "city": "Shenzhen City", "province": "Guangdong", "country": "China"}}, {"type": "Feature", "geometry": {"type": "Point", "coordinates": [118.9639, 33.357009999999995]}, "properties": {"date": "2020-03-17", "new": 0, "total": 2, "city": "Huai'An City", "province": "Jiangsu", "country": "China"}}, {"type": "Feature", "geometry": {"type": "Point", "coordinates": [120.1736, 33.52337]}, "properties": {"date": "2020-03-17", "new": 0, "total": 5, "city": "Yancheng City", "province": "Jiangsu", "country": "China"}}, {"type": "Feature", "geometry": {"type": "Point", "coordinates": [119.4729, 32.73976]}, "properties": {"date": "2020-03-17", "new": 0, "total": 5, "city": "Yangzhou City", "province": "Jiangsu", "country": "China"}}, {"type": "Feature", "geometry": {"type": "Point", "coordinates": [120.0575, 32.57248]}, "properties": {"date": "2020-03-17", "new": 0, "total": 5, "city": "Taizhou City", "province": "Jiangsu", "country": "China"}}, {"type": "Feature", "geometry": {"type": "Point", "coordinates": [118.5202, 33.786809999999996]}, "properties": {"date": "2020-03-17", "new": 0, "total": 1, "city": "Suqian City", "province": "Jiangsu", "country": "China"}}, {"type": "Feature", "geometry": {"type": "Point", "coordinates": [119.4564, 32.9902]}, "properties": {"date": "2020-03-17", "new": 0, "total": 5, "city": "", "province": "Jiangsu", "country": "China"}}, {"type": "Feature", "geometry": {"type": "Point", "coordinates": [116.0257, 28.66149]}, "properties": {"date": "2020-03-17", "new": 0, "total": 27, "city": "Nanchang City", "province": "Jiangxi", "country": "China"}}, {"type": "Feature", "geometry": {"type": "Point", "coordinates": [116.4151, 40.18535]}, "properties": {"date": "2020-03-17", "new": 0, "total": 2, "city": "", "province": "Beijing", "country": "China"}}, {"type": "Feature", "geometry": {"type": "Point", "coordinates": [114.8515, 27.84546]}, "properties": {"date": "2020-03-17", "new": 0, "total": 12, "city": "Xinyu City", "province": "Jiangxi", "country": "China"}}, {"type": "Feature", "geometry": {"type": "Point", "coordinates": [117.4692, 28.77693]}, "properties": {"date": "2020-03-17", "new": 0, "total": 4, "city": "Shangrao City", "province": "Jiangxi", "country": "China"}}, {"type": "Feature", "geometry": {"type": "Point", "coordinates": [115.2745, 25.71368]}, "properties": {"date": "2020-03-17", "new": 0, "total": 9, "city": "Ganzhou City", "province": "Jiangxi", "country": "China"}}, {"type": "Feature", "geometry": {"type": "Point", "coordinates": [114.8248, 26.97535]}, "properties": {"date": "2020-03-17", "new": 0, "total": 3, "city": "Ji'An City", "province": "Jiangxi", "country": "China"}}, {"type": "Feature", "geometry": {"type": "Point", "coordinates": [114.9732, 28.30755]}, "properties": {"date": "2020-03-17", "new": 0, "total": 3, "city": "Yichun City", "province": "Jiangxi", "country": "China"}}, {"type": "Feature", "geometry": {"type": "Point", "coordinates": [116.4344, 27.51128]}, "properties": {"date": "2020-03-17", "new": 0, "total": 5, "city": "Fuzhou City", "province": "Jiangxi", "country": "China"}}, {"type": "Feature", "geometry": {"type": "Point", "coordinates": [115.4418, 29.3255]}, "properties": {"date": "2020-03-17", "new": 0, "total": 13, "city": "Jiujiang City", "province": "Jiangxi", "country": "China"}}, {"type": "Feature", "geometry": {"type": "Point", "coordinates": [113.9029, 27.51356]}, "properties": {"date": "2020-03-17", "new": 0, "total": 1, "city": "Pingxiang City", "province": "Jiangxi", "country": "China"}}, {"type": "Feature", "geometry": {"type": "Point", "coordinates": [117.2708, 29.309990000000003]}, "properties": {"date": "2020-03-17", "new": 0, "total": 1, "city": "Jingdezhen City", "province": "Jiangxi", "country": "China"}}, {"type": "Feature", "geometry": {"type": "Point", "coordinates": [125.76899999999999, 44.38803]}, "properties": {"date": "2020-03-17", "new": 0, "total": 3, "city": "Changchun City", "province": "Jilin", "country": "China"}}, {"type": "Feature", "geometry": {"type": "Point", "coordinates": [126.16799999999999, 43.70033]}, "properties": {"date": "2020-03-17", "new": 0, "total": 2, "city": "", "province": "Jilin", "country": "China"}}, {"type": "Feature", "geometry": {"type": "Point", "coordinates": [120.0166, 41.51421]}, "properties": {"date": "2020-03-17", "new": 0, "total": 2, "city": "Chaoyang City", "province": "Liaoning", "country": "China"}}, {"type": "Feature", "geometry": {"type": "Point", "coordinates": [123.1391, 42.100120000000004]}, "properties": {"date": "2020-03-17", "new": 0, "total": 2, "city": "Shenyang City", "province": "Liaoning", "country": "China"}}, {"type": "Feature", "geometry": {"type": "Point", "coordinates": [124.5703, 41.22937]}, "properties": {"date": "2020-03-17", "new": 0, "total": 1, "city": "Benxi City", "province": "Liaoning", "country": "China"}}, {"type": "Feature", "geometry": {"type": "Point", "coordinates": [121.9994, 41.085770000000004]}, "properties": {"date": "2020-03-17", "new": 0, "total": 2, "city": "Panjin City", "province": "Liaoning", "country": "China"}}, {"type": "Feature", "geometry": {"type": "Point", "coordinates": [122.2224, 39.59944]}, "properties": {"date": "2020-03-17", "new": 0, "total": 2, "city": "Dalian City", "province": "Liaoning", "country": "China"}}, {"type": "Feature", "geometry": {"type": "Point", "coordinates": [121.6189, 41.47081]}, "properties": {"date": "2020-03-17", "new": 0, "total": 1, "city": "Jinzhou City", "province": "Liaoning", "country": "China"}}, {"type": "Feature", "geometry": {"type": "Point", "coordinates": [124.1707, 42.64676]}, "properties": {"date": "2020-03-17", "new": 0, "total": 1, "city": "Tieling City", "province": "Liaoning", "country": "China"}}, {"type": "Feature", "geometry": {"type": "Point", "coordinates": [106.1671, 37.28727]}, "properties": {"date": "2020-03-17", "new": 0, "total": 4, "city": "", "province": "Ningxia", "country": "China"}}, {"type": "Feature", "geometry": {"type": "Point", "coordinates": [106.4984, 37.44059]}, "properties": {"date": "2020-03-17", "new": 0, "total": 1, "city": "Wuzhong City", "province": "Ningxia", "country": "China"}}, {"type": "Feature", "geometry": {"type": "Point", "coordinates": [106.3496, 38.2349]}, "properties": {"date": "2020-03-17", "new": 0, "total": 4, "city": "Yinchuan City", "province": "Ningxia", "country": "China"}}, {"type": "Feature", "geometry": {"type": "Point", "coordinates": [108.8832, 35.26458]}, "properties": {"date": "2020-03-17", "new": 0, "total": 31, "city": "", "province": "Shaanxi", "country": "China"}}, {"type": "Feature", "geometry": {"type": "Point", "coordinates": [118.1603, 36.359190000000005]}, "properties": {"date": "2020-03-17", "new": 0, "total": 54, "city": "", "province": "Shandong", "country": "China"}}, {"type": "Feature", "geometry": {"type": "Point", "coordinates": [119.4715, 29.901659999999996]}, "properties": {"date": "2020-03-17", "new": 0, "total": 12, "city": "Hangzhou City", "province": "Zhejiang", "country": "China"}}, {"type": "Feature", "geometry": {"type": "Point", "coordinates": [121.4555, 31.2045]}, "properties": {"date": "2020-03-17", "new": 0, "total": 39, "city": "", "province": "Shanghai", "country": "China"}}, {"type": "Feature", "geometry": {"type": "Point", "coordinates": [117.22484399999999, 31.828313]}, "properties": {"date": "2020-03-17", "new": 0, "total": 1, "city": "High-Tech Zone, Hefei City", "province": "Anhui", "country": "China"}}, {"type": "Feature", "geometry": {"type": "Point", "coordinates": [112.3012, 37.62392]}, "properties": {"date": "2020-03-17", "new": 0, "total": 12, "city": "", "province": "Shanxi", "country": "China"}}, {"type": "Feature", "geometry": {"type": "Point", "coordinates": [102.7093, 30.66507]}, "properties": {"date": "2020-03-17", "new": 0, "total": 37, "city": "", "province": "Sichuan", "country": "China"}}, {"type": "Feature", "geometry": {"type": "Point", "coordinates": [140.65972299999999, 41.8598035]}, "properties": {"date": "2020-03-17", "new": 0, "total": 1, "city": "Hakodate", "province": "Hokkaido", "country": "Japan"}}, {"type": "Feature", "geometry": {"type": "Point", "coordinates": [-79.4275, 44.07489]}, "properties": {"date": "2020-03-17", "new": 1, "total": 10, "city": "York", "province": "Ontario", "country": "Canada"}}, {"type": "Feature", "geometry": {"type": "Point", "coordinates": [-79.8137, 43.762240000000006]}, "properties": {"date": "2020-03-17", "new": 0, "total": 14, "city": "Peel", "province": "Ontario", "country": "Canada"}}, {"type": "Feature", "geometry": {"type": "Point", "coordinates": [-79.387, 43.72529]}, "properties": {"date": "2020-03-17", "new": 0, "total": 46, "city": "Toronto", "province": "Ontario", "country": "Canada"}}, {"type": "Feature", "geometry": {"type": "Point", "coordinates": [-75.7757, 45.29508]}, "properties": {"date": "2020-03-17", "new": 0, "total": 11, "city": "Ottawa", "province": "Ontario", "country": "Canada"}}, {"type": "Feature", "geometry": {"type": "Point", "coordinates": [-79.3104, 43.044979999999995]}, "properties": {"date": "2020-03-17", "new": 0, "total": 3, "city": "Niagara", "province": "Ontario", "country": "Canada"}}, {"type": "Feature", "geometry": {"type": "Point", "coordinates": [-80.5387, 43.46287]}, "properties": {"date": "2020-03-17", "new": 0, "total": 5, "city": "Waterloo", "province": "Ontario", "country": "Canada"}}, {"type": "Feature", "geometry": {"type": "Point", "coordinates": [-78.9536, 44.08226]}, "properties": {"date": "2020-03-17", "new": 0, "total": 6, "city": "Durham", "province": "Ontario", "country": "Canada"}}, {"type": "Feature", "geometry": {"type": "Point", "coordinates": [-79.8894, 43.51043]}, "properties": {"date": "2020-03-17", "new": 0, "total": 2, "city": "Halton", "province": "Ontario", "country": "Canada"}}, {"type": "Feature", "geometry": {"type": "Point", "coordinates": [-79.9588, 43.2531]}, "properties": {"date": "2020-03-17", "new": 5, "total": 13, "city": "Hamilton", "province": "Ontario", "country": "Canada"}}, {"type": "Feature", "geometry": {"type": "Point", "coordinates": [-85.9952, 50.43084]}, "properties": {"date": "2020-03-17", "new": 0, "total": 1, "city": "", "province": "Ontario", "country": "Canada"}}, {"type": "Feature", "geometry": {"type": "Point", "coordinates": [-78.2116, 44.53528]}, "properties": {"date": "2020-03-17", "new": 0, "total": 1, "city": "Peterborough", "province": "Ontario", "country": "Canada"}}, {"type": "Feature", "geometry": {"type": "Point", "coordinates": [-81.0263, 46.60778]}, "properties": {"date": "2020-03-17", "new": 0, "total": 1, "city": "Greater Sudbury", "province": "Ontario", "country": "Canada"}}, {"type": "Feature", "geometry": {"type": "Point", "coordinates": [119.4715, 29.901659999999996]}, "properties": {"date": "2020-03-17", "new": 0, "total": 4, "city": "Hangzhou City", "province": "Zhejiang", "country": "China"}}, {"type": "Feature", "geometry": {"type": "Point", "coordinates": [102.7093, 30.66507]}, "properties": {"date": "2020-03-17", "new": 0, "total": 32, "city": "", "province": "Sichuan", "country": "China"}}, {"type": "Feature", "geometry": {"type": "Point", "coordinates": [-123.1, 49.25]}, "properties": {"date": "2020-03-17", "new": 52, "total": 85, "city": "Vancouver", "province": "British Columbia", "country": "Canada"}}, {"type": "Feature", "geometry": {"type": "Point", "coordinates": [-121.88, 49.55813]}, "properties": {"date": "2020-03-17", "new": 18, "total": 27, "city": "Fraser Valley", "province": "British Columbia", "country": "Canada"}}, {"type": "Feature", "geometry": {"type": "Point", "coordinates": [-124.95307, 55.17425]}, "properties": {"date": "2020-03-17", "new": 5, "total": 6, "city": "Interior Health Region", "province": "British Columbia", "country": "Canada"}}, {"type": "Feature", "geometry": {"type": "Point", "coordinates": [-125.5, 49.5]}, "properties": {"date": "2020-03-17", "new": 4, "total": 11, "city": "Vancouver Island", "province": "British Columbia", "country": "Canada"}}, {"type": "Feature", "geometry": {"type": "Point", "coordinates": [120.9559, 23.75947]}, "properties": {"date": "2020-03-17", "new": 0, "total": 1, "city": "", "province": "Taiwan", "country": ""}}, {"type": "Feature", "geometry": {"type": "Point", "coordinates": [117.3333, 39.297129999999996]}, "properties": {"date": "2020-03-17", "new": 0, "total": 5, "city": "", "province": "Tianjin", "country": "China"}}, {"type": "Feature", "geometry": {"type": "Point", "coordinates": [81.97697, 40.932559999999995]}, "properties": {"date": "2020-03-17", "new": 0, "total": 3, "city": "", "province": "Xinjiang", "country": "China"}}, {"type": "Feature", "geometry": {"type": "Point", "coordinates": [116.4151, 40.18535]}, "properties": {"date": "2020-03-17", "new": 0, "total": 1, "city": "", "province": "Beijing", "country": "China"}}, {"type": "Feature", "geometry": {"type": "Point", "coordinates": [108.4023, 30.706120000000002]}, "properties": {"date": "2020-03-17", "new": 0, "total": 12, "city": "Wanzhou District", "province": "Chongqing", "country": "China"}}, {"type": "Feature", "geometry": {"type": "Point", "coordinates": [101.4838, 25.01087]}, "properties": {"date": "2020-03-17", "new": 0, "total": 6, "city": "", "province": "Yunnan", "country": "China"}}, {"type": "Feature", "geometry": {"type": "Point", "coordinates": [12.63333, 47.86667]}, "properties": {"date": "2020-03-17", "new": 0, "total": 2, "city": "Traunstein", "province": "Bavaria", "country": "Germany"}}, {"type": "Feature", "geometry": {"type": "Point", "coordinates": [114.1324, 22.38074]}, "properties": {"date": "2020-03-17", "new": 0, "total": 1, "city": "Hong Kong", "province": "Hong Kong", "country": "China"}}, {"type": "Feature", "geometry": {"type": "Point", "coordinates": [103.737305, 1.337269]}, "properties": {"date": "2020-03-17", "new": 0, "total": 1, "city": "Jurong East", "province": "", "country": "Singapore"}}, {"type": "Feature", "geometry": {"type": "Point", "coordinates": [103.847241, 1.322355]}, "properties": {"date": "2020-03-17", "new": 0, "total": 1, "city": "Changi Airport", "province": "", "country": "Singapore"}}, {"type": "Feature", "geometry": {"type": "Point", "coordinates": [103.825779, 1.296483]}, "properties": {"date": "2020-03-17", "new": 0, "total": 1, "city": "Nathan Road", "province": "", "country": "Singapore"}}, {"type": "Feature", "geometry": {"type": "Point", "coordinates": [14.160556, 57.782778]}, "properties": {"date": "2020-03-17", "new": 0, "total": 1, "city": "Jonkoping", "province": "", "country": "Sweden"}}, {"type": "Feature", "geometry": {"type": "Point", "coordinates": [101.0156, 15.179910000000001]}, "properties": {"date": "2020-03-17", "new": 0, "total": 5, "city": "", "province": "", "country": "Thailand"}}, {"type": "Feature", "geometry": {"type": "Point", "coordinates": [-78.7752, -1.42946]}, "properties": {"date": "2020-03-17", "new": 0, "total": 3, "city": "", "province": "", "country": "Ecuador"}}, {"type": "Feature", "geometry": {"type": "Point", "coordinates": [-79.9667, -2.2]}, "properties": {"date": "2020-03-17", "new": 41, "total": 71, "city": "", "province": "Guayas", "country": "Ecuador"}}, {"type": "Feature", "geometry": {"type": "Point", "coordinates": [-79.0, -2.8833330000000004]}, "properties": {"date": "2020-03-17", "new": 4, "total": 5, "city": "", "province": "Azuay", "country": "Ecuador"}}, {"type": "Feature", "geometry": {"type": "Point", "coordinates": [-78.583333, -0.25]}, "properties": {"date": "2020-03-17", "new": 1, "total": 4, "city": "", "province": "Pichincha", "country": "Ecuador"}}, {"type": "Feature", "geometry": {"type": "Point", "coordinates": [-80.4506, -1.0522200000000002]}, "properties": {"date": "2020-03-17", "new": 0, "total": 1, "city": "", "province": "Manabi", "country": "Ecuador"}}, {"type": "Feature", "geometry": {"type": "Point", "coordinates": [-80.8583, -2.2267]}, "properties": {"date": "2020-03-17", "new": 3, "total": 3, "city": "", "province": "Santa Elena", "country": "Ecuador"}}, {"type": "Feature", "geometry": {"type": "Point", "coordinates": [-79.9667, -3.26667]}, "properties": {"date": "2020-03-17", "new": 1, "total": 1, "city": "", "province": "El Oro", "country": "Ecuador"}}, {"type": "Feature", "geometry": {"type": "Point", "coordinates": [-78.133333, -2.3666669999999996]}, "properties": {"date": "2020-03-17", "new": 1, "total": 1, "city": "", "province": "Morona Santiago", "country": "Ecuador"}}, {"type": "Feature", "geometry": {"type": "Point", "coordinates": [107.1356, 29.95723]}, "properties": {"date": "2020-03-17", "new": 0, "total": 1, "city": "Changshou District", "province": "Chongqing", "country": "China"}}, {"type": "Feature", "geometry": {"type": "Point", "coordinates": [107.4326, 30.259759999999996]}, "properties": {"date": "2020-03-17", "new": 0, "total": 2, "city": "Dianjiang County", "province": "Chongqing", "country": "China"}}, {"type": "Feature", "geometry": {"type": "Point", "coordinates": [107.823, 29.88972]}, "properties": {"date": "2020-03-17", "new": 0, "total": 1, "city": "Fengdu County", "province": "Chongqing", "country": "China"}}, {"type": "Feature", "geometry": {"type": "Point", "coordinates": [106.3081, 30.11512]}, "properties": {"date": "2020-03-17", "new": 0, "total": 2, "city": "Hechuan District", "province": "Chongqing", "country": "China"}}, {"type": "Feature", "geometry": {"type": "Point", "coordinates": [-46.628288, -23.57144]}, "properties": {"date": "2020-03-17", "new": 1, "total": 141, "city": "Sao Paulo", "province": "Sao Paulo", "country": "Brazil"}}, {"type": "Feature", "geometry": {"type": "Point", "coordinates": [-44.1708, -22.5439]}, "properties": {"date": "2020-03-17", "new": 0, "total": 1, "city": "Barra Mansa", "province": "Rio De Janeiro", "country": "Brazil"}}, {"type": "Feature", "geometry": {"type": "Point", "coordinates": [-40.308333000000005, -20.288889]}, "properties": {"date": "2020-03-17", "new": 1, "total": 3, "city": "Vitoria", "province": "Espirito Santo", "country": "Brazil"}}, {"type": "Feature", "geometry": {"type": "Point", "coordinates": [-38.95, -12.25]}, "properties": {"date": "2020-03-17", "new": 2, "total": 5, "city": "Feira De Santana", "province": "Bahia", "country": "Brazil"}}, {"type": "Feature", "geometry": {"type": "Point", "coordinates": [-43.1964, -22.9083]}, "properties": {"date": "2020-03-17", "new": 0, "total": 26, "city": "Rio De Janeiro", "province": "Rio De Janeiro", "country": "Brazil"}}, {"type": "Feature", "geometry": {"type": "Point", "coordinates": [-46.917778000000006, -23.443889000000002]}, "properties": {"date": "2020-03-17", "new": 0, "total": 1, "city": "Santana De Parnaiba", "province": "Sao Paulo", "country": "Brazil"}}, {"type": "Feature", "geometry": {"type": "Point", "coordinates": [106.70700000000001, 29.62085]}, "properties": {"date": "2020-03-17", "new": 0, "total": 4, "city": "Jiangbei District", "province": "Chongqing", "country": "China"}}, {"type": "Feature", "geometry": {"type": "Point", "coordinates": [-44.971672, -20.103444]}, "properties": {"date": "2020-03-17", "new": 0, "total": 1, "city": "Divinopolis", "province": "Minas Gerais", "country": "Brazil"}}, {"type": "Feature", "geometry": {"type": "Point", "coordinates": [-36.650242600000006, -9.661166099999999]}, "properties": {"date": "2020-03-17", "new": 0, "total": 1, "city": "Maceio", "province": "Alagoas", "country": "Brazil"}}, {"type": "Feature", "geometry": {"type": "Point", "coordinates": [-43.115259, -22.885927]}, "properties": {"date": "2020-03-17", "new": 0, "total": 2, "city": "Niteroi", "province": "Rio De Janeiro", "country": "Brazil"}}, {"type": "Feature", "geometry": {"type": "Point", "coordinates": [-51.0592, -29.68259]}, "properties": {"date": "2020-03-17", "new": 0, "total": 1, "city": "Campo Bom", "province": "Rio Grande Do Sul", "country": "Brazil"}}, {"type": "Feature", "geometry": {"type": "Point", "coordinates": [-47.882778, -15.793889000000002]}, "properties": {"date": "2020-03-17", "new": 0, "total": 4, "city": "Brasilia", "province": "Distrito Federal", "country": "Brazil"}}, {"type": "Feature", "geometry": {"type": "Point", "coordinates": [-34.92861, -8.05224]}, "properties": {"date": "2020-03-17", "new": 0, "total": 2, "city": "Recife, Boa Viagem", "province": "Pernambuco", "country": "Brazil"}}, {"type": "Feature", "geometry": {"type": "Point", "coordinates": [106.3625, 29.431890000000003]}, "properties": {"date": "2020-03-17", "new": 0, "total": 1, "city": "Jiulongpo District", "province": "Chongqing", "country": "China"}}, {"type": "Feature", "geometry": {"type": "Point", "coordinates": [-49.2712724, -25.4295963]}, "properties": {"date": "2020-03-17", "new": 2, "total": 6, "city": "Curitiba", "province": "Parana", "country": "Brazil"}}, {"type": "Feature", "geometry": {"type": "Point", "coordinates": [106.189, 29.564759999999996]}, "properties": {"date": "2020-03-17", "new": 0, "total": 2, "city": "Bishan District", "province": "Chongqing", "country": "China"}}, {"type": "Feature", "geometry": {"type": "Point", "coordinates": [-52.611934999999995, -23.662891000000002]}, "properties": {"date": "2020-03-17", "new": 1, "total": 2, "city": "Cianorte", "province": "Parana", "country": "Brazil"}}, {"type": "Feature", "geometry": {"type": "Point", "coordinates": [-51.217658, -30.034646999999996]}, "properties": {"date": "2020-03-17", "new": 9, "total": 17, "city": "Porto Alegre", "province": "Rio Grande Do Sul", "country": "Brazil"}}, {"type": "Feature", "geometry": {"type": "Point", "coordinates": [-51.179668, -29.163403000000002]}, "properties": {"date": "2020-03-17", "new": 0, "total": 2, "city": "Caxias Do Sul", "province": "Rio Grande Do Sul", "country": "Brazil"}}, {"type": "Feature", "geometry": {"type": "Point", "coordinates": [-42.548989, -19.469138]}, "properties": {"date": "2020-03-17", "new": 0, "total": 1, "city": "Ipatinga", "province": "Minas Gerais", "country": "Brazil"}}, {"type": "Feature", "geometry": {"type": "Point", "coordinates": [106.56700000000001, 29.6426]}, "properties": {"date": "2020-03-17", "new": 0, "total": 1, "city": "Liangjiang New District", "province": "Chongqing", "country": "China"}}, {"type": "Feature", "geometry": {"type": "Point", "coordinates": [-49.264811, -16.680882]}, "properties": {"date": "2020-03-17", "new": 3, "total": 5, "city": "Goiania", "province": "Goias", "country": "Brazil"}}, {"type": "Feature", "geometry": {"type": "Point", "coordinates": [-50.919631, -17.792753]}, "properties": {"date": "2020-03-17", "new": 1, "total": 2, "city": "Rio Verde", "province": "Goias", "country": "Brazil"}}, {"type": "Feature", "geometry": {"type": "Point", "coordinates": [-48.54822, -27.59487]}, "properties": {"date": "2020-03-17", "new": 0, "total": 3, "city": "Florianopolis", "province": "Santa Catarina", "country": "Brazil"}}, {"type": "Feature", "geometry": {"type": "Point", "coordinates": [-35.200916, -5.779257]}, "properties": {"date": "2020-03-17", "new": 0, "total": 1, "city": "Natal", "province": "Rio Grande Do Norte", "country": "Brazil"}}, {"type": "Feature", "geometry": {"type": "Point", "coordinates": [105.5027, 29.465999999999998]}, "properties": {"date": "2020-03-17", "new": 0, "total": 1, "city": "Rongchang District", "province": "Chongqing", "country": "China"}}, {"type": "Feature", "geometry": {"type": "Point", "coordinates": [-46.83983565, -23.53153615]}, "properties": {"date": "2020-03-17", "new": 0, "total": 1, "city": "Carapicuiba", "province": "Sao Paulo", "country": "Brazil"}}, {"type": "Feature", "geometry": {"type": "Point", "coordinates": [106.3637, 29.62567]}, "properties": {"date": "2020-03-17", "new": 0, "total": 2, "city": "Shapingba District", "province": "Chongqing", "country": "China"}}, {"type": "Feature", "geometry": {"type": "Point", "coordinates": [-47.7970891, -15.7754462]}, "properties": {"date": "2020-03-17", "new": 8, "total": 17, "city": "", "province": "Distrito Federal", "country": "Brazil"}}, {"type": "Feature", "geometry": {"type": "Point", "coordinates": [-48.8486726, -26.3044898]}, "properties": {"date": "2020-03-17", "new": 0, "total": 1, "city": "Joinville", "province": "Santa Catarina", "country": "Brazil"}}, {"type": "Feature", "geometry": {"type": "Point", "coordinates": [-48.5496098, -27.5973002]}, "properties": {"date": "2020-03-17", "new": 0, "total": 2, "city": "Rancho Queimado, Grande Florianopolis", "province": "Santa Catarina", "country": "Brazil"}}, {"type": "Feature", "geometry": {"type": "Point", "coordinates": [-60.02173199999999, -3.1190279999999997]}, "properties": {"date": "2020-03-17", "new": 0, "total": 2, "city": "Manaus", "province": "Amazonas", "country": "Brazil"}}, {"type": "Feature", "geometry": {"type": "Point", "coordinates": [-49.162271200000006, -28.272863300000004]}, "properties": {"date": "2020-03-17", "new": 0, "total": 1, "city": "Braco Do Norte", "province": "Santa Catarina", "country": "Brazil"}}, {"type": "Feature", "geometry": {"type": "Point", "coordinates": [108.2932, 30.094279999999998]}, "properties": {"date": "2020-03-17", "new": 0, "total": 2, "city": "Shizhu County", "province": "Chongqing", "country": "China"}}, {"type": "Feature", "geometry": {"type": "Point", "coordinates": [-37.094437799999994, -11.01868955]}, "properties": {"date": "2020-03-17", "new": 0, "total": 5, "city": "Aracaju", "province": "Sergipe", "country": "Brazil"}}, {"type": "Feature", "geometry": {"type": "Point", "coordinates": [-43.3501129, -21.7609533]}, "properties": {"date": "2020-03-17", "new": 1, "total": 2, "city": "Juiz De Fora", "province": "Minas Gerais", "country": "Brazil"}}, {"type": "Feature", "geometry": {"type": "Point", "coordinates": [-46.9926624, -18.9408294]}, "properties": {"date": "2020-03-17", "new": 0, "total": 1, "city": "Patrocinio", "province": "Minas Gerais", "country": "Brazil"}}, {"type": "Feature", "geometry": {"type": "Point", "coordinates": [-42.6282686, -19.5200067]}, "properties": {"date": "2020-03-17", "new": 0, "total": 1, "city": "Coronel Fabriciano", "province": "Minas Gerais", "country": "Brazil"}}, {"type": "Feature", "geometry": {"type": "Point", "coordinates": [-46.484414, -23.3918295]}, "properties": {"date": "2020-03-17", "new": 0, "total": 1, "city": "Guarulhos", "province": "Sao Paulo", "country": "Brazil"}}, {"type": "Feature", "geometry": {"type": "Point", "coordinates": [-54.616294700000005, -20.464017300000002]}, "properties": {"date": "2020-03-17", "new": 4, "total": 6, "city": "Campo Grande", "province": "Mato Grosso Do Sul", "country": "Brazil"}}, {"type": "Feature", "geometry": {"type": "Point", "coordinates": [-46.5506747, -23.7080345]}, "properties": {"date": "2020-03-17", "new": 0, "total": 2, "city": "Sao Bernardo Do Campo", "province": "Sao Paulo", "country": "Brazil"}}, {"type": "Feature", "geometry": {"type": "Point", "coordinates": [-46.532250399999995, -23.6573395]}, "properties": {"date": "2020-03-17", "new": 0, "total": 1, "city": "Santo Andre", "province": "Sao Paulo", "country": "Brazil"}}, {"type": "Feature", "geometry": {"type": "Point", "coordinates": [-46.5688323, -23.6195923]}, "properties": {"date": "2020-03-17", "new": 0, "total": 1, "city": "Sao Caetano Do Sul", "province": "Sao Paulo", "country": "Brazil"}}, {"type": "Feature", "geometry": {"type": "Point", "coordinates": [-46.4616922, -23.6669527]}, "properties": {"date": "2020-03-17", "new": 0, "total": 1, "city": "Maua", "province": "Sao Paulo", "country": "Brazil"}}, {"type": "Feature", "geometry": {"type": "Point", "coordinates": [106.7437, 29.81392]}, "properties": {"date": "2020-03-17", "new": 0, "total": 1, "city": "Yubei District", "province": "Chongqing", "country": "China"}}, {"type": "Feature", "geometry": {"type": "Point", "coordinates": [108.8523, 31.03847]}, "properties": {"date": "2020-03-17", "new": 0, "total": 2, "city": "Yunyang County", "province": "Chongqing", "country": "China"}}, {"type": "Feature", "geometry": {"type": "Point", "coordinates": [106.5376, 29.55234]}, "properties": {"date": "2020-03-17", "new": 0, "total": 1, "city": "Yuzhong District", "province": "Chongqing", "country": "China"}}, {"type": "Feature", "geometry": {"type": "Point", "coordinates": [-17.219527, 28.380553000000003]}, "properties": {"date": "2020-03-17", "new": 0, "total": 1, "city": "La Gomera", "province": "Canary Islands", "country": "Spain"}}, {"type": "Feature", "geometry": {"type": "Point", "coordinates": [-38.5217989, -3.7304512]}, "properties": {"date": "2020-03-17", "new": 2, "total": 9, "city": "Fortaleza", "province": "Ceara", "country": "Brazil"}}, {"type": "Feature", "geometry": {"type": "Point", "coordinates": [54.33112, 23.92122]}, "properties": {"date": "2020-03-17", "new": 0, "total": 1, "city": "", "province": "", "country": "United Arab Emirates"}}, {"type": "Feature", "geometry": {"type": "Point", "coordinates": [-38.387504, -3.9063117]}, "properties": {"date": "2020-03-17", "new": 0, "total": 1, "city": "Aquiraz", "province": "Ceara", "country": "Brazil"}}, {"type": "Feature", "geometry": {"type": "Point", "coordinates": [117.2001, 31.82562]}, "properties": {"date": "2020-03-17", "new": 0, "total": 1, "city": "Shushan District, Hefei City", "province": "Anhui", "country": "China"}}, {"type": "Feature", "geometry": {"type": "Point", "coordinates": [-34.92770629, -8.04255435]}, "properties": {"date": "2020-03-17", "new": 9, "total": 15, "city": "Recife", "province": "Pernambuco", "country": "Brazil"}}, {"type": "Feature", "geometry": {"type": "Point", "coordinates": [117.32, 31.269679999999997]}, "properties": {"date": "2020-03-17", "new": 0, "total": 2, "city": "Lujiang County, Hefei City", "province": "Anhui", "country": "China"}}, {"type": "Feature", "geometry": {"type": "Point", "coordinates": [-35.01603, -8.112219999999999]}, "properties": {"date": "2020-03-17", "new": 1, "total": 1, "city": "Jaboatao Dos Gurarapes", "province": "Pernambuco", "country": "Brazil"}}, {"type": "Feature", "geometry": {"type": "Point", "coordinates": [-36.42119, -8.33389]}, "properties": {"date": "2020-03-17", "new": 0, "total": 1, "city": "Belo Jardim", "province": "Pernambuco", "country": "Brazil"}}, {"type": "Feature", "geometry": {"type": "Point", "coordinates": [117.3384, 31.89544]}, "properties": {"date": "2020-03-17", "new": 0, "total": 1, "city": "Yaohai District, Hefei City", "province": "Anhui", "country": "China"}}, {"type": "Feature", "geometry": {"type": "Point", "coordinates": [-48.952575599999996, -16.3332828]}, "properties": {"date": "2020-03-17", "new": 2, "total": 2, "city": "Anapolis", "province": "Goias", "country": "Brazil"}}, {"type": "Feature", "geometry": {"type": "Point", "coordinates": [-43.9450948, -19.9227318]}, "properties": {"date": "2020-03-17", "new": 5, "total": 6, "city": "Belo Horizonte", "province": "Minas Gerais", "country": "Brazil"}}, {"type": "Feature", "geometry": {"type": "Point", "coordinates": [-40.30677503, -20.369665700000002]}, "properties": {"date": "2020-03-17", "new": 3, "total": 4, "city": "Vila Velha", "province": "Espirito Santo", "country": "Brazil"}}, {"type": "Feature", "geometry": {"type": "Point", "coordinates": [-40.05911593, -19.36210285]}, "properties": {"date": "2020-03-17", "new": 0, "total": 1, "city": "Linhares", "province": "Espirito Santo", "country": "Brazil"}}, {"type": "Feature", "geometry": {"type": "Point", "coordinates": [117.5681, 32.00123]}, "properties": {"date": "2020-03-17", "new": 0, "total": 1, "city": "Feidong County, Hefei City", "province": "Anhui", "country": "China"}}, {"type": "Feature", "geometry": {"type": "Point", "coordinates": [-39.065366, -16.444354]}, "properties": {"date": "2020-03-17", "new": 3, "total": 3, "city": "Porto Seguro", "province": "Bahia", "country": "Brazil"}}, {"type": "Feature", "geometry": {"type": "Point", "coordinates": [-39.222721, -17.336357]}, "properties": {"date": "2020-03-17", "new": 1, "total": 1, "city": "Prado", "province": "Bahia", "country": "Brazil"}}, {"type": "Feature", "geometry": {"type": "Point", "coordinates": [-38.50163, -12.977749000000001]}, "properties": {"date": "2020-03-17", "new": 5, "total": 5, "city": "Salvador", "province": "Bahia", "country": "Brazil"}}, {"type": "Feature", "geometry": {"type": "Point", "coordinates": [117.1614, 32.2842]}, "properties": {"date": "2020-03-17", "new": 0, "total": 1, "city": "Changfeng County, Hefei City", "province": "Anhui", "country": "China"}}, {"type": "Feature", "geometry": {"type": "Point", "coordinates": [-43.8470691, -19.9854089]}, "properties": {"date": "2020-03-17", "new": 1, "total": 1, "city": "Nova Lima", "province": "Minas Gerais", "country": "Brazil"}}, {"type": "Feature", "geometry": {"type": "Point", "coordinates": [117.3428, 31.79444]}, "properties": {"date": "2020-03-17", "new": 0, "total": 3, "city": "Hefei City", "province": "Anhui", "country": "China"}}, {"type": "Feature", "geometry": {"type": "Point", "coordinates": [-44.246944, -19.466110999999998]}, "properties": {"date": "2020-03-17", "new": 1, "total": 1, "city": "Sete Lagoas", "province": "Minas Gerais", "country": "Brazil"}}, {"type": "Feature", "geometry": {"type": "Point", "coordinates": [-48.2767837, -18.918804100000003]}, "properties": {"date": "2020-03-17", "new": 1, "total": 1, "city": "Uberlandia", "province": "Minas Gerais", "country": "Brazil"}}, {"type": "Feature", "geometry": {"type": "Point", "coordinates": [-68.31882477, -9.63304426]}, "properties": {"date": "2020-03-17", "new": 3, "total": 3, "city": "Rio Branco", "province": "Acre", "country": "Brazil"}}, {"type": "Feature", "geometry": {"type": "Point", "coordinates": [116.7424, 33.72722]}, "properties": {"date": "2020-03-17", "new": 0, "total": 4, "city": "Huaibei City", "province": "Anhui", "country": "China"}}, {"type": "Feature", "geometry": {"type": "Point", "coordinates": [-49.5270851, -25.4597726]}, "properties": {"date": "2020-03-17", "new": 1, "total": 1, "city": "Campo Largo", "province": "Parana", "country": "Brazil"}}, {"type": "Feature", "geometry": {"type": "Point", "coordinates": [-49.1900307, -25.4443488]}, "properties": {"date": "2020-03-17", "new": 1, "total": 1, "city": "Pinhais", "province": "Parana", "country": "Brazil"}}, {"type": "Feature", "geometry": {"type": "Point", "coordinates": [-51.1595023, -23.3112878]}, "properties": {"date": "2020-03-17", "new": 1, "total": 1, "city": "Londrina", "province": "Parana", "country": "Brazil"}}, {"type": "Feature", "geometry": {"type": "Point", "coordinates": [116.1808, 33.43671]}, "properties": {"date": "2020-03-17", "new": 0, "total": 5, "city": "Bozhou City", "province": "Anhui", "country": "China"}}, {"type": "Feature", "geometry": {"type": "Point", "coordinates": [117.2092, 33.860859999999995]}, "properties": {"date": "2020-03-17", "new": 0, "total": 2, "city": "Suzhou City", "province": "Anhui", "country": "China"}}, {"type": "Feature", "geometry": {"type": "Point", "coordinates": [117.32600000000001, 33.10901]}, "properties": {"date": "2020-03-17", "new": 0, "total": 1, "city": "Bengbu City", "province": "Anhui", "country": "China"}}, {"type": "Feature", "geometry": {"type": "Point", "coordinates": [115.7036, 32.9188]}, "properties": {"date": "2020-03-17", "new": 0, "total": 1, "city": "Fuyang City", "province": "Anhui", "country": "China"}}, {"type": "Feature", "geometry": {"type": "Point", "coordinates": [115.7036, 32.9188]}, "properties": {"date": "2020-03-17", "new": 0, "total": 8, "city": "Fuyang City", "province": "Anhui", "country": "China"}}, {"type": "Feature", "geometry": {"type": "Point", "coordinates": [-49.2712724, -25.4295963]}, "properties": {"date": "2020-03-17", "new": 0, "total": 1, "city": "Curitiba", "province": "Parana", "country": "Brazil"}}, {"type": "Feature", "geometry": {"type": "Point", "coordinates": [-48.54822, -27.59487]}, "properties": {"date": "2020-03-17", "new": 1, "total": 1, "city": "Florianopolis", "province": "Santa Catarina", "country": "Brazil"}}, {"type": "Feature", "geometry": {"type": "Point", "coordinates": [116.3151, 31.75941]}, "properties": {"date": "2020-03-17", "new": 0, "total": 4, "city": "Lu'An City", "province": "Anhui", "country": "China"}}, {"type": "Feature", "geometry": {"type": "Point", "coordinates": [108.4023, 30.706120000000002]}, "properties": {"date": "2020-03-17", "new": 0, "total": 8, "city": "Wanzhou District", "province": "Chongqing", "country": "China"}}, {"type": "Feature", "geometry": {"type": "Point", "coordinates": [118.35600000000001, 31.62885]}, "properties": {"date": "2020-03-17", "new": 0, "total": 8, "city": "Ma'Anshan City", "province": "Anhui", "country": "China"}}, {"type": "Feature", "geometry": {"type": "Point", "coordinates": [-54.96972099999999, -20.930669]}, "properties": {"date": "2020-03-17", "new": 1, "total": 1, "city": "Sidrolandia", "province": "Mato Grosso Do Sul", "country": "Brazil"}}, {"type": "Feature", "geometry": {"type": "Point", "coordinates": [-54.616294700000005, -20.464017300000002]}, "properties": {"date": "2020-03-17", "new": 1, "total": 1, "city": "Campo Grande", "province": "Mato Grosso Do Sul", "country": "Brazil"}}, {"type": "Feature", "geometry": {"type": "Point", "coordinates": [118.1285, 31.14997]}, "properties": {"date": "2020-03-17", "new": 0, "total": 1, "city": "Wuhu City", "province": "Anhui", "country": "China"}}, {"type": "Feature", "geometry": {"type": "Point", "coordinates": [117.8965, 30.944670000000002]}, "properties": {"date": "2020-03-17", "new": 0, "total": 2, "city": "Tongling City", "province": "Anhui", "country": "China"}}, {"type": "Feature", "geometry": {"type": "Point", "coordinates": [116.5956, 30.61122]}, "properties": {"date": "2020-03-17", "new": 0, "total": 13, "city": "Anqing City", "province": "Anhui", "country": "China"}}, {"type": "Feature", "geometry": {"type": "Point", "coordinates": [107.1356, 29.95723]}, "properties": {"date": "2020-03-17", "new": 0, "total": 1, "city": "Changshou District", "province": "Chongqing", "country": "China"}}, {"type": "Feature", "geometry": {"type": "Point", "coordinates": [116.1808, 33.43671]}, "properties": {"date": "2020-03-17", "new": 0, "total": 2, "city": "Bozhou City", "province": "Anhui", "country": "China"}}, {"type": "Feature", "geometry": {"type": "Point", "coordinates": [116.4151, 40.18535]}, "properties": {"date": "2020-03-17", "new": 0, "total": 39, "city": "", "province": "Beijing", "country": "China"}}, {"type": "Feature", "geometry": {"type": "Point", "coordinates": [8.15905466, 47.411261200000006]}, "properties": {"date": "2020-03-17", "new": 0, "total": 7, "city": "", "province": "Aargau", "country": "Switzerland"}}, {"type": "Feature", "geometry": {"type": "Point", "coordinates": [108.3787, 31.27337]}, "properties": {"date": "2020-03-17", "new": 0, "total": 2, "city": "Kaizhou District", "province": "Chongqing", "country": "China"}}, {"type": "Feature", "geometry": {"type": "Point", "coordinates": [7.61507251, 47.5660695]}, "properties": {"date": "2020-03-17", "new": 0, "total": 48, "city": "", "province": "Basel", "country": "Switzerland"}}, {"type": "Feature", "geometry": {"type": "Point", "coordinates": [7.70648773, 47.4552805]}, "properties": {"date": "2020-03-17", "new": 13, "total": 89, "city": "", "province": "Basel-Landschaft", "country": "Switzerland"}}, {"type": "Feature", "geometry": {"type": "Point", "coordinates": [7.62619722, 46.826679600000006]}, "properties": {"date": "2020-03-17", "new": 0, "total": 60, "city": "", "province": "Bern", "country": "Switzerland"}}, {"type": "Feature", "geometry": {"type": "Point", "coordinates": [109.8962, 31.11774]}, "properties": {"date": "2020-03-17", "new": 0, "total": 1, "city": "Wushan County", "province": "Chongqing", "country": "China"}}, {"type": "Feature", "geometry": {"type": "Point", "coordinates": [7.07670351, 46.720584499999994]}, "properties": {"date": "2020-03-17", "new": 0, "total": 9, "city": "", "province": "Fribourg", "country": "Switzerland"}}, {"type": "Feature", "geometry": {"type": "Point", "coordinates": [6.133536299999999, 46.221052]}, "properties": {"date": "2020-03-17", "new": 0, "total": 2, "city": "", "province": "Geneva", "country": "Switzerland"}}, {"type": "Feature", "geometry": {"type": "Point", "coordinates": [7.15749577, 47.35294520000001]}, "properties": {"date": "2020-03-17", "new": 0, "total": 25, "city": "", "province": "Jura", "country": "Switzerland"}}, {"type": "Feature", "geometry": {"type": "Point", "coordinates": [8.11782585, 47.0693107]}, "properties": {"date": "2020-03-17", "new": 0, "total": 1, "city": "", "province": "Lucerne", "country": "Switzerland"}}, {"type": "Feature", "geometry": {"type": "Point", "coordinates": [6.78241832, 46.997427200000004]}, "properties": {"date": "2020-03-17", "new": 0, "total": 12, "city": "", "province": "Neuchatel", "country": "Switzerland"}}, {"type": "Feature", "geometry": {"type": "Point", "coordinates": [106.3625, 29.431890000000003]}, "properties": {"date": "2020-03-17", "new": 0, "total": 1, "city": "Jiulongpo District", "province": "Chongqing", "country": "China"}}, {"type": "Feature", "geometry": {"type": "Point", "coordinates": [8.41094949, 46.9261493]}, "properties": {"date": "2020-03-17", "new": 0, "total": 4, "city": "", "province": "Nidwalden", "country": "Switzerland"}}, {"type": "Feature", "geometry": {"type": "Point", "coordinates": [8.24388207, 46.8524021]}, "properties": {"date": "2020-03-17", "new": 0, "total": 1, "city": "", "province": "Obwalden", "country": "Switzerland"}}, {"type": "Feature", "geometry": {"type": "Point", "coordinates": [9.26866543, 47.2300307]}, "properties": {"date": "2020-03-17", "new": 0, "total": 46, "city": "", "province": "Sankt Gallen", "country": "Switzerland"}}, {"type": "Feature", "geometry": {"type": "Point", "coordinates": [8.76159155, 47.06427720000001]}, "properties": {"date": "2020-03-17", "new": 0, "total": 7, "city": "", "province": "Schwyz", "country": "Switzerland"}}, {"type": "Feature", "geometry": {"type": "Point", "coordinates": [8.80826384, 46.298856]}, "properties": {"date": "2020-03-17", "new": 0, "total": 175, "city": "", "province": "Ticino", "country": "Switzerland"}}, {"type": "Feature", "geometry": {"type": "Point", "coordinates": [107.9107, 30.338520000000003]}, "properties": {"date": "2020-03-17", "new": 0, "total": 4, "city": "Zhongxian County", "province": "Chongqing", "country": "China"}}, {"type": "Feature", "geometry": {"type": "Point", "coordinates": [107.823, 29.88972]}, "properties": {"date": "2020-03-17", "new": 0, "total": 1, "city": "Fengdu County", "province": "Chongqing", "country": "China"}}, {"type": "Feature", "geometry": {"type": "Point", "coordinates": [107.4326, 30.259759999999996]}, "properties": {"date": "2020-03-17", "new": 0, "total": 2, "city": "Dianjiang County", "province": "Chongqing", "country": "China"}}, {"type": "Feature", "geometry": {"type": "Point", "coordinates": [108.8523, 31.03847]}, "properties": {"date": "2020-03-17", "new": 0, "total": 1, "city": "Yunyang County", "province": "Chongqing", "country": "China"}}, {"type": "Feature", "geometry": {"type": "Point", "coordinates": [119.3006, 26.22387]}, "properties": {"date": "2020-03-17", "new": 0, "total": 1, "city": "Jin'An District, Fuzhou City", "province": "Fujian", "country": "China"}}, {"type": "Feature", "geometry": {"type": "Point", "coordinates": [119.5504, 25.91169]}, "properties": {"date": "2020-03-17", "new": 0, "total": 1, "city": "Changle District, Fuzhou City", "province": "Fujian", "country": "China"}}, {"type": "Feature", "geometry": {"type": "Point", "coordinates": [119.55, 26.301940000000002]}, "properties": {"date": "2020-03-17", "new": 0, "total": 4, "city": "Lianjiang County, Fuzhou City", "province": "Fujian", "country": "China"}}, {"type": "Feature", "geometry": {"type": "Point", "coordinates": [119.3656, 25.631429999999998]}, "properties": {"date": "2020-03-17", "new": 0, "total": 1, "city": "Fuqing City, Fuzhou City", "province": "Fujian", "country": "China"}}, {"type": "Feature", "geometry": {"type": "Point", "coordinates": [118.1235, 24.46555]}, "properties": {"date": "2020-03-17", "new": 0, "total": 4, "city": "Siming District, Xiamen City", "province": "Fujian", "country": "China"}}, {"type": "Feature", "geometry": {"type": "Point", "coordinates": [7.61188191, 46.2123719]}, "properties": {"date": "2020-03-17", "new": 0, "total": 10, "city": "", "province": "Valais", "country": "Switzerland"}}, {"type": "Feature", "geometry": {"type": "Point", "coordinates": [6.65884868, 46.5724559]}, "properties": {"date": "2020-03-17", "new": 0, "total": 56, "city": "", "province": "Vaud", "country": "Switzerland"}}, {"type": "Feature", "geometry": {"type": "Point", "coordinates": [117.6105, 24.601029999999998]}, "properties": {"date": "2020-03-17", "new": 0, "total": 3, "city": "Xiangcheng District, Zhangzhou City", "province": "Fujian", "country": "China"}}, {"type": "Feature", "geometry": {"type": "Point", "coordinates": [118.1296, 25.39241]}, "properties": {"date": "2020-03-17", "new": 0, "total": 1, "city": "Yongchun County, Quanzhou City", "province": "Fujian", "country": "China"}}, {"type": "Feature", "geometry": {"type": "Point", "coordinates": [118.5443, 24.729689999999998]}, "properties": {"date": "2020-03-17", "new": 0, "total": 1, "city": "Jinjiang City, Quanzhou City", "province": "Fujian", "country": "China"}}, {"type": "Feature", "geometry": {"type": "Point", "coordinates": [118.9257, 25.41917]}, "properties": {"date": "2020-03-17", "new": 0, "total": 1, "city": "Chengxiang District, Putian City", "province": "Fujian", "country": "China"}}, {"type": "Feature", "geometry": {"type": "Point", "coordinates": [8.53884594, 47.1614366]}, "properties": {"date": "2020-03-17", "new": 0, "total": 21, "city": "", "province": "Zug", "country": "Switzerland"}}, {"type": "Feature", "geometry": {"type": "Point", "coordinates": [119.0533, 25.603379999999998]}, "properties": {"date": "2020-03-17", "new": 0, "total": 1, "city": "Hanjiang District, Putian City", "province": "Fujian", "country": "China"}}, {"type": "Feature", "geometry": {"type": "Point", "coordinates": [118.8892, 25.45184]}, "properties": {"date": "2020-03-17", "new": 0, "total": 1, "city": "Putian City", "province": "Fujian", "country": "China"}}, {"type": "Feature", "geometry": {"type": "Point", "coordinates": [118.2433, 26.58755]}, "properties": {"date": "2020-03-17", "new": 0, "total": 1, "city": "Yanping District, Nanping City", "province": "Fujian", "country": "China"}}, {"type": "Feature", "geometry": {"type": "Point", "coordinates": [8.231461, 46.80621]}, "properties": {"date": "2020-03-17", "new": 0, "total": 1, "city": "", "province": "", "country": "Switzerland"}}, {"type": "Feature", "geometry": {"type": "Point", "coordinates": [117.8621, 26.90625]}, "properties": {"date": "2020-03-17", "new": 0, "total": 1, "city": "Shunchang County, Nanping City", "province": "Fujian", "country": "China"}}, {"type": "Feature", "geometry": {"type": "Point", "coordinates": [118.7543, 27.608109999999996]}, "properties": {"date": "2020-03-17", "new": 0, "total": 2, "city": "Songxi County, Nanping City", "province": "Fujian", "country": "China"}}, {"type": "Feature", "geometry": {"type": "Point", "coordinates": [117.9998, 27.74553]}, "properties": {"date": "2020-03-17", "new": 0, "total": 1, "city": "Wuyishan City, Nanping City", "province": "Fujian", "country": "China"}}, {"type": "Feature", "geometry": {"type": "Point", "coordinates": [103.8756, 36.07809]}, "properties": {"date": "2020-03-17", "new": 0, "total": 2, "city": "Chengguan District, Lanzhou City", "province": "Gansu", "country": "China"}}, {"type": "Feature", "geometry": {"type": "Point", "coordinates": [103.1088, 36.275659999999995]}, "properties": {"date": "2020-03-17", "new": 0, "total": 1, "city": "Honggu District, Lanzhou City", "province": "Gansu", "country": "China"}}, {"type": "Feature", "geometry": {"type": "Point", "coordinates": [104.1369, 35.13411]}, "properties": {"date": "2020-03-17", "new": 0, "total": 1, "city": "Weiyuan County, Dingxi City", "province": "Gansu", "country": "China"}}, {"type": "Feature", "geometry": {"type": "Point", "coordinates": [102.7657, 34.33256]}, "properties": {"date": "2020-03-17", "new": 0, "total": 1, "city": "Gannan Prefecture", "province": "Gansu", "country": "China"}}, {"type": "Feature", "geometry": {"type": "Point", "coordinates": [113.5364, 23.349829999999997]}, "properties": {"date": "2020-03-17", "new": 0, "total": 13, "city": "Guangzhou City", "province": "Guangdong", "country": "China"}}, {"type": "Feature", "geometry": {"type": "Point", "coordinates": [106.56700000000001, 29.6426]}, "properties": {"date": "2020-03-17", "new": 0, "total": 2, "city": "Liangjiang New District", "province": "Chongqing", "country": "China"}}, {"type": "Feature", "geometry": {"type": "Point", "coordinates": [112.9444, 23.0131]}, "properties": {"date": "2020-03-17", "new": 0, "total": 1, "city": "Foshan City", "province": "Guangdong", "country": "China"}}, {"type": "Feature", "geometry": {"type": "Point", "coordinates": [116.0807, 24.20478]}, "properties": {"date": "2020-03-17", "new": 0, "total": 1, "city": "Meizhou City", "province": "Guangdong", "country": "China"}}, {"type": "Feature", "geometry": {"type": "Point", "coordinates": [116.7739, 23.79656]}, "properties": {"date": "2020-03-17", "new": 0, "total": 1, "city": "Chaozhou City", "province": "Guangdong", "country": "China"}}, {"type": "Feature", "geometry": {"type": "Point", "coordinates": [113.4305, 23.35183]}, "properties": {"date": "2020-03-17", "new": 0, "total": 83, "city": "", "province": "Guangdong", "country": "China"}}, {"type": "Feature", "geometry": {"type": "Point", "coordinates": [108.2932, 30.094279999999998]}, "properties": {"date": "2020-03-17", "new": 0, "total": 3, "city": "Shizhu County", "province": "Chongqing", "country": "China"}}, {"type": "Feature", "geometry": {"type": "Point", "coordinates": [106.4452, 29.41508]}, "properties": {"date": "2020-03-17", "new": 0, "total": 3, "city": "Dadukou District", "province": "Chongqing", "country": "China"}}, {"type": "Feature", "geometry": {"type": "Point", "coordinates": [106.7437, 29.81392]}, "properties": {"date": "2020-03-17", "new": 0, "total": 2, "city": "Yubei District", "province": "Chongqing", "country": "China"}}, {"type": "Feature", "geometry": {"type": "Point", "coordinates": [109.37100000000001, 24.95009]}, "properties": {"date": "2020-03-17", "new": 0, "total": 1, "city": "Liuzhou City", "province": "Guangxi", "country": "China"}}, {"type": "Feature", "geometry": {"type": "Point", "coordinates": [110.9909, 23.481720000000003]}, "properties": {"date": "2020-03-17", "new": 0, "total": 1, "city": "Wuzhou City", "province": "Guangxi", "country": "China"}}, {"type": "Feature", "geometry": {"type": "Point", "coordinates": [109.32799999999999, 21.676660000000002]}, "properties": {"date": "2020-03-17", "new": 0, "total": 6, "city": "Beihai City", "province": "Guangxi", "country": "China"}}, {"type": "Feature", "geometry": {"type": "Point", "coordinates": [110.5145, 25.35865]}, "properties": {"date": "2020-03-17", "new": 0, "total": 3, "city": "Guilin City", "province": "Guangxi", "country": "China"}}, {"type": "Feature", "geometry": {"type": "Point", "coordinates": [107.9967, 21.88401]}, "properties": {"date": "2020-03-17", "new": 0, "total": 1, "city": "Fangchenggang City", "province": "Guangxi", "country": "China"}}, {"type": "Feature", "geometry": {"type": "Point", "coordinates": [110.182, 22.44296]}, "properties": {"date": "2020-03-17", "new": 0, "total": 1, "city": "Yulin City", "province": "Guangxi", "country": "China"}}, {"type": "Feature", "geometry": {"type": "Point", "coordinates": [109.4197, 18.39084]}, "properties": {"date": "2020-03-17", "new": 0, "total": 1, "city": "Sanya City", "province": "Hainan", "country": "China"}}, {"type": "Feature", "geometry": {"type": "Point", "coordinates": [111.9357, 31.932340000000003]}, "properties": {"date": "2020-03-17", "new": 0, "total": 12, "city": "Xiangyang City", "province": "Hubei", "country": "China"}}, {"type": "Feature", "geometry": {"type": "Point", "coordinates": [111.1349, 30.74933]}, "properties": {"date": "2020-03-17", "new": 0, "total": 78, "city": "Yichang City", "province": "Hubei", "country": "China"}}, {"type": "Feature", "geometry": {"type": "Point", "coordinates": [114.3421, 30.625059999999998]}, "properties": {"date": "2020-03-17", "new": 0, "total": 67, "city": "Wuhan City", "province": "Hubei", "country": "China"}}, {"type": "Feature", "geometry": {"type": "Point", "coordinates": [112.6079, 31.069879999999998]}, "properties": {"date": "2020-03-17", "new": 0, "total": 75, "city": "Jingmen City", "province": "Hubei", "country": "China"}}, {"type": "Feature", "geometry": {"type": "Point", "coordinates": [114.7554, 30.32797]}, "properties": {"date": "2020-03-17", "new": 0, "total": 70, "city": "Ezhou City", "province": "Hubei", "country": "China"}}, {"type": "Feature", "geometry": {"type": "Point", "coordinates": [115.0246, 29.9274]}, "properties": {"date": "2020-03-17", "new": 0, "total": 57, "city": "Huangshi City", "province": "Hubei", "country": "China"}}, {"type": "Feature", "geometry": {"type": "Point", "coordinates": [112.5689, 29.99747]}, "properties": {"date": "2020-03-17", "new": 0, "total": 56, "city": "Jingzhou City", "province": "Hubei", "country": "China"}}, {"type": "Feature", "geometry": {"type": "Point", "coordinates": [113.4236, 31.8296]}, "properties": {"date": "2020-03-17", "new": 0, "total": 31, "city": "Suizhou City", "province": "Hubei", "country": "China"}}, {"type": "Feature", "geometry": {"type": "Point", "coordinates": [110.4419, 32.46032]}, "properties": {"date": "2020-03-17", "new": 0, "total": 29, "city": "Shiyan City", "province": "Hubei", "country": "China"}}, {"type": "Feature", "geometry": {"type": "Point", "coordinates": [113.375, 30.29059]}, "properties": {"date": "2020-03-17", "new": 0, "total": 20, "city": "Xiantao City", "province": "Hubei", "country": "China"}}, {"type": "Feature", "geometry": {"type": "Point", "coordinates": [113.1135, 30.645570000000003]}, "properties": {"date": "2020-03-17", "new": 0, "total": 18, "city": "Tianmen City", "province": "Hubei", "country": "China"}}, {"type": "Feature", "geometry": {"type": "Point", "coordinates": [114.1753, 29.62495]}, "properties": {"date": "2020-03-17", "new": 0, "total": 17, "city": "Xianning City", "province": "Hubei", "country": "China"}}, {"type": "Feature", "geometry": {"type": "Point", "coordinates": [109.5493, 30.1943]}, "properties": {"date": "2020-03-17", "new": 0, "total": 11, "city": "Enshi Prefecture", "province": "Hubei", "country": "China"}}, {"type": "Feature", "geometry": {"type": "Point", "coordinates": [112.7567, 30.3399]}, "properties": {"date": "2020-03-17", "new": 0, "total": 2, "city": "Qianjiang City", "province": "Hubei", "country": "China"}}, {"type": "Feature", "geometry": {"type": "Point", "coordinates": [47.61266, 29.356559999999998]}, "properties": {"date": "2020-03-17", "new": 0, "total": 8, "city": "", "province": "", "country": "Kuwait"}}, {"type": "Feature", "geometry": {"type": "Point", "coordinates": [56.11048, 20.631079999999997]}, "properties": {"date": "2020-03-17", "new": 0, "total": 4, "city": "", "province": "", "country": "Oman"}}, {"type": "Feature", "geometry": {"type": "Point", "coordinates": [30.7216, -28.7422]}, "properties": {"date": "2020-03-17", "new": 4, "total": 16, "city": "", "province": "Kwazulu-Natal", "country": "South Africa"}}, {"type": "Feature", "geometry": {"type": "Point", "coordinates": [2.674582, 28.42343]}, "properties": {"date": "2020-03-17", "new": 0, "total": 9, "city": "", "province": "", "country": "Algeria"}}, {"type": "Feature", "geometry": {"type": "Point", "coordinates": [11.50516, 3.850253]}, "properties": {"date": "2020-03-17", "new": 0, "total": 2, "city": "Yaounde", "province": "", "country": "Cameroon"}}, {"type": "Feature", "geometry": {"type": "Point", "coordinates": [-7.58333, 33.53333]}, "properties": {"date": "2020-03-17", "new": 0, "total": 1, "city": "Casablanca", "province": "Casablanca-Settat", "country": "Morocco"}}, {"type": "Feature", "geometry": {"type": "Point", "coordinates": [51.19044, 25.28442]}, "properties": {"date": "2020-03-17", "new": 0, "total": 1, "city": "", "province": "", "country": "Qatar"}}, {"type": "Feature", "geometry": {"type": "Point", "coordinates": [55.53273000000001, -21.1335]}, "properties": {"date": "2020-03-17", "new": 0, "total": 9, "city": "", "province": "", "country": "Reunion"}}, {"type": "Feature", "geometry": {"type": "Point", "coordinates": [28.0, -26.0]}, "properties": {"date": "2020-03-17", "new": 14, "total": 45, "city": "", "province": "Gauteng", "country": "South Africa"}}, {"type": "Feature", "geometry": {"type": "Point", "coordinates": [20.0, -34.0]}, "properties": {"date": "2020-03-17", "new": 5, "total": 21, "city": "", "province": "Western Cape", "country": "South Africa"}}, {"type": "Feature", "geometry": {"type": "Point", "coordinates": [30.0, -26.0]}, "properties": {"date": "2020-03-17", "new": 0, "total": 2, "city": "", "province": "Mpumalanga", "country": "South Africa"}}, {"type": "Feature", "geometry": {"type": "Point", "coordinates": [-1.51989, 12.3714]}, "properties": {"date": "2020-03-17", "new": 0, "total": 2, "city": "Ouagadougou", "province": "", "country": "Burkina Faso"}}, {"type": "Feature", "geometry": {"type": "Point", "coordinates": [29.0, -24.0]}, "properties": {"date": "2020-03-17", "new": 0, "total": 1, "city": "", "province": "Limpopo", "country": "South Africa"}}, {"type": "Feature", "geometry": {"type": "Point", "coordinates": [15.30144, -4.38828]}, "properties": {"date": "2020-03-17", "new": 0, "total": 1, "city": "Kinshasa", "province": "", "country": "Democratic Republic Of The Congo"}}, {"type": "Feature", "geometry": {"type": "Point", "coordinates": [2.9197130000000002, 36.49228]}, "properties": {"date": "2020-03-17", "new": 0, "total": 5, "city": "Blida", "province": "Blida", "country": "Algeria"}}, {"type": "Feature", "geometry": {"type": "Point", "coordinates": [0.13333299999999998, 35.4]}, "properties": {"date": "2020-03-17", "new": 0, "total": 2, "city": "Mascara", "province": "Mascara", "country": "Algeria"}}, {"type": "Feature", "geometry": {"type": "Point", "coordinates": [4.37111, 36.745278000000006]}, "properties": {"date": "2020-03-17", "new": 0, "total": 1, "city": "Azazga", "province": "Tizi Ouzou", "country": "Algeria"}}, {"type": "Feature", "geometry": {"type": "Point", "coordinates": [7.951111, 36.286389]}, "properties": {"date": "2020-03-17", "new": 0, "total": 1, "city": "Souk-Ahras", "province": "Souk-Ahras", "country": "Algeria"}}, {"type": "Feature", "geometry": {"type": "Point", "coordinates": [2.9197130000000002, 36.49228]}, "properties": {"date": "2020-03-17", "new": 0, "total": 28, "city": "Blida", "province": "Blida", "country": "Algeria"}}, {"type": "Feature", "geometry": {"type": "Point", "coordinates": [3.0588889999999997, 36.753889]}, "properties": {"date": "2020-03-17", "new": 0, "total": 3, "city": "Algiers", "province": "Algiers", "country": "Algeria"}}, {"type": "Feature", "geometry": {"type": "Point", "coordinates": [47.61266, 29.356559999999998]}, "properties": {"date": "2020-03-17", "new": 0, "total": 9, "city": "", "province": "", "country": "Kuwait"}}, {"type": "Feature", "geometry": {"type": "Point", "coordinates": [4.05, 36.716667]}, "properties": {"date": "2020-03-17", "new": 0, "total": 3, "city": "Tizi Ouzou", "province": "Tizi Ouzou", "country": "Algeria"}}, {"type": "Feature", "geometry": {"type": "Point", "coordinates": [7.433333, 36.45]}, "properties": {"date": "2020-03-17", "new": 0, "total": 1, "city": "Guelma", "province": "Guelma", "country": "Algeria"}}, {"type": "Feature", "geometry": {"type": "Point", "coordinates": [-0.283333, 27.866667]}, "properties": {"date": "2020-03-17", "new": 0, "total": 1, "city": "Adrar", "province": "Adrar", "country": "Algeria"}}, {"type": "Feature", "geometry": {"type": "Point", "coordinates": [3.901389, 36.38]}, "properties": {"date": "2020-03-17", "new": 0, "total": 1, "city": "Bouira", "province": "Bouira", "country": "Algeria"}}, {"type": "Feature", "geometry": {"type": "Point", "coordinates": [4.766667, 36.066666999999995]}, "properties": {"date": "2020-03-17", "new": 0, "total": 1, "city": "Bordj Bou-Arreridj", "province": "Bordj Bou-Arreridj", "country": "Algeria"}}, {"type": "Feature", "geometry": {"type": "Point", "coordinates": [7.766667, 36.9]}, "properties": {"date": "2020-03-17", "new": 0, "total": 1, "city": "Annaba", "province": "Annaba", "country": "Algeria"}}, {"type": "Feature", "geometry": {"type": "Point", "coordinates": [5.066667, 36.75]}, "properties": {"date": "2020-03-17", "new": 1, "total": 1, "city": "Bejaia", "province": "Bejaia", "country": "Algeria"}}, {"type": "Feature", "geometry": {"type": "Point", "coordinates": [6.9, 36.866667]}, "properties": {"date": "2020-03-17", "new": 1, "total": 1, "city": "Skikda", "province": "Skikda", "country": "Algeria"}}, {"type": "Feature", "geometry": {"type": "Point", "coordinates": [47.61266, 29.356559999999998]}, "properties": {"date": "2020-03-17", "new": 0, "total": 7, "city": "", "province": "", "country": "Kuwait"}}, {"type": "Feature", "geometry": {"type": "Point", "coordinates": [-0.2, 5.55]}, "properties": {"date": "2020-03-17", "new": 1, "total": 7, "city": "Accra", "province": "Greater Accra Region", "country": "Ghana"}}, {"type": "Feature", "geometry": {"type": "Point", "coordinates": [29.77867, 26.667959999999997]}, "properties": {"date": "2020-03-17", "new": 0, "total": 1, "city": "", "province": "", "country": "Egypt"}},