[{"type": "Feature", "geometry": {"type": "Point", "coordinates": [117.7166, 31.646959999999996]}, "properties": {"date": "2020-01-23", "new": 0, "total": 1, "city": "Chaohu City, Hefei City", "province": "Anhui", "country": "China"}}, {"type": "Feature", "geometry": {"type": "Point", "coordinates": [117.3428, 31.79444]}, "properties": {"date": "2020-01-23", "new": 1, "total": 1, "city": "Hefei City", "province": "Anhui", "country": "China"}}, {"type": "Feature", "geometry": {"type": "Point", "coordinates": [114.1291, 22.65389]}, "properties": {"date": "2020-01-23", "new": 0, "total": 8, "city": "Shenzhen City", "province": "Guangdong", "country": "China"}}, {"type": "Feature", "geometry": {"type": "Point", "coordinates": [114.1291, 22.65389]}, "properties": {"date": "2020-01-23", "new": 6, "total": 6, "city": "Shenzhen City", "province": "Guangdong", "country": "China"}}, {"type": "Feature", "geometry": {"type": "Point", "coordinates": [116.3151, 31.75941]}, "properties": {"date": "2020-01-23", "new": 1, "total": 1, "city": "Lu'An City", "province": "Anhui", "country": "China"}}, {"type": "Feature", "geometry": {"type": "Point", "coordinates": [110.1654, 21.10003]}, "properties": {"date": "2020-01-23", "new": 0, "total": 2, "city": "Zhanjiang City", "province": "Guangdong", "country": "China"}}, {"type": "Feature", "geometry": {"type": "Point", "coordinates": [112.2026, 23.54164]}, "properties": {"date": "2020-01-23", "new": 1, "total": 1, "city": "Zhaoqing City", "province": "Guangdong", "country": "China"}}, {"type": "Feature", "geometry": {"type": "Point", "coordinates": [126.9017, 34.86927]}, "properties": {"date": "2020-01-23", "new": 0, "total": 1, "city": "", "province": "South Jeolla", "country": "South Korea"}}, {"type": "Feature", "geometry": {"type": "Point", "coordinates": [113.3859, 22.52105]}, "properties": {"date": "2020-01-23", "new": 1, "total": 1, "city": "Zhongshan City", "province": "Guangdong", "country": "China"}}, {"type": "Feature", "geometry": {"type": "Point", "coordinates": [113.361, 22.16925]}, "properties": {"date": "2020-01-23", "new": 0, "total": 4, "city": "Zhuhai City", "province": "Guangdong", "country": "China"}}, {"type": "Feature", "geometry": {"type": "Point", "coordinates": [110.5145, 25.35865]}, "properties": {"date": "2020-01-23", "new": 2, "total": 2, "city": "Guilin City", "province": "Guangxi", "country": "China"}}, {"type": "Feature", "geometry": {"type": "Point", "coordinates": [115.7036, 32.9188]}, "properties": {"date": "2020-01-23", "new": 1, "total": 1, "city": "Fuyang City", "province": "Anhui", "country": "China"}}, {"type": "Feature", "geometry": {"type": "Point", "coordinates": [116.5956, 30.61122]}, "properties": {"date": "2020-01-23", "new": 1, "total": 1, "city": "Anqing City", "province": "Anhui", "country": "China"}}, {"type": "Feature", "geometry": {"type": "Point", "coordinates": [117.3658, 30.28525]}, "properties": {"date": "2020-01-23", "new": 1, "total": 1, "city": "Chizhou City", "province": "Anhui", "country": "China"}}, {"type": "Feature", "geometry": {"type": "Point", "coordinates": [109.32799999999999, 21.676660000000002]}, "properties": {"date": "2020-01-23", "new": 0, "total": 1, "city": "Beihai City", "province": "Guangxi", "country": "China"}}, {"type": "Feature", "geometry": {"type": "Point", "coordinates": [114.4384, 38.13361]}, "properties": {"date": "2020-01-23", "new": 1, "total": 1, "city": "Shijiazhuang City", "province": "Hebei", "country": "China"}}, {"type": "Feature", "geometry": {"type": "Point", "coordinates": [127.9588, 45.646570000000004]}, "properties": {"date": "2020-01-23", "new": 1, "total": 1, "city": "Harbin City", "province": "Heilongjiang", "country": "China"}}, {"type": "Feature", "geometry": {"type": "Point", "coordinates": [129.8858, 44.6065]}, "properties": {"date": "2020-01-23", "new": 1, "total": 1, "city": "Mudanjiang City", "province": "Heilongjiang", "country": "China"}}, {"type": "Feature", "geometry": {"type": "Point", "coordinates": [113.46799999999999, 34.62931]}, "properties": {"date": "2020-01-23", "new": 0, "total": 1, "city": "Zhengzhou City", "province": "Henan", "country": "China"}}, {"type": "Feature", "geometry": {"type": "Point", "coordinates": [116.2063, 40.20789]}, "properties": {"date": "2020-01-23", "new": 0, "total": 1, "city": "Changping District", "province": "Beijing", "country": "China"}}, {"type": "Feature", "geometry": {"type": "Point", "coordinates": [111.1065, 34.36358]}, "properties": {"date": "2020-01-23", "new": 0, "total": 1, "city": "Sanmenxia City", "province": "Henan", "country": "China"}}, {"type": "Feature", "geometry": {"type": "Point", "coordinates": [112.0323, 34.2936]}, "properties": {"date": "2020-01-23", "new": 0, "total": 1, "city": "Luoyang City", "province": "Henan", "country": "China"}}, {"type": "Feature", "geometry": {"type": "Point", "coordinates": [113.46799999999999, 34.62931]}, "properties": {"date": "2020-01-23", "new": 1, "total": 2, "city": "Zhengzhou City", "province": "Henan", "country": "China"}}, {"type": "Feature", "geometry": {"type": "Point", "coordinates": [114.084, 35.26547]}, "properties": {"date": "2020-01-23", "new": 1, "total": 1, "city": "Xinxiang City", "province": "Henan", "country": "China"}}, {"type": "Feature", "geometry": {"type": "Point", "coordinates": [116.4172, 39.642379999999996]}, "properties": {"date": "2020-01-23", "new": 0, "total": 1, "city": "Daxing District", "province": "Beijing", "country": "China"}}, {"type": "Feature", "geometry": {"type": "Point", "coordinates": [114.8773, 33.723859999999995]}, "properties": {"date": "2020-01-23", "new": 1, "total": 1, "city": "Zhoukou City", "province": "Henan", "country": "China"}}, {"type": "Feature", "geometry": {"type": "Point", "coordinates": [114.1324, 22.38074]}, "properties": {"date": "2020-01-23", "new": 0, "total": 2, "city": "Hong Kong", "province": "Hong Kong", "country": "China"}}, {"type": "Feature", "geometry": {"type": "Point", "coordinates": [116.4172, 39.642379999999996]}, "properties": {"date": "2020-01-23", "new": 0, "total": 1, "city": "Daxing District", "province": "Beijing", "country": "China"}}, {"type": "Feature", "geometry": {"type": "Point", "coordinates": [113.1532, 28.227590000000003]}, "properties": {"date": "2020-01-23", "new": 0, "total": 1, "city": "Changsha City", "province": "Hunan", "country": "China"}}, {"type": "Feature", "geometry": {"type": "Point", "coordinates": [109.9751, 27.641059999999996]}, "properties": {"date": "2020-01-23", "new": 0, "total": 3, "city": "Hecheng District, Huaihua City", "province": "Hunan", "country": "China"}}, {"type": "Feature", "geometry": {"type": "Point", "coordinates": [117.3319, 31.77863]}, "properties": {"date": "2020-01-23", "new": 1, "total": 1, "city": "Baohe District, Hefei City", "province": "Anhui", "country": "China"}}, {"type": "Feature", "geometry": {"type": "Point", "coordinates": [120.6418, 31.378020000000003]}, "properties": {"date": "2020-01-23", "new": 0, "total": 1, "city": "Suzhou City", "province": "Jiangsu", "country": "China"}}, {"type": "Feature", "geometry": {"type": "Point", "coordinates": [118.8424, 31.92997]}, "properties": {"date": "2020-01-23", "new": 2, "total": 2, "city": "Nanjing City", "province": "Jiangsu", "country": "China"}}, {"type": "Feature", "geometry": {"type": "Point", "coordinates": [119.1325, 34.534]}, "properties": {"date": "2020-01-23", "new": 1, "total": 1, "city": "Lianyungang City", "province": "Jiangsu", "country": "China"}}, {"type": "Feature", "geometry": {"type": "Point", "coordinates": [119.4729, 32.73976]}, "properties": {"date": "2020-01-23", "new": 1, "total": 1, "city": "Yangzhou City", "province": "Jiangsu", "country": "China"}}, {"type": "Feature", "geometry": {"type": "Point", "coordinates": [116.6081, 28.218759999999996]}, "properties": {"date": "2020-01-23", "new": 0, "total": 1, "city": "Dongxiang County, Fuzhou City", "province": "Jiangxi", "country": "China"}}, {"type": "Feature", "geometry": {"type": "Point", "coordinates": [125.76899999999999, 44.38803]}, "properties": {"date": "2020-01-23", "new": 1, "total": 1, "city": "Changchun City", "province": "Jilin", "country": "China"}}, {"type": "Feature", "geometry": {"type": "Point", "coordinates": [116.1737, 39.92715]}, "properties": {"date": "2020-01-23", "new": 1, "total": 1, "city": "Shijingshan District", "province": "Beijing", "country": "China"}}, {"type": "Feature", "geometry": {"type": "Point", "coordinates": [124.4795, 44.80382]}, "properties": {"date": "2020-01-23", "new": 1, "total": 1, "city": "Songyuan City", "province": "Jilin", "country": "China"}}, {"type": "Feature", "geometry": {"type": "Point", "coordinates": [126.8481, 43.58859]}, "properties": {"date": "2020-01-23", "new": 1, "total": 1, "city": "Jilin City", "province": "Jilin", "country": "China"}}, {"type": "Feature", "geometry": {"type": "Point", "coordinates": [110.3326, 19.875410000000002]}, "properties": {"date": "2020-01-23", "new": 1, "total": 1, "city": "Longhua District, Haikou City", "province": "Hainan", "country": "China"}}, {"type": "Feature", "geometry": {"type": "Point", "coordinates": [110.2876, 18.83795]}, "properties": {"date": "2020-01-23", "new": 1, "total": 1, "city": "Wanning City", "province": "Hainan", "country": "China"}}, {"type": "Feature", "geometry": {"type": "Point", "coordinates": [110.771, 19.74459]}, "properties": {"date": "2020-01-23", "new": 1, "total": 1, "city": "Wenchang City", "province": "Hainan", "country": "China"}}, {"type": "Feature", "geometry": {"type": "Point", "coordinates": [122.2224, 39.59944]}, "properties": {"date": "2020-01-23", "new": 0, "total": 1, "city": "Dalian City", "province": "Liaoning", "country": "China"}}, {"type": "Feature", "geometry": {"type": "Point", "coordinates": [123.1391, 42.100120000000004]}, "properties": {"date": "2020-01-23", "new": 1, "total": 1, "city": "Shenyang City", "province": "Liaoning", "country": "China"}}, {"type": "Feature", "geometry": {"type": "Point", "coordinates": [120.0166, 41.51421]}, "properties": {"date": "2020-01-23", "new": 1, "total": 1, "city": "Chaoyang City", "province": "Liaoning", "country": "China"}}, {"type": "Feature", "geometry": {"type": "Point", "coordinates": [113.55, 22.166667]}, "properties": {"date": "2020-01-23", "new": 1, "total": 2, "city": "Border Checkpoint", "province": "Macau", "country": "China"}}, {"type": "Feature", "geometry": {"type": "Point", "coordinates": [106.3496, 38.2349]}, "properties": {"date": "2020-01-23", "new": 0, "total": 1, "city": "Yinchuan City", "province": "Ningxia", "country": "China"}}, {"type": "Feature", "geometry": {"type": "Point", "coordinates": [105.4777, 37.0548]}, "properties": {"date": "2020-01-23", "new": 1, "total": 1, "city": "Zhongwei City", "province": "Ningxia", "country": "China"}}, {"type": "Feature", "geometry": {"type": "Point", "coordinates": [139.339, 35.41557]}, "properties": {"date": "2020-01-23", "new": 0, "total": 1, "city": "", "province": "Kanagawa Prefecture", "country": "Japan"}}, {"type": "Feature", "geometry": {"type": "Point", "coordinates": [121.9821, 37.12174]}, "properties": {"date": "2020-01-23", "new": 0, "total": 1, "city": "Weihai City", "province": "Shandong", "country": "China"}}, {"type": "Feature", "geometry": {"type": "Point", "coordinates": [118.2809, 35.31235]}, "properties": {"date": "2020-01-23", "new": 0, "total": 2, "city": "Linyi City", "province": "Shandong", "country": "China"}}, {"type": "Feature", "geometry": {"type": "Point", "coordinates": [120.1436, 36.454840000000004]}, "properties": {"date": "2020-01-23", "new": 3, "total": 3, "city": "Qingdao City", "province": "Shandong", "country": "China"}}, {"type": "Feature", "geometry": {"type": "Point", "coordinates": [117.22484399999999, 31.828313]}, "properties": {"date": "2020-01-23", "new": 1, "total": 1, "city": "High-Tech Zone, Hefei City", "province": "Anhui", "country": "China"}}, {"type": "Feature", "geometry": {"type": "Point", "coordinates": [112.3157, 37.96001]}, "properties": {"date": "2020-01-23", "new": 0, "total": 1, "city": "Taiyuan City", "province": "Shanxi", "country": "China"}}, {"type": "Feature", "geometry": {"type": "Point", "coordinates": [103.8256, 30.70291]}, "properties": {"date": "2020-01-23", "new": 2, "total": 4, "city": "Chengdu City", "province": "Sichuan", "country": "China"}}, {"type": "Feature", "geometry": {"type": "Point", "coordinates": [107.6465, 31.370140000000003]}, "properties": {"date": "2020-01-23", "new": 1, "total": 1, "city": "Dazhou City", "province": "Sichuan", "country": "China"}}, {"type": "Feature", "geometry": {"type": "Point", "coordinates": [104.7008, 31.8534]}, "properties": {"date": "2020-01-23", "new": 0, "total": 2, "city": "Mianyang City", "province": "Sichuan", "country": "China"}}, {"type": "Feature", "geometry": {"type": "Point", "coordinates": [87.78531, 43.73043]}, "properties": {"date": "2020-01-23", "new": 1, "total": 1, "city": "Urumqi City", "province": "Xinjiang", "country": "China"}}, {"type": "Feature", "geometry": {"type": "Point", "coordinates": [102.8739, 25.39236]}, "properties": {"date": "2020-01-23", "new": 1, "total": 2, "city": "Kunming City", "province": "Yunnan", "country": "China"}}, {"type": "Feature", "geometry": {"type": "Point", "coordinates": [120.7547, 30.63995]}, "properties": {"date": "2020-01-23", "new": 3, "total": 3, "city": "Jiaxing City", "province": "Zhejiang", "country": "China"}}, {"type": "Feature", "geometry": {"type": "Point", "coordinates": [120.63600000000001, 29.7353]}, "properties": {"date": "2020-01-23", "new": 1, "total": 1, "city": "Shaoxing City", "province": "Zhejiang", "country": "China"}}, {"type": "Feature", "geometry": {"type": "Point", "coordinates": [121.1116, 28.775]}, "properties": {"date": "2020-01-23", "new": 2, "total": 2, "city": "Taizhou City", "province": "Zhejiang", "country": "China"}}, {"type": "Feature", "geometry": {"type": "Point", "coordinates": [121.1116, 28.775]}, "properties": {"date": "2020-01-23", "new": 9, "total": 9, "city": "Taizhou City", "province": "Zhejiang", "country": "China"}}, {"type": "Feature", "geometry": {"type": "Point", "coordinates": [121.1116, 28.775]}, "properties": {"date": "2020-01-23", "new": 1, "total": 1, "city": "Taizhou City", "province": "Zhejiang", "country": "China"}}, {"type": "Feature", "geometry": {"type": "Point", "coordinates": [116.4151, 40.18535]}, "properties": {"date": "2020-01-23", "new": 2, "total": 2, "city": "", "province": "Beijing", "country": "China"}}, {"type": "Feature", "geometry": {"type": "Point", "coordinates": [117.22484399999999, 31.828313]}, "properties": {"date": "2020-01-23", "new": 1, "total": 1, "city": "High-Tech Zone, Hefei City", "province": "Anhui", "country": "China"}}, {"type": "Feature", "geometry": {"type": "Point", "coordinates": [116.4151, 40.18535]}, "properties": {"date": "2020-01-23", "new": 1, "total": 1, "city": "", "province": "Beijing", "country": "China"}}, {"type": "Feature", "geometry": {"type": "Point", "coordinates": [117.5681, 32.00123]}, "properties": {"date": "2020-01-23", "new": 1, "total": 1, "city": "Feidong County, Hefei City", "province": "Anhui", "country": "China"}}, {"type": "Feature", "geometry": {"type": "Point", "coordinates": [109.4197, 18.39084]}, "properties": {"date": "2020-01-23", "new": 1, "total": 1, "city": "Sanya City", "province": "Hainan", "country": "China"}}, {"type": "Feature", "geometry": {"type": "Point", "coordinates": [103.8256, 30.70291]}, "properties": {"date": "2020-01-23", "new": 3, "total": 3, "city": "Chengdu City", "province": "Sichuan", "country": "China"}}, {"type": "Feature", "geometry": {"type": "Point", "coordinates": [106.6635, 30.42717]}, "properties": {"date": "2020-01-23", "new": 1, "total": 1, "city": "Guang'An City", "province": "Sichuan", "country": "China"}}, {"type": "Feature", "geometry": {"type": "Point", "coordinates": [102.6656, 29.92197]}, "properties": {"date": "2020-01-23", "new": 1, "total": 1, "city": "Ya'An City", "province": "Sichuan", "country": "China"}}, {"type": "Feature", "geometry": {"type": "Point", "coordinates": [104.4301, 31.13417]}, "properties": {"date": "2020-01-23", "new": 1, "total": 1, "city": "Deyang City", "province": "Sichuan", "country": "China"}}, {"type": "Feature", "geometry": {"type": "Point", "coordinates": [105.4711, 30.633309999999998]}, "properties": {"date": "2020-01-23", "new": 1, "total": 1, "city": "Suining City", "province": "Sichuan", "country": "China"}}, {"type": "Feature", "geometry": {"type": "Point", "coordinates": [139.4468, 35.71145]}, "properties": {"date": "2020-01-23", "new": 0, "total": 1, "city": "", "province": "Tokyo", "country": "Japan"}}, {"type": "Feature", "geometry": {"type": "Point", "coordinates": [115.7036, 32.9188]}, "properties": {"date": "2020-01-23", "new": 0, "total": 1, "city": "Fuyang City", "province": "Anhui", "country": "China"}}, {"type": "Feature", "geometry": {"type": "Point", "coordinates": [103.8345, 1.280224]}, "properties": {"date": "2020-01-23", "new": 1, "total": 1, "city": "Singapore General Hospital", "province": "", "country": "Singapore"}}, {"type": "Feature", "geometry": {"type": "Point", "coordinates": [126.443389, 37.462026]}, "properties": {"date": "2020-01-23", "new": 0, "total": 1, "city": "Incheon Airport", "province": "", "country": "South Korea"}}, {"type": "Feature", "geometry": {"type": "Point", "coordinates": [121.2348, 25.0797]}, "properties": {"date": "2020-01-23", "new": 0, "total": 1, "city": "Taoyuan International Airport", "province": "Taiwan", "country": ""}}, {"type": "Feature", "geometry": {"type": "Point", "coordinates": [100.5363, 13.76658]}, "properties": {"date": "2020-01-23", "new": 0, "total": 2, "city": "Bangkok", "province": "Bangkok Metropolis", "country": "Thailand"}}, {"type": "Feature", "geometry": {"type": "Point", "coordinates": [109.1967, 12.2388]}, "properties": {"date": "2020-01-23", "new": 2, "total": 2, "city": "Nha Trang", "province": "Khanh Hoa", "country": "Vietnam"}}, {"type": "Feature", "geometry": {"type": "Point", "coordinates": [119.1789, 26.05196]}, "properties": {"date": "2020-01-23", "new": 1, "total": 2, "city": "Fuzhou City", "province": "Fujian", "country": "China"}}, {"type": "Feature", "geometry": {"type": "Point", "coordinates": [119.4745, 26.976740000000003]}, "properties": {"date": "2020-01-23", "new": 1, "total": 1, "city": "Ningde City", "province": "Fujian", "country": "China"}}, {"type": "Feature", "geometry": {"type": "Point", "coordinates": [118.2574, 25.21145]}, "properties": {"date": "2020-01-23", "new": 1, "total": 1, "city": "Quanzhou City", "province": "Fujian", "country": "China"}}, {"type": "Feature", "geometry": {"type": "Point", "coordinates": [118.1138, 24.67595]}, "properties": {"date": "2020-01-23", "new": 1, "total": 1, "city": "Xiamen City", "province": "Fujian", "country": "China"}}, {"type": "Feature", "geometry": {"type": "Point", "coordinates": [103.6554, 36.351259999999996]}, "properties": {"date": "2020-01-23", "new": 1, "total": 1, "city": "Lanzhou City", "province": "Gansu", "country": "China"}}, {"type": "Feature", "geometry": {"type": "Point", "coordinates": [113.5364, 23.349829999999997]}, "properties": {"date": "2020-01-23", "new": 5, "total": 5, "city": "Guangzhou City", "province": "Guangdong", "country": "China"}}, {"type": "Feature", "geometry": {"type": "Point", "coordinates": [112.9444, 23.0131]}, "properties": {"date": "2020-01-23", "new": 0, "total": 1, "city": "Foshan City", "province": "Guangdong", "country": "China"}}, {"type": "Feature", "geometry": {"type": "Point", "coordinates": [113.7723, 24.82198]}, "properties": {"date": "2020-01-23", "new": 2, "total": 2, "city": "Shaoguan City", "province": "Guangdong", "country": "China"}}, {"type": "Feature", "geometry": {"type": "Point", "coordinates": [111.5727, 31.17298]}, "properties": {"date": "2020-01-23", "new": 1, "total": 1, "city": "Yuan'An County, Yichang City", "province": "Hubei", "country": "China"}}, {"type": "Feature", "geometry": {"type": "Point", "coordinates": [117.7166, 31.646959999999996]}, "properties": {"date": "2020-01-23", "new": 0, "total": 1, "city": "Chaohu City, Hefei City", "province": "Anhui", "country": "China"}}, {"type": "Feature", "geometry": {"type": "Point", "coordinates": [117.3428, 31.79444]}, "properties": {"date": "2020-01-23", "new": 1, "total": 1, "city": "Hefei City", "province": "Anhui", "country": "China"}}, {"type": "Feature", "geometry": {"type": "Point", "coordinates": [119.1789, 26.05196]}, "properties": {"date": "2020-01-23", "new": 1, "total": 2, "city": "Fuzhou City", "province": "Fujian", "country": "China"}}, {"type": "Feature", "geometry": {"type": "Point", "coordinates": [116.3151, 31.75941]}, "properties": {"date": "2020-01-23", "new": 1, "total": 1, "city": "Lu'An City", "province": "Anhui", "country": "China"}}, {"type": "Feature", "geometry": {"type": "Point", "coordinates": [119.4745, 26.976740000000003]}, "properties": {"date": "2020-01-23", "new": 1, "total": 1, "city": "Ningde City", "province": "Fujian", "country": "China"}}, {"type": "Feature", "geometry": {"type": "Point", "coordinates": [118.2574, 25.21145]}, "properties": {"date": "2020-01-23", "new": 1, "total": 1, "city": "Quanzhou City", "province": "Fujian", "country": "China"}}, {"type": "Feature", "geometry": {"type": "Point", "coordinates": [118.1138, 24.67595]}, "properties": {"date": "2020-01-23", "new": 1, "total": 1, "city": "Xiamen City", "province": "Fujian", "country": "China"}}, {"type": "Feature", "geometry": {"type": "Point", "coordinates": [110.5145, 25.35865]}, "properties": {"date": "2020-01-23", "new": 2, "total": 2, "city": "Guilin City", "province": "Guangxi", "country": "China"}}, {"type": "Feature", "geometry": {"type": "Point", "coordinates": [103.6554, 36.351259999999996]}, "properties": {"date": "2020-01-23", "new": 1, "total": 1, "city": "Lanzhou City", "province": "Gansu", "country": "China"}}, {"type": "Feature", "geometry": {"type": "Point", "coordinates": [112.9444, 23.0131]}, "properties": {"date": "2020-01-23", "new": 0, "total": 1, "city": "Foshan City", "province": "Guangdong", "country": "China"}}, {"type": "Feature", "geometry": {"type": "Point", "coordinates": [113.5364, 23.349829999999997]}, "properties": {"date": "2020-01-23", "new": 2, "total": 2, "city": "Guangzhou City", "province": "Guangdong", "country": "China"}}, {"type": "Feature", "geometry": {"type": "Point", "coordinates": [126.9017, 34.86927]}, "properties": {"date": "2020-01-23", "new": 0, "total": 1, "city": "", "province": "South Jeolla", "country": "South Korea"}}, {"type": "Feature", "geometry": {"type": "Point", "coordinates": [115.7036, 32.9188]}, "properties": {"date": "2020-01-23", "new": 1, "total": 1, "city": "Fuyang City", "province": "Anhui", "country": "China"}}, {"type": "Feature", "geometry": {"type": "Point", "coordinates": [113.5364, 23.349829999999997]}, "properties": {"date": "2020-01-23", "new": 3, "total": 3, "city": "Guangzhou City", "province": "Guangdong", "country": "China"}}, {"type": "Feature", "geometry": {"type": "Point", "coordinates": [113.7723, 24.82198]}, "properties": {"date": "2020-01-23", "new": 2, "total": 2, "city": "Shaoguan City", "province": "Guangdong", "country": "China"}}, {"type": "Feature", "geometry": {"type": "Point", "coordinates": [114.1291, 22.65389]}, "properties": {"date": "2020-01-23", "new": 0, "total": 9, "city": "Shenzhen City", "province": "Guangdong", "country": "China"}}, {"type": "Feature", "geometry": {"type": "Point", "coordinates": [116.5956, 30.61122]}, "properties": {"date": "2020-01-23", "new": 1, "total": 1, "city": "Anqing City", "province": "Anhui", "country": "China"}}, {"type": "Feature", "geometry": {"type": "Point", "coordinates": [114.1291, 22.65389]}, "properties": {"date": "2020-01-23", "new": 6, "total": 6, "city": "Shenzhen City", "province": "Guangdong", "country": "China"}}, {"type": "Feature", "geometry": {"type": "Point", "coordinates": [117.3658, 30.28525]}, "properties": {"date": "2020-01-23", "new": 1, "total": 1, "city": "Chizhou City", "province": "Anhui", "country": "China"}}, {"type": "Feature", "geometry": {"type": "Point", "coordinates": [110.1654, 21.10003]}, "properties": {"date": "2020-01-23", "new": 0, "total": 2, "city": "Zhanjiang City", "province": "Guangdong", "country": "China"}}, {"type": "Feature", "geometry": {"type": "Point", "coordinates": [112.2026, 23.54164]}, "properties": {"date": "2020-01-23", "new": 1, "total": 1, "city": "Zhaoqing City", "province": "Guangdong", "country": "China"}}, {"type": "Feature", "geometry": {"type": "Point", "coordinates": [113.3859, 22.52105]}, "properties": {"date": "2020-01-23", "new": 1, "total": 1, "city": "Zhongshan City", "province": "Guangdong", "country": "China"}}, {"type": "Feature", "geometry": {"type": "Point", "coordinates": [113.361, 22.16925]}, "properties": {"date": "2020-01-23", "new": 0, "total": 1, "city": "Zhuhai City", "province": "Guangdong", "country": "China"}}, {"type": "Feature", "geometry": {"type": "Point", "coordinates": [116.2063, 40.20789]}, "properties": {"date": "2020-01-23", "new": 0, "total": 1, "city": "Changping District", "province": "Beijing", "country": "China"}}, {"type": "Feature", "geometry": {"type": "Point", "coordinates": [117.3319, 31.77863]}, "properties": {"date": "2020-01-23", "new": 1, "total": 1, "city": "Baohe District, Hefei City", "province": "Anhui", "country": "China"}}, {"type": "Feature", "geometry": {"type": "Point", "coordinates": [116.4172, 39.642379999999996]}, "properties": {"date": "2020-01-23", "new": 0, "total": 2, "city": "Daxing District", "province": "Beijing", "country": "China"}}, {"type": "Feature", "geometry": {"type": "Point", "coordinates": [107.1928, 26.43055]}, "properties": {"date": "2020-01-23", "new": 0, "total": 1, "city": "Guiding County, Qiannan Prefecture", "province": "Guizhou", "country": "China"}}, {"type": "Feature", "geometry": {"type": "Point", "coordinates": [106.7064, 26.84311]}, "properties": {"date": "2020-01-23", "new": 0, "total": 1, "city": "Guiyang City", "province": "Guizhou", "country": "China"}}, {"type": "Feature", "geometry": {"type": "Point", "coordinates": [108.5408, 27.973740000000003]}, "properties": {"date": "2020-01-23", "new": 0, "total": 1, "city": "Tongren City", "province": "Guizhou", "country": "China"}}, {"type": "Feature", "geometry": {"type": "Point", "coordinates": [114.4384, 38.13361]}, "properties": {"date": "2020-01-23", "new": 1, "total": 1, "city": "Shijiazhuang City", "province": "Hebei", "country": "China"}}, {"type": "Feature", "geometry": {"type": "Point", "coordinates": [118.8424, 31.92997]}, "properties": {"date": "2020-01-23", "new": 1, "total": 1, "city": "Nanjing City", "province": "Jiangsu", "country": "China"}}, {"type": "Feature", "geometry": {"type": "Point", "coordinates": [120.6418, 31.378020000000003]}, "properties": {"date": "2020-01-23", "new": 0, "total": 1, "city": "Suzhou City", "province": "Jiangsu", "country": "China"}}, {"type": "Feature", "geometry": {"type": "Point", "coordinates": [127.9588, 45.646570000000004]}, "properties": {"date": "2020-01-23", "new": 1, "total": 1, "city": "Harbin City", "province": "Heilongjiang", "country": "China"}}, {"type": "Feature", "geometry": {"type": "Point", "coordinates": [129.8858, 44.6065]}, "properties": {"date": "2020-01-23", "new": 1, "total": 1, "city": "Mudanjiang City", "province": "Heilongjiang", "country": "China"}}, {"type": "Feature", "geometry": {"type": "Point", "coordinates": [113.46799999999999, 34.62931]}, "properties": {"date": "2020-01-23", "new": 1, "total": 3, "city": "Zhengzhou City", "province": "Henan", "country": "China"}}, {"type": "Feature", "geometry": {"type": "Point", "coordinates": [111.1065, 34.36358]}, "properties": {"date": "2020-01-23", "new": 0, "total": 1, "city": "Sanmenxia City", "province": "Henan", "country": "China"}}, {"type": "Feature", "geometry": {"type": "Point", "coordinates": [112.0323, 34.2936]}, "properties": {"date": "2020-01-23", "new": 0, "total": 1, "city": "Luoyang City", "province": "Henan", "country": "China"}}, {"type": "Feature", "geometry": {"type": "Point", "coordinates": [114.084, 35.26547]}, "properties": {"date": "2020-01-23", "new": 1, "total": 1, "city": "Xinxiang City", "province": "Henan", "country": "China"}}, {"type": "Feature", "geometry": {"type": "Point", "coordinates": [114.8773, 33.723859999999995]}, "properties": {"date": "2020-01-23", "new": 1, "total": 1, "city": "Zhoukou City", "province": "Henan", "country": "China"}}, {"type": "Feature", "geometry": {"type": "Point", "coordinates": [114.1324, 22.38074]}, "properties": {"date": "2020-01-23", "new": 0, "total": 2, "city": "Hong Kong", "province": "Hong Kong", "country": "China"}}, {"type": "Feature", "geometry": {"type": "Point", "coordinates": [113.1532, 28.227590000000003]}, "properties": {"date": "2020-01-23", "new": 0, "total": 1, "city": "Changsha City", "province": "Hunan", "country": "China"}}, {"type": "Feature", "geometry": {"type": "Point", "coordinates": [109.9751, 27.641059999999996]}, "properties": {"date": "2020-01-23", "new": 0, "total": 3, "city": "Hecheng District, Huaihua City", "province": "Hunan", "country": "China"}}, {"type": "Feature", "geometry": {"type": "Point", "coordinates": [116.1737, 39.92715]}, "properties": {"date": "2020-01-23", "new": 0, "total": 1, "city": "Shijingshan District", "province": "Beijing", "country": "China"}}, {"type": "Feature", "geometry": {"type": "Point", "coordinates": [118.8424, 31.92997]}, "properties": {"date": "2020-01-23", "new": 1, "total": 1, "city": "Nanjing City", "province": "Jiangsu", "country": "China"}}, {"type": "Feature", "geometry": {"type": "Point", "coordinates": [119.1325, 34.534]}, "properties": {"date": "2020-01-23", "new": 1, "total": 1, "city": "Lianyungang City", "province": "Jiangsu", "country": "China"}}, {"type": "Feature", "geometry": {"type": "Point", "coordinates": [119.4729, 32.73976]}, "properties": {"date": "2020-01-23", "new": 1, "total": 1, "city": "Yangzhou City", "province": "Jiangsu", "country": "China"}}, {"type": "Feature", "geometry": {"type": "Point", "coordinates": [116.1737, 39.92715]}, "properties": {"date": "2020-01-23", "new": 1, "total": 1, "city": "Shijingshan District", "province": "Beijing", "country": "China"}}, {"type": "Feature", "geometry": {"type": "Point", "coordinates": [116.6081, 28.218759999999996]}, "properties": {"date": "2020-01-23", "new": 0, "total": 1, "city": "Dongxiang County, Fuzhou City", "province": "Jiangxi", "country": "China"}}, {"type": "Feature", "geometry": {"type": "Point", "coordinates": [110.3326, 19.875410000000002]}, "properties": {"date": "2020-01-23", "new": 1, "total": 1, "city": "Longhua District, Haikou City", "province": "Hainan", "country": "China"}}, {"type": "Feature", "geometry": {"type": "Point", "coordinates": [110.2876, 18.83795]}, "properties": {"date": "2020-01-23", "new": 1, "total": 1, "city": "Wanning City", "province": "Hainan", "country": "China"}}, {"type": "Feature", "geometry": {"type": "Point", "coordinates": [110.771, 19.74459]}, "properties": {"date": "2020-01-23", "new": 1, "total": 1, "city": "Wenchang City", "province": "Hainan", "country": "China"}}, {"type": "Feature", "geometry": {"type": "Point", "coordinates": [116.0257, 28.66149]}, "properties": {"date": "2020-01-23", "new": 0, "total": 1, "city": "Nanchang City", "province": "Jiangxi", "country": "China"}}, {"type": "Feature", "geometry": {"type": "Point", "coordinates": [125.76899999999999, 44.38803]}, "properties": {"date": "2020-01-23", "new": 1, "total": 1, "city": "Changchun City", "province": "Jilin", "country": "China"}}, {"type": "Feature", "geometry": {"type": "Point", "coordinates": [124.4795, 44.80382]}, "properties": {"date": "2020-01-23", "new": 1, "total": 1, "city": "Songyuan City", "province": "Jilin", "country": "China"}}, {"type": "Feature", "geometry": {"type": "Point", "coordinates": [126.8481, 43.58859]}, "properties": {"date": "2020-01-23", "new": 1, "total": 1, "city": "Jilin City", "province": "Jilin", "country": "China"}}, {"type": "Feature", "geometry": {"type": "Point", "coordinates": [122.2224, 39.59944]}, "properties": {"date": "2020-01-23", "new": 0, "total": 1, "city": "Dalian City", "province": "Liaoning", "country": "China"}}, {"type": "Feature", "geometry": {"type": "Point", "coordinates": [123.1391, 42.100120000000004]}, "properties": {"date": "2020-01-23", "new": 1, "total": 1, "city": "Shenyang City", "province": "Liaoning", "country": "China"}}, {"type": "Feature", "geometry": {"type": "Point", "coordinates": [120.0166, 41.51421]}, "properties": {"date": "2020-01-23", "new": 1, "total": 1, "city": "Chaoyang City", "province": "Liaoning", "country": "China"}}, {"type": "Feature", "geometry": {"type": "Point", "coordinates": [113.55, 22.166667]}, "properties": {"date": "2020-01-23", "new": 1, "total": 1, "city": "Border Checkpoint", "province": "Macau", "country": "China"}}, {"type": "Feature", "geometry": {"type": "Point", "coordinates": [113.55, 22.166667]}, "properties": {"date": "2020-01-23", "new": 0, "total": 1, "city": "Landmark Hotel", "province": "Macau", "country": "China"}}, {"type": "Feature", "geometry": {"type": "Point", "coordinates": [106.3496, 38.2349]}, "properties": {"date": "2020-01-23", "new": 0, "total": 1, "city": "Yinchuan City", "province": "Ningxia", "country": "China"}}, {"type": "Feature", "geometry": {"type": "Point", "coordinates": [105.4777, 37.0548]}, "properties": {"date": "2020-01-23", "new": 1, "total": 1, "city": "Zhongwei City", "province": "Ningxia", "country": "China"}}, {"type": "Feature", "geometry": {"type": "Point", "coordinates": [121.9821, 37.12174]}, "properties": {"date": "2020-01-23", "new": 0, "total": 1, "city": "Weihai City", "province": "Shandong", "country": "China"}}, {"type": "Feature", "geometry": {"type": "Point", "coordinates": [116.3591, 39.91093]}, "properties": {"date": "2020-01-23", "new": 0, "total": 1, "city": "Xicheng District", "province": "Beijing", "country": "China"}}, {"type": "Feature", "geometry": {"type": "Point", "coordinates": [118.2809, 35.31235]}, "properties": {"date": "2020-01-23", "new": 0, "total": 2, "city": "Linyi City", "province": "Shandong", "country": "China"}}, {"type": "Feature", "geometry": {"type": "Point", "coordinates": [120.1436, 36.454840000000004]}, "properties": {"date": "2020-01-23", "new": 3, "total": 3, "city": "Qingdao City", "province": "Shandong", "country": "China"}}, {"type": "Feature", "geometry": {"type": "Point", "coordinates": [116.4151, 40.18535]}, "properties": {"date": "2020-01-23", "new": 0, "total": 1, "city": "", "province": "Beijing", "country": "China"}}, {"type": "Feature", "geometry": {"type": "Point", "coordinates": [117.22484399999999, 31.828313]}, "properties": {"date": "2020-01-23", "new": 1, "total": 1, "city": "High-Tech Zone, Hefei City", "province": "Anhui", "country": "China"}}, {"type": "Feature", "geometry": {"type": "Point", "coordinates": [139.339, 35.41557]}, "properties": {"date": "2020-01-23", "new": 0, "total": 1, "city": "", "province": "Kanagawa Prefecture", "country": "Japan"}}, {"type": "Feature", "geometry": {"type": "Point", "coordinates": [121.4555, 31.2045]}, "properties": {"date": "2020-01-23", "new": 0, "total": 5, "city": "", "province": "Shanghai", "country": "China"}}, {"type": "Feature", "geometry": {"type": "Point", "coordinates": [112.3157, 37.96001]}, "properties": {"date": "2020-01-23", "new": 0, "total": 1, "city": "Taiyuan City", "province": "Shanxi", "country": "China"}}, {"type": "Feature", "geometry": {"type": "Point", "coordinates": [103.8256, 30.70291]}, "properties": {"date": "2020-01-23", "new": 2, "total": 4, "city": "Chengdu City", "province": "Sichuan", "country": "China"}}, {"type": "Feature", "geometry": {"type": "Point", "coordinates": [87.78531, 43.73043]}, "properties": {"date": "2020-01-23", "new": 1, "total": 1, "city": "Urumqi City", "province": "Xinjiang", "country": "China"}}, {"type": "Feature", "geometry": {"type": "Point", "coordinates": [107.6465, 31.370140000000003]}, "properties": {"date": "2020-01-23", "new": 1, "total": 1, "city": "Dazhou City", "province": "Sichuan", "country": "China"}}, {"type": "Feature", "geometry": {"type": "Point", "coordinates": [104.7008, 31.8534]}, "properties": {"date": "2020-01-23", "new": 0, "total": 2, "city": "Mianyang City", "province": "Sichuan", "country": "China"}}, {"type": "Feature", "geometry": {"type": "Point", "coordinates": [102.8739, 25.39236]}, "properties": {"date": "2020-01-23", "new": 1, "total": 2, "city": "Kunming City", "province": "Yunnan", "country": "China"}}, {"type": "Feature", "geometry": {"type": "Point", "coordinates": [116.4151, 40.18535]}, "properties": {"date": "2020-01-23", "new": 3, "total": 3, "city": "", "province": "Beijing", "country": "China"}}, {"type": "Feature", "geometry": {"type": "Point", "coordinates": [120.4404, 27.905379999999997]}, "properties": {"date": "2020-01-23", "new": 0, "total": 2, "city": "Wenzhou City", "province": "Zhejiang", "country": "China"}}, {"type": "Feature", "geometry": {"type": "Point", "coordinates": [120.7547, 30.63995]}, "properties": {"date": "2020-01-23", "new": 3, "total": 3, "city": "Jiaxing City", "province": "Zhejiang", "country": "China"}}, {"type": "Feature", "geometry": {"type": "Point", "coordinates": [120.63600000000001, 29.7353]}, "properties": {"date": "2020-01-23", "new": 1, "total": 1, "city": "Shaoxing City", "province": "Zhejiang", "country": "China"}}, {"type": "Feature", "geometry": {"type": "Point", "coordinates": [117.22484399999999, 31.828313]}, "properties": {"date": "2020-01-23", "new": 1, "total": 1, "city": "High-Tech Zone, Hefei City", "province": "Anhui", "country": "China"}}, {"type": "Feature", "geometry": {"type": "Point", "coordinates": [121.1116, 28.775]}, "properties": {"date": "2020-01-23", "new": 8, "total": 8, "city": "Taizhou City", "province": "Zhejiang", "country": "China"}}, {"type": "Feature", "geometry": {"type": "Point", "coordinates": [116.4151, 40.18535]}, "properties": {"date": "2020-01-23", "new": 1, "total": 1, "city": "", "province": "Beijing", "country": "China"}}, {"type": "Feature", "geometry": {"type": "Point", "coordinates": [121.1116, 28.775]}, "properties": {"date": "2020-01-23", "new": 4, "total": 4, "city": "Taizhou City", "province": "Zhejiang", "country": "China"}}, {"type": "Feature", "geometry": {"type": "Point", "coordinates": [117.5681, 32.00123]}, "properties": {"date": "2020-01-23", "new": 1, "total": 1, "city": "Feidong County, Hefei City", "province": "Anhui", "country": "China"}}, {"type": "Feature", "geometry": {"type": "Point", "coordinates": [102.6656, 29.92197]}, "properties": {"date": "2020-01-23", "new": 1, "total": 1, "city": "Ya'An City", "province": "Sichuan", "country": "China"}}, {"type": "Feature", "geometry": {"type": "Point", "coordinates": [109.7462, 19.1987]}, "properties": {"date": "2020-01-23", "new": 0, "total": 1, "city": "", "province": "Hainan", "country": "China"}}, {"type": "Feature", "geometry": {"type": "Point", "coordinates": [110.4894, 19.74837]}, "properties": {"date": "2020-01-23", "new": 0, "total": 1, "city": "Qiongshan District, Haikou City", "province": "Hainan", "country": "China"}}, {"type": "Feature", "geometry": {"type": "Point", "coordinates": [109.7128, 19.80185]}, "properties": {"date": "2020-01-23", "new": 0, "total": 1, "city": "Lingao County", "province": "Hainan", "country": "China"}}, {"type": "Feature", "geometry": {"type": "Point", "coordinates": [109.4197, 18.39084]}, "properties": {"date": "2020-01-23", "new": 1, "total": 2, "city": "Sanya City", "province": "Hainan", "country": "China"}}, {"type": "Feature", "geometry": {"type": "Point", "coordinates": [103.8256, 30.70291]}, "properties": {"date": "2020-01-23", "new": 3, "total": 3, "city": "Chengdu City", "province": "Sichuan", "country": "China"}}, {"type": "Feature", "geometry": {"type": "Point", "coordinates": [106.6635, 30.42717]}, "properties": {"date": "2020-01-23", "new": 1, "total": 1, "city": "Guang'An City", "province": "Sichuan", "country": "China"}}, {"type": "Feature", "geometry": {"type": "Point", "coordinates": [104.4301, 31.13417]}, "properties": {"date": "2020-01-23", "new": 1, "total": 1, "city": "Deyang City", "province": "Sichuan", "country": "China"}}, {"type": "Feature", "geometry": {"type": "Point", "coordinates": [105.4711, 30.633309999999998]}, "properties": {"date": "2020-01-23", "new": 1, "total": 1, "city": "Suining City", "province": "Sichuan", "country": "China"}}, {"type": "Feature", "geometry": {"type": "Point", "coordinates": [139.4468, 35.71145]}, "properties": {"date": "2020-01-23", "new": 0, "total": 1, "city": "", "province": "Tokyo", "country": "Japan"}}, {"type": "Feature", "geometry": {"type": "Point", "coordinates": [103.8345, 1.280224]}, "properties": {"date": "2020-01-23", "new": 1, "total": 1, "city": "Singapore General Hospital", "province": "", "country": "Singapore"}}, {"type": "Feature", "geometry": {"type": "Point", "coordinates": [126.443389, 37.462026]}, "properties": {"date": "2020-01-23", "new": 0, "total": 1, "city": "Incheon Airport", "province": "", "country": "South Korea"}}, {"type": "Feature", "geometry": {"type": "Point", "coordinates": [121.2348, 25.0797]}, "properties": {"date": "2020-01-23", "new": 0, "total": 1, "city": "Taoyuan International Airport", "province": "Taiwan", "country": ""}}, {"type": "Feature", "geometry": {"type": "Point", "coordinates": [100.5363, 13.76658]}, "properties": {"date": "2020-01-23", "new": 0, "total": 2, "city": "Bangkok", "province": "Bangkok Metropolis", "country": "Thailand"}}, {"type": "Feature", "geometry": {"type": "Point", "coordinates": [109.1967, 12.2388]}, "properties": {"date": "2020-01-23", "new": 2, "total": 2, "city": "Nha Trang", "province": "Khanh Hoa", "country": "Vietnam"}}]