[{"type": "Feature", "geometry": {"type": "Point", "coordinates": [126.9017, 34.86927]}, "properties": {"date": "2020-01-24", "new": 0, "total": 1, "city": "", "province": "South Jeolla", "country": "South Korea"}}, {"type": "Feature", "geometry": {"type": "Point", "coordinates": [113.3859, 22.52105]}, "properties": {"date": "2020-01-24", "new": 0, "total": 1, "city": "Zhongshan City", "province": "Guangdong", "country": "China"}}, {"type": "Feature", "geometry": {"type": "Point", "coordinates": [113.361, 22.16925]}, "properties": {"date": "2020-01-24", "new": 0, "total": 4, "city": "Zhuhai City", "province": "Guangdong", "country": "China"}}, {"type": "Feature", "geometry": {"type": "Point", "coordinates": [110.5145, 25.35865]}, "properties": {"date": "2020-01-24", "new": 0, "total": 2, "city": "Guilin City", "province": "Guangxi", "country": "China"}}, {"type": "Feature", "geometry": {"type": "Point", "coordinates": [115.7036, 32.9188]}, "properties": {"date": "2020-01-24", "new": 0, "total": 1, "city": "Fuyang City", "province": "Anhui", "country": "China"}}, {"type": "Feature", "geometry": {"type": "Point", "coordinates": [103.2668, 36.60351]}, "properties": {"date": "2020-01-24", "new": 1, "total": 1, "city": "Yongdeng County, Lanzhou City", "province": "Gansu", "country": "China"}}, {"type": "Feature", "geometry": {"type": "Point", "coordinates": [103.2798, 35.63012]}, "properties": {"date": "2020-01-24", "new": 1, "total": 1, "city": "Linxia Prefecture", "province": "Gansu", "country": "China"}}, {"type": "Feature", "geometry": {"type": "Point", "coordinates": [2.342325, 48.85666]}, "properties": {"date": "2020-01-24", "new": 2, "total": 2, "city": "Paris", "province": "Ile-De-France", "country": "France"}}, {"type": "Feature", "geometry": {"type": "Point", "coordinates": [111.7726, 22.037689999999998]}, "properties": {"date": "2020-01-24", "new": 3, "total": 3, "city": "Yangjiang City", "province": "Guangdong", "country": "China"}}, {"type": "Feature", "geometry": {"type": "Point", "coordinates": [112.8749, 24.31602]}, "properties": {"date": "2020-01-24", "new": 1, "total": 1, "city": "Qingyuan City", "province": "Guangdong", "country": "China"}}, {"type": "Feature", "geometry": {"type": "Point", "coordinates": [113.5364, 23.349829999999997]}, "properties": {"date": "2020-01-24", "new": 2, "total": 2, "city": "Guangzhou City", "province": "Guangdong", "country": "China"}}, {"type": "Feature", "geometry": {"type": "Point", "coordinates": [113.361, 22.16925]}, "properties": {"date": "2020-01-24", "new": 4, "total": 4, "city": "Zhuhai City", "province": "Guangdong", "country": "China"}}, {"type": "Feature", "geometry": {"type": "Point", "coordinates": [116.5956, 30.61122]}, "properties": {"date": "2020-01-24", "new": 0, "total": 1, "city": "Anqing City", "province": "Anhui", "country": "China"}}, {"type": "Feature", "geometry": {"type": "Point", "coordinates": [112.9444, 23.0131]}, "properties": {"date": "2020-01-24", "new": 3, "total": 3, "city": "Foshan City", "province": "Guangdong", "country": "China"}}, {"type": "Feature", "geometry": {"type": "Point", "coordinates": [112.9444, 23.0131]}, "properties": {"date": "2020-01-24", "new": 2, "total": 2, "city": "Foshan City", "province": "Guangdong", "country": "China"}}, {"type": "Feature", "geometry": {"type": "Point", "coordinates": [113.7723, 24.82198]}, "properties": {"date": "2020-01-24", "new": 1, "total": 1, "city": "Shaoguan City", "province": "Guangdong", "country": "China"}}, {"type": "Feature", "geometry": {"type": "Point", "coordinates": [114.4983, 23.24435]}, "properties": {"date": "2020-01-24", "new": 4, "total": 4, "city": "Huizhou City", "province": "Guangdong", "country": "China"}}, {"type": "Feature", "geometry": {"type": "Point", "coordinates": [117.3658, 30.28525]}, "properties": {"date": "2020-01-24", "new": 0, "total": 1, "city": "Chizhou City", "province": "Anhui", "country": "China"}}, {"type": "Feature", "geometry": {"type": "Point", "coordinates": [113.3859, 22.52105]}, "properties": {"date": "2020-01-24", "new": 1, "total": 1, "city": "Zhongshan City", "province": "Guangdong", "country": "China"}}, {"type": "Feature", "geometry": {"type": "Point", "coordinates": [109.32799999999999, 21.676660000000002]}, "properties": {"date": "2020-01-24", "new": 0, "total": 1, "city": "Beihai City", "province": "Guangxi", "country": "China"}}, {"type": "Feature", "geometry": {"type": "Point", "coordinates": [109.32799999999999, 21.676660000000002]}, "properties": {"date": "2020-01-24", "new": 3, "total": 4, "city": "Beihai City", "province": "Guangxi", "country": "China"}}, {"type": "Feature", "geometry": {"type": "Point", "coordinates": [109.37100000000001, 24.95009]}, "properties": {"date": "2020-01-24", "new": 1, "total": 2, "city": "Liuzhou City", "province": "Guangxi", "country": "China"}}, {"type": "Feature", "geometry": {"type": "Point", "coordinates": [110.9909, 23.481720000000003]}, "properties": {"date": "2020-01-24", "new": 0, "total": 1, "city": "Wuzhou City", "province": "Guangxi", "country": "China"}}, {"type": "Feature", "geometry": {"type": "Point", "coordinates": [110.5145, 25.35865]}, "properties": {"date": "2020-01-24", "new": 2, "total": 2, "city": "Guilin City", "province": "Guangxi", "country": "China"}}, {"type": "Feature", "geometry": {"type": "Point", "coordinates": [106.2863, 23.98862]}, "properties": {"date": "2020-01-24", "new": 1, "total": 1, "city": "Baise City", "province": "Guangxi", "country": "China"}}, {"type": "Feature", "geometry": {"type": "Point", "coordinates": [107.8409, 24.64574]}, "properties": {"date": "2020-01-24", "new": 3, "total": 3, "city": "Hechi City", "province": "Guangxi", "country": "China"}}, {"type": "Feature", "geometry": {"type": "Point", "coordinates": [110.5145, 25.35865]}, "properties": {"date": "2020-01-24", "new": 2, "total": 2, "city": "Guilin City", "province": "Guangxi", "country": "China"}}, {"type": "Feature", "geometry": {"type": "Point", "coordinates": [116.2063, 40.20789]}, "properties": {"date": "2020-01-24", "new": 0, "total": 1, "city": "Changping District", "province": "Beijing", "country": "China"}}, {"type": "Feature", "geometry": {"type": "Point", "coordinates": [109.37100000000001, 24.95009]}, "properties": {"date": "2020-01-24", "new": 1, "total": 1, "city": "Liuzhou City", "province": "Guangxi", "country": "China"}}, {"type": "Feature", "geometry": {"type": "Point", "coordinates": [107.9967, 21.88401]}, "properties": {"date": "2020-01-24", "new": 1, "total": 1, "city": "Fangchenggang City", "province": "Guangxi", "country": "China"}}, {"type": "Feature", "geometry": {"type": "Point", "coordinates": [107.9967, 21.88401]}, "properties": {"date": "2020-01-24", "new": 1, "total": 1, "city": "Fangchenggang City", "province": "Guangxi", "country": "China"}}, {"type": "Feature", "geometry": {"type": "Point", "coordinates": [110.182, 22.44296]}, "properties": {"date": "2020-01-24", "new": 1, "total": 1, "city": "Yulin City", "province": "Guangxi", "country": "China"}}, {"type": "Feature", "geometry": {"type": "Point", "coordinates": [107.1928, 26.43055]}, "properties": {"date": "2020-01-24", "new": 0, "total": 1, "city": "Guiding County, Qiannan Prefecture", "province": "Guizhou", "country": "China"}}, {"type": "Feature", "geometry": {"type": "Point", "coordinates": [106.7064, 26.84311]}, "properties": {"date": "2020-01-24", "new": 0, "total": 1, "city": "Guiyang City", "province": "Guizhou", "country": "China"}}, {"type": "Feature", "geometry": {"type": "Point", "coordinates": [108.5408, 27.973740000000003]}, "properties": {"date": "2020-01-24", "new": 0, "total": 1, "city": "Tongren City", "province": "Guizhou", "country": "China"}}, {"type": "Feature", "geometry": {"type": "Point", "coordinates": [116.2063, 40.20789]}, "properties": {"date": "2020-01-24", "new": 0, "total": 1, "city": "Changping District", "province": "Beijing", "country": "China"}}, {"type": "Feature", "geometry": {"type": "Point", "coordinates": [109.7462, 19.1987]}, "properties": {"date": "2020-01-24", "new": 1, "total": 1, "city": "", "province": "Hainan", "country": "China"}}, {"type": "Feature", "geometry": {"type": "Point", "coordinates": [109.71799999999999, 18.36956]}, "properties": {"date": "2020-01-24", "new": 1, "total": 1, "city": "Haitang District, Sanya City", "province": "Hainan", "country": "China"}}, {"type": "Feature", "geometry": {"type": "Point", "coordinates": [109.5792, 18.29187]}, "properties": {"date": "2020-01-24", "new": 1, "total": 1, "city": "Ji Yang District, Sanya City", "province": "Hainan", "country": "China"}}, {"type": "Feature", "geometry": {"type": "Point", "coordinates": [114.4384, 38.13361]}, "properties": {"date": "2020-01-24", "new": 0, "total": 1, "city": "Shijiazhuang City", "province": "Hebei", "country": "China"}}, {"type": "Feature", "geometry": {"type": "Point", "coordinates": [126.6487, 46.90084]}, "properties": {"date": "2020-01-24", "new": 1, "total": 1, "city": "Suihua City", "province": "Heilongjiang", "country": "China"}}, {"type": "Feature", "geometry": {"type": "Point", "coordinates": [127.9588, 45.646570000000004]}, "properties": {"date": "2020-01-24", "new": 0, "total": 1, "city": "Harbin City", "province": "Heilongjiang", "country": "China"}}, {"type": "Feature", "geometry": {"type": "Point", "coordinates": [124.699, 46.35607]}, "properties": {"date": "2020-01-24", "new": 1, "total": 1, "city": "Daqing City", "province": "Heilongjiang", "country": "China"}}, {"type": "Feature", "geometry": {"type": "Point", "coordinates": [129.8858, 44.6065]}, "properties": {"date": "2020-01-24", "new": 0, "total": 1, "city": "Mudanjiang City", "province": "Heilongjiang", "country": "China"}}, {"type": "Feature", "geometry": {"type": "Point", "coordinates": [113.46799999999999, 34.62931]}, "properties": {"date": "2020-01-24", "new": 0, "total": 1, "city": "Zhengzhou City", "province": "Henan", "country": "China"}}, {"type": "Feature", "geometry": {"type": "Point", "coordinates": [116.2063, 40.20789]}, "properties": {"date": "2020-01-24", "new": 0, "total": 1, "city": "Changping District", "province": "Beijing", "country": "China"}}, {"type": "Feature", "geometry": {"type": "Point", "coordinates": [111.1065, 34.36358]}, "properties": {"date": "2020-01-24", "new": 0, "total": 1, "city": "Sanmenxia City", "province": "Henan", "country": "China"}}, {"type": "Feature", "geometry": {"type": "Point", "coordinates": [112.0323, 34.2936]}, "properties": {"date": "2020-01-24", "new": 0, "total": 1, "city": "Luoyang City", "province": "Henan", "country": "China"}}, {"type": "Feature", "geometry": {"type": "Point", "coordinates": [114.1324, 22.38074]}, "properties": {"date": "2020-01-24", "new": 0, "total": 2, "city": "Hong Kong", "province": "Hong Kong", "country": "China"}}, {"type": "Feature", "geometry": {"type": "Point", "coordinates": [116.4172, 39.642379999999996]}, "properties": {"date": "2020-01-24", "new": 0, "total": 1, "city": "Daxing District", "province": "Beijing", "country": "China"}}, {"type": "Feature", "geometry": {"type": "Point", "coordinates": [113.1532, 28.227590000000003]}, "properties": {"date": "2020-01-24", "new": 7, "total": 8, "city": "Changsha City", "province": "Hunan", "country": "China"}}, {"type": "Feature", "geometry": {"type": "Point", "coordinates": [109.9751, 27.641059999999996]}, "properties": {"date": "2020-01-24", "new": 0, "total": 3, "city": "Hecheng District, Huaihua City", "province": "Hunan", "country": "China"}}, {"type": "Feature", "geometry": {"type": "Point", "coordinates": [117.3319, 31.77863]}, "properties": {"date": "2020-01-24", "new": 0, "total": 1, "city": "Baohe District, Hefei City", "province": "Anhui", "country": "China"}}, {"type": "Feature", "geometry": {"type": "Point", "coordinates": [111.7296, 25.779320000000002]}, "properties": {"date": "2020-01-24", "new": 4, "total": 4, "city": "Yongzhou City", "province": "Hunan", "country": "China"}}, {"type": "Feature", "geometry": {"type": "Point", "coordinates": [113.1376, 25.81815]}, "properties": {"date": "2020-01-24", "new": 1, "total": 1, "city": "Chenzhou City", "province": "Hunan", "country": "China"}}, {"type": "Feature", "geometry": {"type": "Point", "coordinates": [113.5158, 27.12398]}, "properties": {"date": "2020-01-24", "new": 1, "total": 1, "city": "Zhuzhou City", "province": "Hunan", "country": "China"}}, {"type": "Feature", "geometry": {"type": "Point", "coordinates": [112.6022, 27.73204]}, "properties": {"date": "2020-01-24", "new": 1, "total": 1, "city": "Xiangtan City", "province": "Hunan", "country": "China"}}, {"type": "Feature", "geometry": {"type": "Point", "coordinates": [113.25399999999999, 29.0682]}, "properties": {"date": "2020-01-24", "new": 3, "total": 3, "city": "Yueyang City", "province": "Hunan", "country": "China"}}, {"type": "Feature", "geometry": {"type": "Point", "coordinates": [111.6133, 27.73964]}, "properties": {"date": "2020-01-24", "new": 3, "total": 3, "city": "Loudi City", "province": "Hunan", "country": "China"}}, {"type": "Feature", "geometry": {"type": "Point", "coordinates": [117.4943, 49.53241]}, "properties": {"date": "2020-01-24", "new": 1, "total": 1, "city": "Manzhouli City, Hulunbuir City", "province": "Inner Mongolia", "country": "China"}}, {"type": "Feature", "geometry": {"type": "Point", "coordinates": [120.6418, 31.378020000000003]}, "properties": {"date": "2020-01-24", "new": 0, "total": 1, "city": "Suzhou City", "province": "Jiangsu", "country": "China"}}, {"type": "Feature", "geometry": {"type": "Point", "coordinates": [116.0257, 28.66149]}, "properties": {"date": "2020-01-24", "new": 1, "total": 2, "city": "Nanchang City", "province": "Jiangxi", "country": "China"}}, {"type": "Feature", "geometry": {"type": "Point", "coordinates": [115.4418, 29.3255]}, "properties": {"date": "2020-01-24", "new": 1, "total": 1, "city": "Jiujiang City", "province": "Jiangxi", "country": "China"}}, {"type": "Feature", "geometry": {"type": "Point", "coordinates": [114.8515, 27.84546]}, "properties": {"date": "2020-01-24", "new": 1, "total": 1, "city": "Xinyu City", "province": "Jiangxi", "country": "China"}}, {"type": "Feature", "geometry": {"type": "Point", "coordinates": [114.8248, 26.97535]}, "properties": {"date": "2020-01-24", "new": 1, "total": 1, "city": "Ji'An City", "province": "Jiangxi", "country": "China"}}, {"type": "Feature", "geometry": {"type": "Point", "coordinates": [116.4344, 27.51128]}, "properties": {"date": "2020-01-24", "new": 3, "total": 3, "city": "Fuzhou City", "province": "Jiangxi", "country": "China"}}, {"type": "Feature", "geometry": {"type": "Point", "coordinates": [116.1737, 39.92715]}, "properties": {"date": "2020-01-24", "new": 0, "total": 1, "city": "Shijingshan District", "province": "Beijing", "country": "China"}}, {"type": "Feature", "geometry": {"type": "Point", "coordinates": [115.2745, 25.71368]}, "properties": {"date": "2020-01-24", "new": 2, "total": 2, "city": "Ganzhou City", "province": "Jiangxi", "country": "China"}}, {"type": "Feature", "geometry": {"type": "Point", "coordinates": [117.4692, 28.77693]}, "properties": {"date": "2020-01-24", "new": 2, "total": 2, "city": "Shangrao City", "province": "Jiangxi", "country": "China"}}, {"type": "Feature", "geometry": {"type": "Point", "coordinates": [-0.5792, 44.8378]}, "properties": {"date": "2020-01-24", "new": 1, "total": 1, "city": "Bordeaux", "province": "Nouvelle-Aquitaine", "country": "France"}}, {"type": "Feature", "geometry": {"type": "Point", "coordinates": [116.0257, 28.66149]}, "properties": {"date": "2020-01-24", "new": 1, "total": 1, "city": "Nanchang City", "province": "Jiangxi", "country": "China"}}, {"type": "Feature", "geometry": {"type": "Point", "coordinates": [114.9732, 28.30755]}, "properties": {"date": "2020-01-24", "new": 1, "total": 1, "city": "Yichun City", "province": "Jiangxi", "country": "China"}}, {"type": "Feature", "geometry": {"type": "Point", "coordinates": [115.4418, 29.3255]}, "properties": {"date": "2020-01-24", "new": 1, "total": 1, "city": "Jiujiang City", "province": "Jiangxi", "country": "China"}}, {"type": "Feature", "geometry": {"type": "Point", "coordinates": [117.2708, 29.309990000000003]}, "properties": {"date": "2020-01-24", "new": 1, "total": 1, "city": "Jingdezhen City", "province": "Jiangxi", "country": "China"}}, {"type": "Feature", "geometry": {"type": "Point", "coordinates": [125.76899999999999, 44.38803]}, "properties": {"date": "2020-01-24", "new": 0, "total": 1, "city": "Changchun City", "province": "Jilin", "country": "China"}}, {"type": "Feature", "geometry": {"type": "Point", "coordinates": [116.1737, 39.92715]}, "properties": {"date": "2020-01-24", "new": 0, "total": 1, "city": "Shijingshan District", "province": "Beijing", "country": "China"}}, {"type": "Feature", "geometry": {"type": "Point", "coordinates": [124.4795, 44.80382]}, "properties": {"date": "2020-01-24", "new": 0, "total": 1, "city": "Songyuan City", "province": "Jilin", "country": "China"}}, {"type": "Feature", "geometry": {"type": "Point", "coordinates": [126.8481, 43.58859]}, "properties": {"date": "2020-01-24", "new": 0, "total": 1, "city": "Jilin City", "province": "Jilin", "country": "China"}}, {"type": "Feature", "geometry": {"type": "Point", "coordinates": [110.3326, 19.875410000000002]}, "properties": {"date": "2020-01-24", "new": 0, "total": 1, "city": "Longhua District, Haikou City", "province": "Hainan", "country": "China"}}, {"type": "Feature", "geometry": {"type": "Point", "coordinates": [110.2876, 18.83795]}, "properties": {"date": "2020-01-24", "new": 0, "total": 1, "city": "Wanning City", "province": "Hainan", "country": "China"}}, {"type": "Feature", "geometry": {"type": "Point", "coordinates": [110.771, 19.74459]}, "properties": {"date": "2020-01-24", "new": 0, "total": 1, "city": "Wenchang City", "province": "Hainan", "country": "China"}}, {"type": "Feature", "geometry": {"type": "Point", "coordinates": [122.2224, 39.59944]}, "properties": {"date": "2020-01-24", "new": 0, "total": 1, "city": "Dalian City", "province": "Liaoning", "country": "China"}}, {"type": "Feature", "geometry": {"type": "Point", "coordinates": [123.1391, 42.100120000000004]}, "properties": {"date": "2020-01-24", "new": 0, "total": 1, "city": "Shenyang City", "province": "Liaoning", "country": "China"}}, {"type": "Feature", "geometry": {"type": "Point", "coordinates": [120.0166, 41.51421]}, "properties": {"date": "2020-01-24", "new": 0, "total": 1, "city": "Chaoyang City", "province": "Liaoning", "country": "China"}}, {"type": "Feature", "geometry": {"type": "Point", "coordinates": [113.55, 22.166667]}, "properties": {"date": "2020-01-24", "new": 0, "total": 2, "city": "Border Checkpoint", "province": "Macau", "country": "China"}}, {"type": "Feature", "geometry": {"type": "Point", "coordinates": [106.3496, 38.2349]}, "properties": {"date": "2020-01-24", "new": 0, "total": 1, "city": "Yinchuan City", "province": "Ningxia", "country": "China"}}, {"type": "Feature", "geometry": {"type": "Point", "coordinates": [105.4777, 37.0548]}, "properties": {"date": "2020-01-24", "new": 0, "total": 1, "city": "Zhongwei City", "province": "Ningxia", "country": "China"}}, {"type": "Feature", "geometry": {"type": "Point", "coordinates": [139.339, 35.41557]}, "properties": {"date": "2020-01-24", "new": 0, "total": 1, "city": "", "province": "Kanagawa Prefecture", "country": "Japan"}}, {"type": "Feature", "geometry": {"type": "Point", "coordinates": [109.3161, 36.44222]}, "properties": {"date": "2020-01-24", "new": 1, "total": 1, "city": "Yan'An City", "province": "Shaanxi", "country": "China"}}, {"type": "Feature", "geometry": {"type": "Point", "coordinates": [108.9258, 32.761829999999996]}, "properties": {"date": "2020-01-24", "new": 1, "total": 1, "city": "Ankang City", "province": "Shaanxi", "country": "China"}}, {"type": "Feature", "geometry": {"type": "Point", "coordinates": [121.9821, 37.12174]}, "properties": {"date": "2020-01-24", "new": 1, "total": 2, "city": "Weihai City", "province": "Shandong", "country": "China"}}, {"type": "Feature", "geometry": {"type": "Point", "coordinates": [118.2809, 35.31235]}, "properties": {"date": "2020-01-24", "new": 0, "total": 2, "city": "Linyi City", "province": "Shandong", "country": "China"}}, {"type": "Feature", "geometry": {"type": "Point", "coordinates": [120.1436, 36.454840000000004]}, "properties": {"date": "2020-01-24", "new": 0, "total": 3, "city": "Qingdao City", "province": "Shandong", "country": "China"}}, {"type": "Feature", "geometry": {"type": "Point", "coordinates": [119.0713, 36.55315]}, "properties": {"date": "2020-01-24", "new": 1, "total": 1, "city": "Weifang City", "province": "Shandong", "country": "China"}}, {"type": "Feature", "geometry": {"type": "Point", "coordinates": [119.1358, 35.58324]}, "properties": {"date": "2020-01-24", "new": 1, "total": 1, "city": "Rizhao City", "province": "Shandong", "country": "China"}}, {"type": "Feature", "geometry": {"type": "Point", "coordinates": [117.0851, 36.734140000000004]}, "properties": {"date": "2020-01-24", "new": 2, "total": 2, "city": "Jinan City", "province": "Shandong", "country": "China"}}, {"type": "Feature", "geometry": {"type": "Point", "coordinates": [120.8051, 37.24217]}, "properties": {"date": "2020-01-24", "new": 2, "total": 2, "city": "Yantai City", "province": "Shandong", "country": "China"}}, {"type": "Feature", "geometry": {"type": "Point", "coordinates": [116.7332, 35.37464]}, "properties": {"date": "2020-01-24", "new": 1, "total": 1, "city": "Jining City", "province": "Shandong", "country": "China"}}, {"type": "Feature", "geometry": {"type": "Point", "coordinates": [120.1436, 36.454840000000004]}, "properties": {"date": "2020-01-24", "new": 1, "total": 1, "city": "Qingdao City", "province": "Shandong", "country": "China"}}, {"type": "Feature", "geometry": {"type": "Point", "coordinates": [116.3591, 39.91093]}, "properties": {"date": "2020-01-24", "new": 0, "total": 1, "city": "Xicheng District", "province": "Beijing", "country": "China"}}, {"type": "Feature", "geometry": {"type": "Point", "coordinates": [121.4555, 31.2045]}, "properties": {"date": "2020-01-24", "new": 0, "total": 5, "city": "", "province": "Shanghai", "country": "China"}}, {"type": "Feature", "geometry": {"type": "Point", "coordinates": [117.3333, 39.297129999999996]}, "properties": {"date": "2020-01-24", "new": 3, "total": 3, "city": "Tianjin City", "province": "Tianjin", "country": "China"}}, {"type": "Feature", "geometry": {"type": "Point", "coordinates": [87.78531, 43.73043]}, "properties": {"date": "2020-01-24", "new": 0, "total": 1, "city": "Urumqi City", "province": "Xinjiang", "country": "China"}}, {"type": "Feature", "geometry": {"type": "Point", "coordinates": [102.8739, 25.39236]}, "properties": {"date": "2020-01-24", "new": 1, "total": 3, "city": "Kunming City", "province": "Yunnan", "country": "China"}}, {"type": "Feature", "geometry": {"type": "Point", "coordinates": [100.9477, 21.93139]}, "properties": {"date": "2020-01-24", "new": 1, "total": 1, "city": "Xishuangbanna Prefecture", "province": "Yunnan", "country": "China"}}, {"type": "Feature", "geometry": {"type": "Point", "coordinates": [100.5235, 26.94233]}, "properties": {"date": "2020-01-24", "new": 1, "total": 1, "city": "Lijiang City", "province": "Yunnan", "country": "China"}}, {"type": "Feature", "geometry": {"type": "Point", "coordinates": [117.5681, 32.00123]}, "properties": {"date": "2020-01-24", "new": 2, "total": 3, "city": "Feidong County, Hefei City", "province": "Anhui", "country": "China"}}, {"type": "Feature", "geometry": {"type": "Point", "coordinates": [115.7036, 32.9188]}, "properties": {"date": "2020-01-24", "new": 5, "total": 5, "city": "Fuyang City", "province": "Anhui", "country": "China"}}, {"type": "Feature", "geometry": {"type": "Point", "coordinates": [107.1356, 29.95723]}, "properties": {"date": "2020-01-24", "new": 0, "total": 1, "city": "Changshou District", "province": "Chongqing", "country": "China"}}, {"type": "Feature", "geometry": {"type": "Point", "coordinates": [116.3151, 31.75941]}, "properties": {"date": "2020-01-24", "new": 1, "total": 1, "city": "Lu'An City", "province": "Anhui", "country": "China"}}, {"type": "Feature", "geometry": {"type": "Point", "coordinates": [108.4023, 30.706120000000002]}, "properties": {"date": "2020-01-24", "new": 0, "total": 2, "city": "Wanzhou District", "province": "Chongqing", "country": "China"}}, {"type": "Feature", "geometry": {"type": "Point", "coordinates": [109.8962, 31.11774]}, "properties": {"date": "2020-01-24", "new": 0, "total": 2, "city": "Wushan County", "province": "Chongqing", "country": "China"}}, {"type": "Feature", "geometry": {"type": "Point", "coordinates": [107.3324, 29.660859999999996]}, "properties": {"date": "2020-01-24", "new": 0, "total": 1, "city": "Fuling District", "province": "Chongqing", "country": "China"}}, {"type": "Feature", "geometry": {"type": "Point", "coordinates": [105.8705, 29.29301]}, "properties": {"date": "2020-01-24", "new": 1, "total": 2, "city": "Yongchuan District", "province": "Chongqing", "country": "China"}}, {"type": "Feature", "geometry": {"type": "Point", "coordinates": [106.4452, 29.41508]}, "properties": {"date": "2020-01-24", "new": 1, "total": 1, "city": "Dadukou District", "province": "Chongqing", "country": "China"}}, {"type": "Feature", "geometry": {"type": "Point", "coordinates": [106.3625, 29.431890000000003]}, "properties": {"date": "2020-01-24", "new": 1, "total": 1, "city": "Jiulongpo District", "province": "Chongqing", "country": "China"}}, {"type": "Feature", "geometry": {"type": "Point", "coordinates": [109.7462, 19.1987]}, "properties": {"date": "2020-01-24", "new": 0, "total": 1, "city": "", "province": "Hainan", "country": "China"}}, {"type": "Feature", "geometry": {"type": "Point", "coordinates": [110.4894, 19.74837]}, "properties": {"date": "2020-01-24", "new": 0, "total": 1, "city": "Qiongshan District, Haikou City", "province": "Hainan", "country": "China"}}, {"type": "Feature", "geometry": {"type": "Point", "coordinates": [109.7128, 19.80185]}, "properties": {"date": "2020-01-24", "new": 0, "total": 1, "city": "Lingao County", "province": "Hainan", "country": "China"}}, {"type": "Feature", "geometry": {"type": "Point", "coordinates": [109.4197, 18.39084]}, "properties": {"date": "2020-01-24", "new": 0, "total": 1, "city": "Sanya City", "province": "Hainan", "country": "China"}}, {"type": "Feature", "geometry": {"type": "Point", "coordinates": [109.4197, 18.39084]}, "properties": {"date": "2020-01-24", "new": 0, "total": 1, "city": "Sanya City", "province": "Hainan", "country": "China"}}, {"type": "Feature", "geometry": {"type": "Point", "coordinates": [103.8256, 30.70291]}, "properties": {"date": "2020-01-24", "new": 0, "total": 3, "city": "Chengdu City", "province": "Sichuan", "country": "China"}}, {"type": "Feature", "geometry": {"type": "Point", "coordinates": [106.7437, 29.81392]}, "properties": {"date": "2020-01-24", "new": 1, "total": 1, "city": "Yubei District", "province": "Chongqing", "country": "China"}}, {"type": "Feature", "geometry": {"type": "Point", "coordinates": [103.8472, 1.322098]}, "properties": {"date": "2020-01-24", "new": 1, "total": 1, "city": "National Centre For Infectious Diseases", "province": "", "country": "Singapore"}}, {"type": "Feature", "geometry": {"type": "Point", "coordinates": [106.6635, 30.42717]}, "properties": {"date": "2020-01-24", "new": 0, "total": 1, "city": "Guang'An City", "province": "Sichuan", "country": "China"}}, {"type": "Feature", "geometry": {"type": "Point", "coordinates": [102.6656, 29.92197]}, "properties": {"date": "2020-01-24", "new": 0, "total": 1, "city": "Ya'An City", "province": "Sichuan", "country": "China"}}, {"type": "Feature", "geometry": {"type": "Point", "coordinates": [104.4301, 31.13417]}, "properties": {"date": "2020-01-24", "new": 0, "total": 1, "city": "Deyang City", "province": "Sichuan", "country": "China"}}, {"type": "Feature", "geometry": {"type": "Point", "coordinates": [105.4711, 30.633309999999998]}, "properties": {"date": "2020-01-24", "new": 0, "total": 1, "city": "Suining City", "province": "Sichuan", "country": "China"}}, {"type": "Feature", "geometry": {"type": "Point", "coordinates": [108.3787, 31.27337]}, "properties": {"date": "2020-01-24", "new": 1, "total": 1, "city": "Kaizhou District", "province": "Chongqing", "country": "China"}}, {"type": "Feature", "geometry": {"type": "Point", "coordinates": [140.3856, 35.76528]}, "properties": {"date": "2020-01-24", "new": 1, "total": 1, "city": "Narita Airport", "province": "Tokyo", "country": "Japan"}}, {"type": "Feature", "geometry": {"type": "Point", "coordinates": [139.4468, 35.71145]}, "properties": {"date": "2020-01-24", "new": 0, "total": 1, "city": "", "province": "Tokyo", "country": "Japan"}}, {"type": "Feature", "geometry": {"type": "Point", "coordinates": [107.9107, 30.338520000000003]}, "properties": {"date": "2020-01-24", "new": 1, "total": 1, "city": "Zhongxian County", "province": "Chongqing", "country": "China"}}, {"type": "Feature", "geometry": {"type": "Point", "coordinates": [109.3445, 30.955209999999997]}, "properties": {"date": "2020-01-24", "new": 1, "total": 1, "city": "Fengjie County", "province": "Chongqing", "country": "China"}}, {"type": "Feature", "geometry": {"type": "Point", "coordinates": [85.324, 27.7172]}, "properties": {"date": "2020-01-24", "new": 1, "total": 1, "city": "Kathmandu", "province": "", "country": "Nepal"}}, {"type": "Feature", "geometry": {"type": "Point", "coordinates": [115.7036, 32.9188]}, "properties": {"date": "2020-01-24", "new": 0, "total": 1, "city": "Fuyang City", "province": "Anhui", "country": "China"}}, {"type": "Feature", "geometry": {"type": "Point", "coordinates": [103.8345, 1.280224]}, "properties": {"date": "2020-01-24", "new": 0, "total": 1, "city": "Singapore General Hospital", "province": "", "country": "Singapore"}}, {"type": "Feature", "geometry": {"type": "Point", "coordinates": [103.8151, 1.35346]}, "properties": {"date": "2020-01-24", "new": 1, "total": 1, "city": "", "province": "", "country": "Singapore"}}, {"type": "Feature", "geometry": {"type": "Point", "coordinates": [126.443389, 37.462026]}, "properties": {"date": "2020-01-24", "new": 0, "total": 1, "city": "Incheon Airport", "province": "", "country": "South Korea"}}, {"type": "Feature", "geometry": {"type": "Point", "coordinates": [126.79055600000001, 37.558056]}, "properties": {"date": "2020-01-24", "new": 1, "total": 1, "city": "Gimpo Airport", "province": "", "country": "South Korea"}}, {"type": "Feature", "geometry": {"type": "Point", "coordinates": [108.8523, 31.03847]}, "properties": {"date": "2020-01-24", "new": 1, "total": 1, "city": "Yunyang County", "province": "Chongqing", "country": "China"}}, {"type": "Feature", "geometry": {"type": "Point", "coordinates": [121.2348, 25.0797]}, "properties": {"date": "2020-01-24", "new": 0, "total": 1, "city": "Taoyuan International Airport", "province": "Taiwan", "country": ""}}, {"type": "Feature", "geometry": {"type": "Point", "coordinates": [120.9559, 23.75947]}, "properties": {"date": "2020-01-24", "new": 2, "total": 2, "city": "", "province": "Taiwan", "country": ""}}, {"type": "Feature", "geometry": {"type": "Point", "coordinates": [100.5363, 13.76658]}, "properties": {"date": "2020-01-24", "new": 1, "total": 3, "city": "Bangkok", "province": "Bangkok Metropolis", "country": "Thailand"}}, {"type": "Feature", "geometry": {"type": "Point", "coordinates": [109.1967, 12.2388]}, "properties": {"date": "2020-01-24", "new": 0, "total": 2, "city": "Nha Trang", "province": "Khanh Hoa", "country": "Vietnam"}}, {"type": "Feature", "geometry": {"type": "Point", "coordinates": [109.3486, 31.5058]}, "properties": {"date": "2020-01-24", "new": 1, "total": 1, "city": "Wuxi County", "province": "Chongqing", "country": "China"}}, {"type": "Feature", "geometry": {"type": "Point", "coordinates": [109.0143, 28.495240000000003]}, "properties": {"date": "2020-01-24", "new": 1, "total": 1, "city": "Xiushan County", "province": "Chongqing", "country": "China"}}, {"type": "Feature", "geometry": {"type": "Point", "coordinates": [106.56700000000001, 29.6426]}, "properties": {"date": "2020-01-24", "new": 1, "total": 1, "city": "Liangjiang New District", "province": "Chongqing", "country": "China"}}, {"type": "Feature", "geometry": {"type": "Point", "coordinates": [108.4023, 30.706120000000002]}, "properties": {"date": "2020-01-24", "new": 1, "total": 1, "city": "Wanzhou District", "province": "Chongqing", "country": "China"}}, {"type": "Feature", "geometry": {"type": "Point", "coordinates": [106.3625, 29.431890000000003]}, "properties": {"date": "2020-01-24", "new": 1, "total": 1, "city": "Jiulongpo District", "province": "Chongqing", "country": "China"}}, {"type": "Feature", "geometry": {"type": "Point", "coordinates": [107.4326, 30.259759999999996]}, "properties": {"date": "2020-01-24", "new": 1, "total": 1, "city": "Dianjiang County", "province": "Chongqing", "country": "China"}}, {"type": "Feature", "geometry": {"type": "Point", "coordinates": [106.7437, 29.81392]}, "properties": {"date": "2020-01-24", "new": 1, "total": 1, "city": "Yubei District", "province": "Chongqing", "country": "China"}}, {"type": "Feature", "geometry": {"type": "Point", "coordinates": [107.1356, 29.95723]}, "properties": {"date": "2020-01-24", "new": 2, "total": 2, "city": "Changshou District", "province": "Chongqing", "country": "China"}}, {"type": "Feature", "geometry": {"type": "Point", "coordinates": [105.8705, 29.29301]}, "properties": {"date": "2020-01-24", "new": 1, "total": 1, "city": "Yongchuan District", "province": "Chongqing", "country": "China"}}, {"type": "Feature", "geometry": {"type": "Point", "coordinates": [119.1789, 26.05196]}, "properties": {"date": "2020-01-24", "new": 0, "total": 2, "city": "Fuzhou City", "province": "Fujian", "country": "China"}}, {"type": "Feature", "geometry": {"type": "Point", "coordinates": [119.4745, 26.976740000000003]}, "properties": {"date": "2020-01-24", "new": 0, "total": 1, "city": "Ningde City", "province": "Fujian", "country": "China"}}, {"type": "Feature", "geometry": {"type": "Point", "coordinates": [118.2574, 25.21145]}, "properties": {"date": "2020-01-24", "new": 0, "total": 1, "city": "Quanzhou City", "province": "Fujian", "country": "China"}}, {"type": "Feature", "geometry": {"type": "Point", "coordinates": [118.1138, 24.67595]}, "properties": {"date": "2020-01-24", "new": 0, "total": 1, "city": "Xiamen City", "province": "Fujian", "country": "China"}}, {"type": "Feature", "geometry": {"type": "Point", "coordinates": [103.6554, 36.351259999999996]}, "properties": {"date": "2020-01-24", "new": 0, "total": 1, "city": "Lanzhou City", "province": "Gansu", "country": "China"}}, {"type": "Feature", "geometry": {"type": "Point", "coordinates": [118.1027, 32.545429999999996]}, "properties": {"date": "2020-01-24", "new": 1, "total": 1, "city": "Chuzhou City", "province": "Anhui", "country": "China"}}, {"type": "Feature", "geometry": {"type": "Point", "coordinates": [117.7166, 31.646959999999996]}, "properties": {"date": "2020-01-24", "new": 0, "total": 1, "city": "Chaohu City, Hefei City", "province": "Anhui", "country": "China"}}, {"type": "Feature", "geometry": {"type": "Point", "coordinates": [117.3428, 31.79444]}, "properties": {"date": "2020-01-24", "new": 0, "total": 1, "city": "Hefei City", "province": "Anhui", "country": "China"}}, {"type": "Feature", "geometry": {"type": "Point", "coordinates": [107.4326, 30.259759999999996]}, "properties": {"date": "2020-01-24", "new": 1, "total": 1, "city": "Dianjiang County", "province": "Chongqing", "country": "China"}}, {"type": "Feature", "geometry": {"type": "Point", "coordinates": [106.7437, 29.81392]}, "properties": {"date": "2020-01-24", "new": 1, "total": 1, "city": "Yubei District", "province": "Chongqing", "country": "China"}}, {"type": "Feature", "geometry": {"type": "Point", "coordinates": [107.1356, 29.95723]}, "properties": {"date": "2020-01-24", "new": 2, "total": 2, "city": "Changshou District", "province": "Chongqing", "country": "China"}}, {"type": "Feature", "geometry": {"type": "Point", "coordinates": [105.8705, 29.29301]}, "properties": {"date": "2020-01-24", "new": 1, "total": 1, "city": "Yongchuan District", "province": "Chongqing", "country": "China"}}, {"type": "Feature", "geometry": {"type": "Point", "coordinates": [119.1789, 26.05196]}, "properties": {"date": "2020-01-24", "new": 0, "total": 2, "city": "Fuzhou City", "province": "Fujian", "country": "China"}}, {"type": "Feature", "geometry": {"type": "Point", "coordinates": [116.3151, 31.75941]}, "properties": {"date": "2020-01-24", "new": 0, "total": 1, "city": "Lu'An City", "province": "Anhui", "country": "China"}}, {"type": "Feature", "geometry": {"type": "Point", "coordinates": [118.1027, 32.545429999999996]}, "properties": {"date": "2020-01-24", "new": 1, "total": 1, "city": "Chuzhou City", "province": "Anhui", "country": "China"}}, {"type": "Feature", "geometry": {"type": "Point", "coordinates": [119.4745, 26.976740000000003]}, "properties": {"date": "2020-01-24", "new": 0, "total": 1, "city": "Ningde City", "province": "Fujian", "country": "China"}}, {"type": "Feature", "geometry": {"type": "Point", "coordinates": [118.2574, 25.21145]}, "properties": {"date": "2020-01-24", "new": 0, "total": 1, "city": "Quanzhou City", "province": "Fujian", "country": "China"}}, {"type": "Feature", "geometry": {"type": "Point", "coordinates": [118.1138, 24.67595]}, "properties": {"date": "2020-01-24", "new": 0, "total": 1, "city": "Xiamen City", "province": "Fujian", "country": "China"}}, {"type": "Feature", "geometry": {"type": "Point", "coordinates": [115.7036, 32.9188]}, "properties": {"date": "2020-01-24", "new": 0, "total": 1, "city": "Fuyang City", "province": "Anhui", "country": "China"}}, {"type": "Feature", "geometry": {"type": "Point", "coordinates": [113.5364, 23.349829999999997]}, "properties": {"date": "2020-01-24", "new": 0, "total": 3, "city": "Guangzhou City", "province": "Guangdong", "country": "China"}}, {"type": "Feature", "geometry": {"type": "Point", "coordinates": [103.2668, 36.60351]}, "properties": {"date": "2020-01-24", "new": 1, "total": 1, "city": "Yongdeng County, Lanzhou City", "province": "Gansu", "country": "China"}}, {"type": "Feature", "geometry": {"type": "Point", "coordinates": [103.2798, 35.63012]}, "properties": {"date": "2020-01-24", "new": 1, "total": 1, "city": "Linxia Prefecture", "province": "Gansu", "country": "China"}}, {"type": "Feature", "geometry": {"type": "Point", "coordinates": [113.7723, 24.82198]}, "properties": {"date": "2020-01-24", "new": 0, "total": 2, "city": "Shaoguan City", "province": "Guangdong", "country": "China"}}, {"type": "Feature", "geometry": {"type": "Point", "coordinates": [114.1291, 22.65389]}, "properties": {"date": "2020-01-24", "new": 0, "total": 9, "city": "Shenzhen City", "province": "Guangdong", "country": "China"}}, {"type": "Feature", "geometry": {"type": "Point", "coordinates": [116.5956, 30.61122]}, "properties": {"date": "2020-01-24", "new": 0, "total": 1, "city": "Anqing City", "province": "Anhui", "country": "China"}}, {"type": "Feature", "geometry": {"type": "Point", "coordinates": [113.361, 22.16925]}, "properties": {"date": "2020-01-24", "new": 4, "total": 7, "city": "Zhuhai City", "province": "Guangdong", "country": "China"}}, {"type": "Feature", "geometry": {"type": "Point", "coordinates": [111.7726, 22.037689999999998]}, "properties": {"date": "2020-01-24", "new": 3, "total": 3, "city": "Yangjiang City", "province": "Guangdong", "country": "China"}}, {"type": "Feature", "geometry": {"type": "Point", "coordinates": [112.8749, 24.31602]}, "properties": {"date": "2020-01-24", "new": 1, "total": 1, "city": "Qingyuan City", "province": "Guangdong", "country": "China"}}, {"type": "Feature", "geometry": {"type": "Point", "coordinates": [113.5364, 23.349829999999997]}, "properties": {"date": "2020-01-24", "new": 2, "total": 2, "city": "Guangzhou City", "province": "Guangdong", "country": "China"}}, {"type": "Feature", "geometry": {"type": "Point", "coordinates": [112.9444, 23.0131]}, "properties": {"date": "2020-01-24", "new": 5, "total": 5, "city": "Foshan City", "province": "Guangdong", "country": "China"}}, {"type": "Feature", "geometry": {"type": "Point", "coordinates": [116.2063, 40.20789]}, "properties": {"date": "2020-01-24", "new": 0, "total": 1, "city": "Changping District", "province": "Beijing", "country": "China"}}, {"type": "Feature", "geometry": {"type": "Point", "coordinates": [113.7723, 24.82198]}, "properties": {"date": "2020-01-24", "new": 1, "total": 1, "city": "Shaoguan City", "province": "Guangdong", "country": "China"}}, {"type": "Feature", "geometry": {"type": "Point", "coordinates": [114.4983, 23.24435]}, "properties": {"date": "2020-01-24", "new": 3, "total": 3, "city": "Huizhou City", "province": "Guangdong", "country": "China"}}, {"type": "Feature", "geometry": {"type": "Point", "coordinates": [114.4983, 23.24435]}, "properties": {"date": "2020-01-24", "new": 1, "total": 1, "city": "Huizhou City", "province": "Guangdong", "country": "China"}}, {"type": "Feature", "geometry": {"type": "Point", "coordinates": [113.3859, 22.52105]}, "properties": {"date": "2020-01-24", "new": 1, "total": 1, "city": "Zhongshan City", "province": "Guangdong", "country": "China"}}, {"type": "Feature", "geometry": {"type": "Point", "coordinates": [116.2063, 40.20789]}, "properties": {"date": "2020-01-24", "new": 0, "total": 1, "city": "Changping District", "province": "Beijing", "country": "China"}}, {"type": "Feature", "geometry": {"type": "Point", "coordinates": [109.32799999999999, 21.676660000000002]}, "properties": {"date": "2020-01-24", "new": 0, "total": 3, "city": "Beihai City", "province": "Guangxi", "country": "China"}}, {"type": "Feature", "geometry": {"type": "Point", "coordinates": [109.37100000000001, 24.95009]}, "properties": {"date": "2020-01-24", "new": 1, "total": 2, "city": "Liuzhou City", "province": "Guangxi", "country": "China"}}, {"type": "Feature", "geometry": {"type": "Point", "coordinates": [110.9909, 23.481720000000003]}, "properties": {"date": "2020-01-24", "new": 0, "total": 1, "city": "Wuzhou City", "province": "Guangxi", "country": "China"}}, {"type": "Feature", "geometry": {"type": "Point", "coordinates": [110.5145, 25.35865]}, "properties": {"date": "2020-01-24", "new": 2, "total": 2, "city": "Guilin City", "province": "Guangxi", "country": "China"}}, {"type": "Feature", "geometry": {"type": "Point", "coordinates": [109.32799999999999, 21.676660000000002]}, "properties": {"date": "2020-01-24", "new": 3, "total": 3, "city": "Beihai City", "province": "Guangxi", "country": "China"}}, {"type": "Feature", "geometry": {"type": "Point", "coordinates": [116.2063, 40.20789]}, "properties": {"date": "2020-01-24", "new": 0, "total": 1, "city": "Changping District", "province": "Beijing", "country": "China"}}, {"type": "Feature", "geometry": {"type": "Point", "coordinates": [110.5145, 25.35865]}, "properties": {"date": "2020-01-24", "new": 2, "total": 2, "city": "Guilin City", "province": "Guangxi", "country": "China"}}, {"type": "Feature", "geometry": {"type": "Point", "coordinates": [106.2863, 23.98862]}, "properties": {"date": "2020-01-24", "new": 1, "total": 1, "city": "Baise City", "province": "Guangxi", "country": "China"}}, {"type": "Feature", "geometry": {"type": "Point", "coordinates": [107.8409, 24.64574]}, "properties": {"date": "2020-01-24", "new": 3, "total": 3, "city": "Hechi City", "province": "Guangxi", "country": "China"}}, {"type": "Feature", "geometry": {"type": "Point", "coordinates": [117.3319, 31.77863]}, "properties": {"date": "2020-01-24", "new": 0, "total": 1, "city": "Baohe District, Hefei City", "province": "Anhui", "country": "China"}}, {"type": "Feature", "geometry": {"type": "Point", "coordinates": [109.37100000000001, 24.95009]}, "properties": {"date": "2020-01-24", "new": 1, "total": 1, "city": "Liuzhou City", "province": "Guangxi", "country": "China"}}, {"type": "Feature", "geometry": {"type": "Point", "coordinates": [107.9967, 21.88401]}, "properties": {"date": "2020-01-24", "new": 2, "total": 2, "city": "Fangchenggang City", "province": "Guangxi", "country": "China"}}, {"type": "Feature", "geometry": {"type": "Point", "coordinates": [116.4172, 39.642379999999996]}, "properties": {"date": "2020-01-24", "new": 0, "total": 2, "city": "Daxing District", "province": "Beijing", "country": "China"}}, {"type": "Feature", "geometry": {"type": "Point", "coordinates": [110.182, 22.44296]}, "properties": {"date": "2020-01-24", "new": 1, "total": 1, "city": "Yulin City", "province": "Guangxi", "country": "China"}}, {"type": "Feature", "geometry": {"type": "Point", "coordinates": [107.1928, 26.43055]}, "properties": {"date": "2020-01-24", "new": 0, "total": 1, "city": "Guiding County, Qiannan Prefecture", "province": "Guizhou", "country": "China"}}, {"type": "Feature", "geometry": {"type": "Point", "coordinates": [106.7064, 26.84311]}, "properties": {"date": "2020-01-24", "new": 0, "total": 1, "city": "Guiyang City", "province": "Guizhou", "country": "China"}}, {"type": "Feature", "geometry": {"type": "Point", "coordinates": [108.5408, 27.973740000000003]}, "properties": {"date": "2020-01-24", "new": 0, "total": 1, "city": "Tongren City", "province": "Guizhou", "country": "China"}}, {"type": "Feature", "geometry": {"type": "Point", "coordinates": [109.7462, 19.1987]}, "properties": {"date": "2020-01-24", "new": 1, "total": 1, "city": "", "province": "Hainan", "country": "China"}}, {"type": "Feature", "geometry": {"type": "Point", "coordinates": [109.71799999999999, 18.36956]}, "properties": {"date": "2020-01-24", "new": 1, "total": 1, "city": "Haitang District, Sanya City", "province": "Hainan", "country": "China"}}, {"type": "Feature", "geometry": {"type": "Point", "coordinates": [114.4384, 38.13361]}, "properties": {"date": "2020-01-24", "new": 0, "total": 1, "city": "Shijiazhuang City", "province": "Hebei", "country": "China"}}, {"type": "Feature", "geometry": {"type": "Point", "coordinates": [109.5792, 18.29187]}, "properties": {"date": "2020-01-24", "new": 1, "total": 1, "city": "Ji Yang District, Sanya City", "province": "Hainan", "country": "China"}}, {"type": "Feature", "geometry": {"type": "Point", "coordinates": [118.8424, 31.92997]}, "properties": {"date": "2020-01-24", "new": 0, "total": 1, "city": "Nanjing City", "province": "Jiangsu", "country": "China"}}, {"type": "Feature", "geometry": {"type": "Point", "coordinates": [120.6418, 31.378020000000003]}, "properties": {"date": "2020-01-24", "new": 0, "total": 1, "city": "Suzhou City", "province": "Jiangsu", "country": "China"}}, {"type": "Feature", "geometry": {"type": "Point", "coordinates": [127.9588, 45.646570000000004]}, "properties": {"date": "2020-01-24", "new": 0, "total": 1, "city": "Harbin City", "province": "Heilongjiang", "country": "China"}}, {"type": "Feature", "geometry": {"type": "Point", "coordinates": [129.8858, 44.6065]}, "properties": {"date": "2020-01-24", "new": 0, "total": 1, "city": "Mudanjiang City", "province": "Heilongjiang", "country": "China"}}, {"type": "Feature", "geometry": {"type": "Point", "coordinates": [124.699, 46.35607]}, "properties": {"date": "2020-01-24", "new": 1, "total": 1, "city": "Daqing City", "province": "Heilongjiang", "country": "China"}}, {"type": "Feature", "geometry": {"type": "Point", "coordinates": [126.6487, 46.90084]}, "properties": {"date": "2020-01-24", "new": 1, "total": 1, "city": "Suihua City", "province": "Heilongjiang", "country": "China"}}, {"type": "Feature", "geometry": {"type": "Point", "coordinates": [113.46799999999999, 34.62931]}, "properties": {"date": "2020-01-24", "new": 0, "total": 3, "city": "Zhengzhou City", "province": "Henan", "country": "China"}}, {"type": "Feature", "geometry": {"type": "Point", "coordinates": [111.1065, 34.36358]}, "properties": {"date": "2020-01-24", "new": 0, "total": 1, "city": "Sanmenxia City", "province": "Henan", "country": "China"}}, {"type": "Feature", "geometry": {"type": "Point", "coordinates": [112.0323, 34.2936]}, "properties": {"date": "2020-01-24", "new": 0, "total": 1, "city": "Luoyang City", "province": "Henan", "country": "China"}}, {"type": "Feature", "geometry": {"type": "Point", "coordinates": [114.084, 35.26547]}, "properties": {"date": "2020-01-24", "new": 0, "total": 1, "city": "Xinxiang City", "province": "Henan", "country": "China"}}, {"type": "Feature", "geometry": {"type": "Point", "coordinates": [114.8773, 33.723859999999995]}, "properties": {"date": "2020-01-24", "new": 0, "total": 1, "city": "Zhoukou City", "province": "Henan", "country": "China"}}, {"type": "Feature", "geometry": {"type": "Point", "coordinates": [114.1324, 22.38074]}, "properties": {"date": "2020-01-24", "new": 0, "total": 2, "city": "Hong Kong", "province": "Hong Kong", "country": "China"}}, {"type": "Feature", "geometry": {"type": "Point", "coordinates": [113.1532, 28.227590000000003]}, "properties": {"date": "2020-01-24", "new": 7, "total": 8, "city": "Changsha City", "province": "Hunan", "country": "China"}}, {"type": "Feature", "geometry": {"type": "Point", "coordinates": [109.9751, 27.641059999999996]}, "properties": {"date": "2020-01-24", "new": 0, "total": 3, "city": "Hecheng District, Huaihua City", "province": "Hunan", "country": "China"}}, {"type": "Feature", "geometry": {"type": "Point", "coordinates": [111.6133, 27.73964]}, "properties": {"date": "2020-01-24", "new": 3, "total": 3, "city": "Loudi City", "province": "Hunan", "country": "China"}}, {"type": "Feature", "geometry": {"type": "Point", "coordinates": [112.6022, 27.73204]}, "properties": {"date": "2020-01-24", "new": 1, "total": 1, "city": "Xiangtan City", "province": "Hunan", "country": "China"}}, {"type": "Feature", "geometry": {"type": "Point", "coordinates": [111.7296, 25.779320000000002]}, "properties": {"date": "2020-01-24", "new": 4, "total": 4, "city": "Yongzhou City", "province": "Hunan", "country": "China"}}, {"type": "Feature", "geometry": {"type": "Point", "coordinates": [113.25399999999999, 29.0682]}, "properties": {"date": "2020-01-24", "new": 3, "total": 3, "city": "Yueyang City", "province": "Hunan", "country": "China"}}, {"type": "Feature", "geometry": {"type": "Point", "coordinates": [113.5158, 27.12398]}, "properties": {"date": "2020-01-24", "new": 1, "total": 1, "city": "Zhuzhou City", "province": "Hunan", "country": "China"}}, {"type": "Feature", "geometry": {"type": "Point", "coordinates": [113.1376, 25.81815]}, "properties": {"date": "2020-01-24", "new": 1, "total": 1, "city": "Chenzhou City", "province": "Hunan", "country": "China"}}, {"type": "Feature", "geometry": {"type": "Point", "coordinates": [116.1737, 39.92715]}, "properties": {"date": "2020-01-24", "new": 0, "total": 1, "city": "Shijingshan District", "province": "Beijing", "country": "China"}}, {"type": "Feature", "geometry": {"type": "Point", "coordinates": [117.4943, 49.53241]}, "properties": {"date": "2020-01-24", "new": 1, "total": 1, "city": "Manzhouli City, Hulunbuir City", "province": "Inner Mongolia", "country": "China"}}, {"type": "Feature", "geometry": {"type": "Point", "coordinates": [118.8424, 31.92997]}, "properties": {"date": "2020-01-24", "new": 0, "total": 1, "city": "Nanjing City", "province": "Jiangsu", "country": "China"}}, {"type": "Feature", "geometry": {"type": "Point", "coordinates": [119.1325, 34.534]}, "properties": {"date": "2020-01-24", "new": 0, "total": 1, "city": "Lianyungang City", "province": "Jiangsu", "country": "China"}}, {"type": "Feature", "geometry": {"type": "Point", "coordinates": [119.4729, 32.73976]}, "properties": {"date": "2020-01-24", "new": 0, "total": 1, "city": "Yangzhou City", "province": "Jiangsu", "country": "China"}}, {"type": "Feature", "geometry": {"type": "Point", "coordinates": [116.1737, 39.92715]}, "properties": {"date": "2020-01-24", "new": 0, "total": 1, "city": "Shijingshan District", "province": "Beijing", "country": "China"}}, {"type": "Feature", "geometry": {"type": "Point", "coordinates": [116.6081, 28.218759999999996]}, "properties": {"date": "2020-01-24", "new": 0, "total": 1, "city": "Dongxiang County, Fuzhou City", "province": "Jiangxi", "country": "China"}}, {"type": "Feature", "geometry": {"type": "Point", "coordinates": [110.3326, 19.875410000000002]}, "properties": {"date": "2020-01-24", "new": 0, "total": 1, "city": "Longhua District, Haikou City", "province": "Hainan", "country": "China"}}, {"type": "Feature", "geometry": {"type": "Point", "coordinates": [110.2876, 18.83795]}, "properties": {"date": "2020-01-24", "new": 0, "total": 1, "city": "Wanning City", "province": "Hainan", "country": "China"}}, {"type": "Feature", "geometry": {"type": "Point", "coordinates": [110.771, 19.74459]}, "properties": {"date": "2020-01-24", "new": 0, "total": 1, "city": "Wenchang City", "province": "Hainan", "country": "China"}}, {"type": "Feature", "geometry": {"type": "Point", "coordinates": [116.0257, 28.66149]}, "properties": {"date": "2020-01-24", "new": 2, "total": 3, "city": "Nanchang City", "province": "Jiangxi", "country": "China"}}, {"type": "Feature", "geometry": {"type": "Point", "coordinates": [115.4418, 29.3255]}, "properties": {"date": "2020-01-24", "new": 2, "total": 2, "city": "Jiujiang City", "province": "Jiangxi", "country": "China"}}, {"type": "Feature", "geometry": {"type": "Point", "coordinates": [114.8515, 27.84546]}, "properties": {"date": "2020-01-24", "new": 1, "total": 1, "city": "Xinyu City", "province": "Jiangxi", "country": "China"}}, {"type": "Feature", "geometry": {"type": "Point", "coordinates": [114.8248, 26.97535]}, "properties": {"date": "2020-01-24", "new": 1, "total": 1, "city": "Ji'An City", "province": "Jiangxi", "country": "China"}}, {"type": "Feature", "geometry": {"type": "Point", "coordinates": [116.4344, 27.51128]}, "properties": {"date": "2020-01-24", "new": 3, "total": 3, "city": "Fuzhou City", "province": "Jiangxi", "country": "China"}}, {"type": "Feature", "geometry": {"type": "Point", "coordinates": [115.2745, 25.71368]}, "properties": {"date": "2020-01-24", "new": 2, "total": 2, "city": "Ganzhou City", "province": "Jiangxi", "country": "China"}}, {"type": "Feature", "geometry": {"type": "Point", "coordinates": [117.4692, 28.77693]}, "properties": {"date": "2020-01-24", "new": 2, "total": 2, "city": "Shangrao City", "province": "Jiangxi", "country": "China"}}, {"type": "Feature", "geometry": {"type": "Point", "coordinates": [114.9732, 28.30755]}, "properties": {"date": "2020-01-24", "new": 1, "total": 1, "city": "Yichun City", "province": "Jiangxi", "country": "China"}}, {"type": "Feature", "geometry": {"type": "Point", "coordinates": [117.2708, 29.309990000000003]}, "properties": {"date": "2020-01-24", "new": 1, "total": 1, "city": "Jingdezhen City", "province": "Jiangxi", "country": "China"}}, {"type": "Feature", "geometry": {"type": "Point", "coordinates": [125.76899999999999, 44.38803]}, "properties": {"date": "2020-01-24", "new": 0, "total": 1, "city": "Changchun City", "province": "Jilin", "country": "China"}}, {"type": "Feature", "geometry": {"type": "Point", "coordinates": [124.4795, 44.80382]}, "properties": {"date": "2020-01-24", "new": 0, "total": 1, "city": "Songyuan City", "province": "Jilin", "country": "China"}}, {"type": "Feature", "geometry": {"type": "Point", "coordinates": [126.8481, 43.58859]}, "properties": {"date": "2020-01-24", "new": 0, "total": 1, "city": "Jilin City", "province": "Jilin", "country": "China"}}, {"type": "Feature", "geometry": {"type": "Point", "coordinates": [122.2224, 39.59944]}, "properties": {"date": "2020-01-24", "new": 0, "total": 1, "city": "Dalian City", "province": "Liaoning", "country": "China"}}, {"type": "Feature", "geometry": {"type": "Point", "coordinates": [123.1391, 42.100120000000004]}, "properties": {"date": "2020-01-24", "new": 0, "total": 1, "city": "Shenyang City", "province": "Liaoning", "country": "China"}}, {"type": "Feature", "geometry": {"type": "Point", "coordinates": [120.0166, 41.51421]}, "properties": {"date": "2020-01-24", "new": 0, "total": 1, "city": "Chaoyang City", "province": "Liaoning", "country": "China"}}, {"type": "Feature", "geometry": {"type": "Point", "coordinates": [113.55, 22.166667]}, "properties": {"date": "2020-01-24", "new": 0, "total": 1, "city": "Border Checkpoint", "province": "Macau", "country": "China"}}, {"type": "Feature", "geometry": {"type": "Point", "coordinates": [113.55, 22.166667]}, "properties": {"date": "2020-01-24", "new": 0, "total": 1, "city": "Landmark Hotel", "province": "Macau", "country": "China"}}, {"type": "Feature", "geometry": {"type": "Point", "coordinates": [108.9258, 32.761829999999996]}, "properties": {"date": "2020-01-24", "new": 1, "total": 1, "city": "Ankang City", "province": "Shaanxi", "country": "China"}}, {"type": "Feature", "geometry": {"type": "Point", "coordinates": [106.3496, 38.2349]}, "properties": {"date": "2020-01-24", "new": 0, "total": 1, "city": "Yinchuan City", "province": "Ningxia", "country": "China"}}, {"type": "Feature", "geometry": {"type": "Point", "coordinates": [109.3161, 36.44222]}, "properties": {"date": "2020-01-24", "new": 1, "total": 1, "city": "Yan'An City", "province": "Shaanxi", "country": "China"}}, {"type": "Feature", "geometry": {"type": "Point", "coordinates": [105.4777, 37.0548]}, "properties": {"date": "2020-01-24", "new": 0, "total": 1, "city": "Zhongwei City", "province": "Ningxia", "country": "China"}}, {"type": "Feature", "geometry": {"type": "Point", "coordinates": [121.9821, 37.12174]}, "properties": {"date": "2020-01-24", "new": 0, "total": 1, "city": "Weihai City", "province": "Shandong", "country": "China"}}, {"type": "Feature", "geometry": {"type": "Point", "coordinates": [116.3591, 39.91093]}, "properties": {"date": "2020-01-24", "new": 0, "total": 1, "city": "Xicheng District", "province": "Beijing", "country": "China"}}, {"type": "Feature", "geometry": {"type": "Point", "coordinates": [118.2809, 35.31235]}, "properties": {"date": "2020-01-24", "new": 0, "total": 2, "city": "Linyi City", "province": "Shandong", "country": "China"}}, {"type": "Feature", "geometry": {"type": "Point", "coordinates": [120.1436, 36.454840000000004]}, "properties": {"date": "2020-01-24", "new": 0, "total": 3, "city": "Qingdao City", "province": "Shandong", "country": "China"}}, {"type": "Feature", "geometry": {"type": "Point", "coordinates": [116.4151, 40.18535]}, "properties": {"date": "2020-01-24", "new": 0, "total": 1, "city": "", "province": "Beijing", "country": "China"}}, {"type": "Feature", "geometry": {"type": "Point", "coordinates": [119.0713, 36.55315]}, "properties": {"date": "2020-01-24", "new": 1, "total": 1, "city": "Weifang City", "province": "Shandong", "country": "China"}}, {"type": "Feature", "geometry": {"type": "Point", "coordinates": [119.1358, 35.58324]}, "properties": {"date": "2020-01-24", "new": 1, "total": 1, "city": "Rizhao City", "province": "Shandong", "country": "China"}}, {"type": "Feature", "geometry": {"type": "Point", "coordinates": [121.9821, 37.12174]}, "properties": {"date": "2020-01-24", "new": 1, "total": 1, "city": "Weihai City", "province": "Shandong", "country": "China"}}, {"type": "Feature", "geometry": {"type": "Point", "coordinates": [117.0851, 36.734140000000004]}, "properties": {"date": "2020-01-24", "new": 1, "total": 1, "city": "Jinan City", "province": "Shandong", "country": "China"}}, {"type": "Feature", "geometry": {"type": "Point", "coordinates": [117.0851, 36.734140000000004]}, "properties": {"date": "2020-01-24", "new": 1, "total": 1, "city": "Jinan City", "province": "Shandong", "country": "China"}}, {"type": "Feature", "geometry": {"type": "Point", "coordinates": [120.8051, 37.24217]}, "properties": {"date": "2020-01-24", "new": 2, "total": 2, "city": "Yantai City", "province": "Shandong", "country": "China"}}, {"type": "Feature", "geometry": {"type": "Point", "coordinates": [117.22484399999999, 31.828313]}, "properties": {"date": "2020-01-24", "new": 0, "total": 1, "city": "High-Tech Zone, Hefei City", "province": "Anhui", "country": "China"}}, {"type": "Feature", "geometry": {"type": "Point", "coordinates": [116.7332, 35.37464]}, "properties": {"date": "2020-01-24", "new": 1, "total": 1, "city": "Jining City", "province": "Shandong", "country": "China"}}, {"type": "Feature", "geometry": {"type": "Point", "coordinates": [139.339, 35.41557]}, "properties": {"date": "2020-01-24", "new": 0, "total": 1, "city": "", "province": "Kanagawa Prefecture", "country": "Japan"}}, {"type": "Feature", "geometry": {"type": "Point", "coordinates": [120.1436, 36.454840000000004]}, "properties": {"date": "2020-01-24", "new": 1, "total": 1, "city": "Qingdao City", "province": "Shandong", "country": "China"}}, {"type": "Feature", "geometry": {"type": "Point", "coordinates": [121.4555, 31.2045]}, "properties": {"date": "2020-01-24", "new": 0, "total": 5, "city": "", "province": "Shanghai", "country": "China"}}, {"type": "Feature", "geometry": {"type": "Point", "coordinates": [112.3157, 37.96001]}, "properties": {"date": "2020-01-24", "new": 0, "total": 1, "city": "Taiyuan City", "province": "Shanxi", "country": "China"}}, {"type": "Feature", "geometry": {"type": "Point", "coordinates": [103.8256, 30.70291]}, "properties": {"date": "2020-01-24", "new": 0, "total": 4, "city": "Chengdu City", "province": "Sichuan", "country": "China"}}, {"type": "Feature", "geometry": {"type": "Point", "coordinates": [87.78531, 43.73043]}, "properties": {"date": "2020-01-24", "new": 0, "total": 1, "city": "Urumqi City", "province": "Xinjiang", "country": "China"}}, {"type": "Feature", "geometry": {"type": "Point", "coordinates": [107.6465, 31.370140000000003]}, "properties": {"date": "2020-01-24", "new": 0, "total": 1, "city": "Dazhou City", "province": "Sichuan", "country": "China"}}, {"type": "Feature", "geometry": {"type": "Point", "coordinates": [104.7008, 31.8534]}, "properties": {"date": "2020-01-24", "new": 0, "total": 2, "city": "Mianyang City", "province": "Sichuan", "country": "China"}}, {"type": "Feature", "geometry": {"type": "Point", "coordinates": [117.3333, 39.297129999999996]}, "properties": {"date": "2020-01-24", "new": 3, "total": 3, "city": "Tianjin City", "province": "Tianjin", "country": "China"}}, {"type": "Feature", "geometry": {"type": "Point", "coordinates": [100.9477, 21.93139]}, "properties": {"date": "2020-01-24", "new": 1, "total": 1, "city": "Xishuangbanna Prefecture", "province": "Yunnan", "country": "China"}}, {"type": "Feature", "geometry": {"type": "Point", "coordinates": [102.8739, 25.39236]}, "properties": {"date": "2020-01-24", "new": 1, "total": 3, "city": "Kunming City", "province": "Yunnan", "country": "China"}}, {"type": "Feature", "geometry": {"type": "Point", "coordinates": [100.5235, 26.94233]}, "properties": {"date": "2020-01-24", "new": 1, "total": 1, "city": "Lijiang City", "province": "Yunnan", "country": "China"}}, {"type": "Feature", "geometry": {"type": "Point", "coordinates": [117.5681, 32.00123]}, "properties": {"date": "2020-01-24", "new": 2, "total": 2, "city": "Feidong County, Hefei City", "province": "Anhui", "country": "China"}}, {"type": "Feature", "geometry": {"type": "Point", "coordinates": [115.7036, 32.9188]}, "properties": {"date": "2020-01-24", "new": 5, "total": 5, "city": "Fuyang City", "province": "Anhui", "country": "China"}}, {"type": "Feature", "geometry": {"type": "Point", "coordinates": [107.1356, 29.95723]}, "properties": {"date": "2020-01-24", "new": 0, "total": 1, "city": "Changshou District", "province": "Chongqing", "country": "China"}}, {"type": "Feature", "geometry": {"type": "Point", "coordinates": [108.4023, 30.706120000000002]}, "properties": {"date": "2020-01-24", "new": 0, "total": 2, "city": "Wanzhou District", "province": "Chongqing", "country": "China"}}, {"type": "Feature", "geometry": {"type": "Point", "coordinates": [116.3151, 31.75941]}, "properties": {"date": "2020-01-24", "new": 1, "total": 1, "city": "Lu'An City", "province": "Anhui", "country": "China"}}, {"type": "Feature", "geometry": {"type": "Point", "coordinates": [109.8962, 31.11774]}, "properties": {"date": "2020-01-24", "new": 0, "total": 2, "city": "Wushan County", "province": "Chongqing", "country": "China"}}, {"type": "Feature", "geometry": {"type": "Point", "coordinates": [107.3324, 29.660859999999996]}, "properties": {"date": "2020-01-24", "new": 0, "total": 1, "city": "Fuling District", "province": "Chongqing", "country": "China"}}, {"type": "Feature", "geometry": {"type": "Point", "coordinates": [115.7036, 32.9188]}, "properties": {"date": "2020-01-24", "new": 0, "total": 1, "city": "Fuyang City", "province": "Anhui", "country": "China"}}, {"type": "Feature", "geometry": {"type": "Point", "coordinates": [105.8705, 29.29301]}, "properties": {"date": "2020-01-24", "new": 1, "total": 2, "city": "Yongchuan District", "province": "Chongqing", "country": "China"}}, {"type": "Feature", "geometry": {"type": "Point", "coordinates": [106.4452, 29.41508]}, "properties": {"date": "2020-01-24", "new": 1, "total": 1, "city": "Dadukou District", "province": "Chongqing", "country": "China"}}, {"type": "Feature", "geometry": {"type": "Point", "coordinates": [106.3625, 29.431890000000003]}, "properties": {"date": "2020-01-24", "new": 1, "total": 1, "city": "Jiulongpo District", "province": "Chongqing", "country": "China"}}, {"type": "Feature", "geometry": {"type": "Point", "coordinates": [102.6656, 29.92197]}, "properties": {"date": "2020-01-24", "new": 0, "total": 1, "city": "Ya'An City", "province": "Sichuan", "country": "China"}}, {"type": "Feature", "geometry": {"type": "Point", "coordinates": [106.7437, 29.81392]}, "properties": {"date": "2020-01-24", "new": 1, "total": 1, "city": "Yubei District", "province": "Chongqing", "country": "China"}}, {"type": "Feature", "geometry": {"type": "Point", "coordinates": [108.8523, 31.03847]}, "properties": {"date": "2020-01-24", "new": 1, "total": 1, "city": "Yunyang County", "province": "Chongqing", "country": "China"}}, {"type": "Feature", "geometry": {"type": "Point", "coordinates": [109.7462, 19.1987]}, "properties": {"date": "2020-01-24", "new": 0, "total": 1, "city": "", "province": "Hainan", "country": "China"}}, {"type": "Feature", "geometry": {"type": "Point", "coordinates": [110.4894, 19.74837]}, "properties": {"date": "2020-01-24", "new": 0, "total": 1, "city": "Qiongshan District, Haikou City", "province": "Hainan", "country": "China"}}, {"type": "Feature", "geometry": {"type": "Point", "coordinates": [109.7128, 19.80185]}, "properties": {"date": "2020-01-24", "new": 0, "total": 1, "city": "Lingao County", "province": "Hainan", "country": "China"}}, {"type": "Feature", "geometry": {"type": "Point", "coordinates": [109.4197, 18.39084]}, "properties": {"date": "2020-01-24", "new": 0, "total": 2, "city": "Sanya City", "province": "Hainan", "country": "China"}}, {"type": "Feature", "geometry": {"type": "Point", "coordinates": [103.8472, 1.322098]}, "properties": {"date": "2020-01-24", "new": 1, "total": 1, "city": "National Centre For Infectious Diseases", "province": "", "country": "Singapore"}}, {"type": "Feature", "geometry": {"type": "Point", "coordinates": [103.8256, 30.70291]}, "properties": {"date": "2020-01-24", "new": 0, "total": 3, "city": "Chengdu City", "province": "Sichuan", "country": "China"}}, {"type": "Feature", "geometry": {"type": "Point", "coordinates": [106.6635, 30.42717]}, "properties": {"date": "2020-01-24", "new": 0, "total": 1, "city": "Guang'An City", "province": "Sichuan", "country": "China"}}, {"type": "Feature", "geometry": {"type": "Point", "coordinates": [104.4301, 31.13417]}, "properties": {"date": "2020-01-24", "new": 0, "total": 1, "city": "Deyang City", "province": "Sichuan", "country": "China"}}, {"type": "Feature", "geometry": {"type": "Point", "coordinates": [105.4711, 30.633309999999998]}, "properties": {"date": "2020-01-24", "new": 0, "total": 1, "city": "Suining City", "province": "Sichuan", "country": "China"}}, {"type": "Feature", "geometry": {"type": "Point", "coordinates": [120.9559, 23.75947]}, "properties": {"date": "2020-01-24", "new": 2, "total": 2, "city": "", "province": "Taiwan", "country": ""}}, {"type": "Feature", "geometry": {"type": "Point", "coordinates": [140.3856, 35.76528]}, "properties": {"date": "2020-01-24", "new": 1, "total": 1, "city": "Narita Airport", "province": "Tokyo", "country": "Japan"}}, {"type": "Feature", "geometry": {"type": "Point", "coordinates": [139.4468, 35.71145]}, "properties": {"date": "2020-01-24", "new": 0, "total": 1, "city": "", "province": "Tokyo", "country": "Japan"}}, {"type": "Feature", "geometry": {"type": "Point", "coordinates": [108.3787, 31.27337]}, "properties": {"date": "2020-01-24", "new": 1, "total": 1, "city": "Kaizhou District", "province": "Chongqing", "country": "China"}}, {"type": "Feature", "geometry": {"type": "Point", "coordinates": [85.324, 27.7172]}, "properties": {"date": "2020-01-24", "new": 1, "total": 1, "city": "Kathmandu", "province": "", "country": "Nepal"}}, {"type": "Feature", "geometry": {"type": "Point", "coordinates": [103.8345, 1.280224]}, "properties": {"date": "2020-01-24", "new": 0, "total": 1, "city": "Singapore General Hospital", "province": "", "country": "Singapore"}}, {"type": "Feature", "geometry": {"type": "Point", "coordinates": [103.8151, 1.35346]}, "properties": {"date": "2020-01-24", "new": 1, "total": 1, "city": "", "province": "", "country": "Singapore"}}, {"type": "Feature", "geometry": {"type": "Point", "coordinates": [126.443389, 37.462026]}, "properties": {"date": "2020-01-24", "new": 0, "total": 1, "city": "Incheon Airport", "province": "", "country": "South Korea"}}, {"type": "Feature", "geometry": {"type": "Point", "coordinates": [107.9107, 30.338520000000003]}, "properties": {"date": "2020-01-24", "new": 1, "total": 1, "city": "Zhongxian County", "province": "Chongqing", "country": "China"}}, {"type": "Feature", "geometry": {"type": "Point", "coordinates": [126.79055600000001, 37.558056]}, "properties": {"date": "2020-01-24", "new": 1, "total": 1, "city": "Gimpo Airport", "province": "", "country": "South Korea"}}, {"type": "Feature", "geometry": {"type": "Point", "coordinates": [121.2348, 25.0797]}, "properties": {"date": "2020-01-24", "new": 0, "total": 1, "city": "Taoyuan International Airport", "province": "Taiwan", "country": ""}}, {"type": "Feature", "geometry": {"type": "Point", "coordinates": [100.5363, 13.76658]}, "properties": {"date": "2020-01-24", "new": 1, "total": 3, "city": "Bangkok", "province": "Bangkok Metropolis", "country": "Thailand"}}, {"type": "Feature", "geometry": {"type": "Point", "coordinates": [109.1967, 12.2388]}, "properties": {"date": "2020-01-24", "new": 0, "total": 2, "city": "Nha Trang", "province": "Khanh Hoa", "country": "Vietnam"}}, {"type": "Feature", "geometry": {"type": "Point", "coordinates": [109.3445, 30.955209999999997]}, "properties": {"date": "2020-01-24", "new": 1, "total": 1, "city": "Fengjie County", "province": "Chongqing", "country": "China"}}, {"type": "Feature", "geometry": {"type": "Point", "coordinates": [109.3486, 31.5058]}, "properties": {"date": "2020-01-24", "new": 1, "total": 1, "city": "Wuxi County", "province": "Chongqing", "country": "China"}}, {"type": "Feature", "geometry": {"type": "Point", "coordinates": [108.4023, 30.706120000000002]}, "properties": {"date": "2020-01-24", "new": 1, "total": 1, "city": "Wanzhou District", "province": "Chongqing", "country": "China"}}, {"type": "Feature", "geometry": {"type": "Point", "coordinates": [106.56700000000001, 29.6426]}, "properties": {"date": "2020-01-24", "new": 1, "total": 1, "city": "Liangjiang New District", "province": "Chongqing", "country": "China"}}, {"type": "Feature", "geometry": {"type": "Point", "coordinates": [109.0143, 28.495240000000003]}, "properties": {"date": "2020-01-24", "new": 1, "total": 1, "city": "Xiushan County", "province": "Chongqing", "country": "China"}}, {"type": "Feature", "geometry": {"type": "Point", "coordinates": [106.3625, 29.431890000000003]}, "properties": {"date": "2020-01-24", "new": 1, "total": 1, "city": "Jiulongpo District", "province": "Chongqing", "country": "China"}}, {"type": "Feature", "geometry": {"type": "Point", "coordinates": [108.3787, 31.27337]}, "properties": {"date": "2020-01-24", "new": 1, "total": 1, "city": "Kaizhou District", "province": "Chongqing", "country": "China"}}, {"type": "Feature", "geometry": {"type": "Point", "coordinates": [-121.8346131, 47.49137892]}, "properties": {"date": "2020-01-24", "new": 0, "total": 1, "city": "King", "province": "Washington", "country": "United States"}}, {"type": "Feature", "geometry": {"type": "Point", "coordinates": [-87.81658794, 41.84144849]}, "properties": {"date": "2020-01-24", "new": 1, "total": 1, "city": "Cook", "province": "Illinois", "country": "United States"}}]