[{"type": "Feature", "geometry": {"type": "Point", "coordinates": [117.7166, 31.646959999999996]}, "properties": {"date": "2020-01-22", "new": 1, "total": 1, "city": "Chaohu City, Hefei City", "province": "Anhui", "country": "China"}}, {"type": "Feature", "geometry": {"type": "Point", "coordinates": [114.1291, 22.65389]}, "properties": {"date": "2020-01-22", "new": 0, "total": 8, "city": "Shenzhen City", "province": "Guangdong", "country": "China"}}, {"type": "Feature", "geometry": {"type": "Point", "coordinates": [109.32799999999999, 21.676660000000002]}, "properties": {"date": "2020-01-22", "new": 1, "total": 1, "city": "Beihai City", "province": "Guangxi", "country": "China"}}, {"type": "Feature", "geometry": {"type": "Point", "coordinates": [109.32799999999999, 21.676660000000002]}, "properties": {"date": "2020-01-22", "new": 1, "total": 1, "city": "Beihai City", "province": "Guangxi", "country": "China"}}, {"type": "Feature", "geometry": {"type": "Point", "coordinates": [109.37100000000001, 24.95009]}, "properties": {"date": "2020-01-22", "new": 1, "total": 1, "city": "Liuzhou City", "province": "Guangxi", "country": "China"}}, {"type": "Feature", "geometry": {"type": "Point", "coordinates": [110.9909, 23.481720000000003]}, "properties": {"date": "2020-01-22", "new": 1, "total": 1, "city": "Wuzhou City", "province": "Guangxi", "country": "China"}}, {"type": "Feature", "geometry": {"type": "Point", "coordinates": [107.1928, 26.43055]}, "properties": {"date": "2020-01-22", "new": 1, "total": 1, "city": "Guiding County, Qiannan Prefecture", "province": "Guizhou", "country": "China"}}, {"type": "Feature", "geometry": {"type": "Point", "coordinates": [106.7064, 26.84311]}, "properties": {"date": "2020-01-22", "new": 1, "total": 1, "city": "Guiyang City", "province": "Guizhou", "country": "China"}}, {"type": "Feature", "geometry": {"type": "Point", "coordinates": [108.5408, 27.973740000000003]}, "properties": {"date": "2020-01-22", "new": 1, "total": 1, "city": "Tongren City", "province": "Guizhou", "country": "China"}}, {"type": "Feature", "geometry": {"type": "Point", "coordinates": [116.2063, 40.20789]}, "properties": {"date": "2020-01-22", "new": 0, "total": 1, "city": "Changping District", "province": "Beijing", "country": "China"}}, {"type": "Feature", "geometry": {"type": "Point", "coordinates": [113.46799999999999, 34.62931]}, "properties": {"date": "2020-01-22", "new": 0, "total": 1, "city": "Zhengzhou City", "province": "Henan", "country": "China"}}, {"type": "Feature", "geometry": {"type": "Point", "coordinates": [116.2063, 40.20789]}, "properties": {"date": "2020-01-22", "new": 1, "total": 1, "city": "Changping District", "province": "Beijing", "country": "China"}}, {"type": "Feature", "geometry": {"type": "Point", "coordinates": [111.1065, 34.36358]}, "properties": {"date": "2020-01-22", "new": 1, "total": 1, "city": "Sanmenxia City", "province": "Henan", "country": "China"}}, {"type": "Feature", "geometry": {"type": "Point", "coordinates": [112.0323, 34.2936]}, "properties": {"date": "2020-01-22", "new": 1, "total": 1, "city": "Luoyang City", "province": "Henan", "country": "China"}}, {"type": "Feature", "geometry": {"type": "Point", "coordinates": [113.46799999999999, 34.62931]}, "properties": {"date": "2020-01-22", "new": 1, "total": 1, "city": "Zhengzhou City", "province": "Henan", "country": "China"}}, {"type": "Feature", "geometry": {"type": "Point", "coordinates": [116.4172, 39.642379999999996]}, "properties": {"date": "2020-01-22", "new": 0, "total": 1, "city": "Daxing District", "province": "Beijing", "country": "China"}}, {"type": "Feature", "geometry": {"type": "Point", "coordinates": [114.1324, 22.38074]}, "properties": {"date": "2020-01-22", "new": 2, "total": 2, "city": "Hong Kong", "province": "Hong Kong", "country": "China"}}, {"type": "Feature", "geometry": {"type": "Point", "coordinates": [116.4172, 39.642379999999996]}, "properties": {"date": "2020-01-22", "new": 0, "total": 1, "city": "Daxing District", "province": "Beijing", "country": "China"}}, {"type": "Feature", "geometry": {"type": "Point", "coordinates": [113.1532, 28.227590000000003]}, "properties": {"date": "2020-01-22", "new": 0, "total": 1, "city": "Changsha City", "province": "Hunan", "country": "China"}}, {"type": "Feature", "geometry": {"type": "Point", "coordinates": [109.9751, 27.641059999999996]}, "properties": {"date": "2020-01-22", "new": 3, "total": 3, "city": "Hecheng District, Huaihua City", "province": "Hunan", "country": "China"}}, {"type": "Feature", "geometry": {"type": "Point", "coordinates": [120.6418, 31.378020000000003]}, "properties": {"date": "2020-01-22", "new": 1, "total": 1, "city": "Suzhou City", "province": "Jiangsu", "country": "China"}}, {"type": "Feature", "geometry": {"type": "Point", "coordinates": [116.0257, 28.66149]}, "properties": {"date": "2020-01-22", "new": 1, "total": 1, "city": "Nanchang City", "province": "Jiangxi", "country": "China"}}, {"type": "Feature", "geometry": {"type": "Point", "coordinates": [116.1737, 39.92715]}, "properties": {"date": "2020-01-22", "new": 1, "total": 1, "city": "Shijingshan District", "province": "Beijing", "country": "China"}}, {"type": "Feature", "geometry": {"type": "Point", "coordinates": [122.2224, 39.59944]}, "properties": {"date": "2020-01-22", "new": 1, "total": 1, "city": "Dalian City", "province": "Liaoning", "country": "China"}}, {"type": "Feature", "geometry": {"type": "Point", "coordinates": [113.55, 22.166667]}, "properties": {"date": "2020-01-22", "new": 0, "total": 1, "city": "Border Checkpoint", "province": "Macau", "country": "China"}}, {"type": "Feature", "geometry": {"type": "Point", "coordinates": [106.3496, 38.2349]}, "properties": {"date": "2020-01-22", "new": 1, "total": 1, "city": "Yinchuan City", "province": "Ningxia", "country": "China"}}, {"type": "Feature", "geometry": {"type": "Point", "coordinates": [139.339, 35.41557]}, "properties": {"date": "2020-01-22", "new": 0, "total": 1, "city": "", "province": "Kanagawa Prefecture", "country": "Japan"}}, {"type": "Feature", "geometry": {"type": "Point", "coordinates": [121.9821, 37.12174]}, "properties": {"date": "2020-01-22", "new": 1, "total": 1, "city": "Weihai City", "province": "Shandong", "country": "China"}}, {"type": "Feature", "geometry": {"type": "Point", "coordinates": [118.2809, 35.31235]}, "properties": {"date": "2020-01-22", "new": 2, "total": 2, "city": "Linyi City", "province": "Shandong", "country": "China"}}, {"type": "Feature", "geometry": {"type": "Point", "coordinates": [116.3591, 39.91093]}, "properties": {"date": "2020-01-22", "new": 1, "total": 1, "city": "Xicheng District", "province": "Beijing", "country": "China"}}, {"type": "Feature", "geometry": {"type": "Point", "coordinates": [121.4555, 31.2045]}, "properties": {"date": "2020-01-22", "new": 0, "total": 5, "city": "", "province": "Shanghai", "country": "China"}}, {"type": "Feature", "geometry": {"type": "Point", "coordinates": [116.4151, 40.18535]}, "properties": {"date": "2020-01-22", "new": 1, "total": 1, "city": "", "province": "Beijing", "country": "China"}}, {"type": "Feature", "geometry": {"type": "Point", "coordinates": [112.3157, 37.96001]}, "properties": {"date": "2020-01-22", "new": 1, "total": 1, "city": "Taiyuan City", "province": "Shanxi", "country": "China"}}, {"type": "Feature", "geometry": {"type": "Point", "coordinates": [103.8256, 30.70291]}, "properties": {"date": "2020-01-22", "new": 1, "total": 2, "city": "Chengdu City", "province": "Sichuan", "country": "China"}}, {"type": "Feature", "geometry": {"type": "Point", "coordinates": [104.7008, 31.8534]}, "properties": {"date": "2020-01-22", "new": 2, "total": 2, "city": "Mianyang City", "province": "Sichuan", "country": "China"}}, {"type": "Feature", "geometry": {"type": "Point", "coordinates": [107.1356, 29.95723]}, "properties": {"date": "2020-01-22", "new": 0, "total": 1, "city": "Changshou District", "province": "Chongqing", "country": "China"}}, {"type": "Feature", "geometry": {"type": "Point", "coordinates": [108.4023, 30.706120000000002]}, "properties": {"date": "2020-01-22", "new": 0, "total": 2, "city": "Wanzhou District", "province": "Chongqing", "country": "China"}}, {"type": "Feature", "geometry": {"type": "Point", "coordinates": [109.8962, 31.11774]}, "properties": {"date": "2020-01-22", "new": 0, "total": 2, "city": "Wushan County", "province": "Chongqing", "country": "China"}}, {"type": "Feature", "geometry": {"type": "Point", "coordinates": [107.3324, 29.660859999999996]}, "properties": {"date": "2020-01-22", "new": 1, "total": 1, "city": "Fuling District", "province": "Chongqing", "country": "China"}}, {"type": "Feature", "geometry": {"type": "Point", "coordinates": [105.8705, 29.29301]}, "properties": {"date": "2020-01-22", "new": 1, "total": 1, "city": "Yongchuan District", "province": "Chongqing", "country": "China"}}, {"type": "Feature", "geometry": {"type": "Point", "coordinates": [109.7462, 19.1987]}, "properties": {"date": "2020-01-22", "new": 1, "total": 1, "city": "", "province": "Hainan", "country": "China"}}, {"type": "Feature", "geometry": {"type": "Point", "coordinates": [110.4894, 19.74837]}, "properties": {"date": "2020-01-22", "new": 1, "total": 1, "city": "Qiongshan District, Haikou City", "province": "Hainan", "country": "China"}}, {"type": "Feature", "geometry": {"type": "Point", "coordinates": [109.7128, 19.80185]}, "properties": {"date": "2020-01-22", "new": 1, "total": 1, "city": "Lingao County", "province": "Hainan", "country": "China"}}, {"type": "Feature", "geometry": {"type": "Point", "coordinates": [109.4197, 18.39084]}, "properties": {"date": "2020-01-22", "new": 1, "total": 1, "city": "Sanya City", "province": "Hainan", "country": "China"}}, {"type": "Feature", "geometry": {"type": "Point", "coordinates": [139.4468, 35.71145]}, "properties": {"date": "2020-01-22", "new": 0, "total": 1, "city": "", "province": "Tokyo", "country": "Japan"}}, {"type": "Feature", "geometry": {"type": "Point", "coordinates": [115.7036, 32.9188]}, "properties": {"date": "2020-01-22", "new": 1, "total": 1, "city": "Fuyang City", "province": "Anhui", "country": "China"}}, {"type": "Feature", "geometry": {"type": "Point", "coordinates": [126.443389, 37.462026]}, "properties": {"date": "2020-01-22", "new": 0, "total": 1, "city": "Incheon Airport", "province": "", "country": "South Korea"}}, {"type": "Feature", "geometry": {"type": "Point", "coordinates": [121.2348, 25.0797]}, "properties": {"date": "2020-01-22", "new": 0, "total": 1, "city": "Taoyuan International Airport", "province": "Taiwan", "country": ""}}, {"type": "Feature", "geometry": {"type": "Point", "coordinates": [100.5363, 13.76658]}, "properties": {"date": "2020-01-22", "new": 0, "total": 2, "city": "Bangkok", "province": "Bangkok Metropolis", "country": "Thailand"}}, {"type": "Feature", "geometry": {"type": "Point", "coordinates": [119.1789, 26.05196]}, "properties": {"date": "2020-01-22", "new": 1, "total": 1, "city": "Fuzhou City", "province": "Fujian", "country": "China"}}, {"type": "Feature", "geometry": {"type": "Point", "coordinates": [112.9444, 23.0131]}, "properties": {"date": "2020-01-22", "new": 1, "total": 1, "city": "Foshan City", "province": "Guangdong", "country": "China"}}, {"type": "Feature", "geometry": {"type": "Point", "coordinates": [117.7166, 31.646959999999996]}, "properties": {"date": "2020-01-22", "new": 1, "total": 1, "city": "Chaohu City, Hefei City", "province": "Anhui", "country": "China"}}, {"type": "Feature", "geometry": {"type": "Point", "coordinates": [119.1789, 26.05196]}, "properties": {"date": "2020-01-22", "new": 1, "total": 1, "city": "Fuzhou City", "province": "Fujian", "country": "China"}}, {"type": "Feature", "geometry": {"type": "Point", "coordinates": [112.9444, 23.0131]}, "properties": {"date": "2020-01-22", "new": 1, "total": 1, "city": "Foshan City", "province": "Guangdong", "country": "China"}}, {"type": "Feature", "geometry": {"type": "Point", "coordinates": [126.9017, 34.86927]}, "properties": {"date": "2020-01-22", "new": 0, "total": 1, "city": "", "province": "South Jeolla", "country": "South Korea"}}, {"type": "Feature", "geometry": {"type": "Point", "coordinates": [116.2063, 40.20789]}, "properties": {"date": "2020-01-22", "new": 0, "total": 1, "city": "Changping District", "province": "Beijing", "country": "China"}}, {"type": "Feature", "geometry": {"type": "Point", "coordinates": [109.32799999999999, 21.676660000000002]}, "properties": {"date": "2020-01-22", "new": 3, "total": 3, "city": "Beihai City", "province": "Guangxi", "country": "China"}}, {"type": "Feature", "geometry": {"type": "Point", "coordinates": [109.37100000000001, 24.95009]}, "properties": {"date": "2020-01-22", "new": 1, "total": 1, "city": "Liuzhou City", "province": "Guangxi", "country": "China"}}, {"type": "Feature", "geometry": {"type": "Point", "coordinates": [110.9909, 23.481720000000003]}, "properties": {"date": "2020-01-22", "new": 1, "total": 1, "city": "Wuzhou City", "province": "Guangxi", "country": "China"}}, {"type": "Feature", "geometry": {"type": "Point", "coordinates": [116.2063, 40.20789]}, "properties": {"date": "2020-01-22", "new": 1, "total": 1, "city": "Changping District", "province": "Beijing", "country": "China"}}, {"type": "Feature", "geometry": {"type": "Point", "coordinates": [116.4172, 39.642379999999996]}, "properties": {"date": "2020-01-22", "new": 0, "total": 2, "city": "Daxing District", "province": "Beijing", "country": "China"}}, {"type": "Feature", "geometry": {"type": "Point", "coordinates": [107.1928, 26.43055]}, "properties": {"date": "2020-01-22", "new": 1, "total": 1, "city": "Guiding County, Qiannan Prefecture", "province": "Guizhou", "country": "China"}}, {"type": "Feature", "geometry": {"type": "Point", "coordinates": [106.7064, 26.84311]}, "properties": {"date": "2020-01-22", "new": 1, "total": 1, "city": "Guiyang City", "province": "Guizhou", "country": "China"}}, {"type": "Feature", "geometry": {"type": "Point", "coordinates": [108.5408, 27.973740000000003]}, "properties": {"date": "2020-01-22", "new": 1, "total": 1, "city": "Tongren City", "province": "Guizhou", "country": "China"}}, {"type": "Feature", "geometry": {"type": "Point", "coordinates": [120.6418, 31.378020000000003]}, "properties": {"date": "2020-01-22", "new": 1, "total": 1, "city": "Suzhou City", "province": "Jiangsu", "country": "China"}}, {"type": "Feature", "geometry": {"type": "Point", "coordinates": [113.46799999999999, 34.62931]}, "properties": {"date": "2020-01-22", "new": 1, "total": 2, "city": "Zhengzhou City", "province": "Henan", "country": "China"}}, {"type": "Feature", "geometry": {"type": "Point", "coordinates": [111.1065, 34.36358]}, "properties": {"date": "2020-01-22", "new": 1, "total": 1, "city": "Sanmenxia City", "province": "Henan", "country": "China"}}, {"type": "Feature", "geometry": {"type": "Point", "coordinates": [112.0323, 34.2936]}, "properties": {"date": "2020-01-22", "new": 1, "total": 1, "city": "Luoyang City", "province": "Henan", "country": "China"}}, {"type": "Feature", "geometry": {"type": "Point", "coordinates": [114.1324, 22.38074]}, "properties": {"date": "2020-01-22", "new": 2, "total": 2, "city": "Hong Kong", "province": "Hong Kong", "country": "China"}}, {"type": "Feature", "geometry": {"type": "Point", "coordinates": [113.1532, 28.227590000000003]}, "properties": {"date": "2020-01-22", "new": 0, "total": 1, "city": "Changsha City", "province": "Hunan", "country": "China"}}, {"type": "Feature", "geometry": {"type": "Point", "coordinates": [109.9751, 27.641059999999996]}, "properties": {"date": "2020-01-22", "new": 3, "total": 3, "city": "Hecheng District, Huaihua City", "province": "Hunan", "country": "China"}}, {"type": "Feature", "geometry": {"type": "Point", "coordinates": [116.1737, 39.92715]}, "properties": {"date": "2020-01-22", "new": 1, "total": 1, "city": "Shijingshan District", "province": "Beijing", "country": "China"}}, {"type": "Feature", "geometry": {"type": "Point", "coordinates": [116.6081, 28.218759999999996]}, "properties": {"date": "2020-01-22", "new": 0, "total": 1, "city": "Dongxiang County, Fuzhou City", "province": "Jiangxi", "country": "China"}}, {"type": "Feature", "geometry": {"type": "Point", "coordinates": [116.0257, 28.66149]}, "properties": {"date": "2020-01-22", "new": 1, "total": 1, "city": "Nanchang City", "province": "Jiangxi", "country": "China"}}, {"type": "Feature", "geometry": {"type": "Point", "coordinates": [122.2224, 39.59944]}, "properties": {"date": "2020-01-22", "new": 1, "total": 1, "city": "Dalian City", "province": "Liaoning", "country": "China"}}, {"type": "Feature", "geometry": {"type": "Point", "coordinates": [113.55, 22.166667]}, "properties": {"date": "2020-01-22", "new": 0, "total": 1, "city": "Landmark Hotel", "province": "Macau", "country": "China"}}, {"type": "Feature", "geometry": {"type": "Point", "coordinates": [106.3496, 38.2349]}, "properties": {"date": "2020-01-22", "new": 1, "total": 1, "city": "Yinchuan City", "province": "Ningxia", "country": "China"}}, {"type": "Feature", "geometry": {"type": "Point", "coordinates": [121.9821, 37.12174]}, "properties": {"date": "2020-01-22", "new": 1, "total": 1, "city": "Weihai City", "province": "Shandong", "country": "China"}}, {"type": "Feature", "geometry": {"type": "Point", "coordinates": [116.3591, 39.91093]}, "properties": {"date": "2020-01-22", "new": 1, "total": 1, "city": "Xicheng District", "province": "Beijing", "country": "China"}}, {"type": "Feature", "geometry": {"type": "Point", "coordinates": [118.2809, 35.31235]}, "properties": {"date": "2020-01-22", "new": 2, "total": 2, "city": "Linyi City", "province": "Shandong", "country": "China"}}, {"type": "Feature", "geometry": {"type": "Point", "coordinates": [116.4151, 40.18535]}, "properties": {"date": "2020-01-22", "new": 1, "total": 1, "city": "", "province": "Beijing", "country": "China"}}, {"type": "Feature", "geometry": {"type": "Point", "coordinates": [139.339, 35.41557]}, "properties": {"date": "2020-01-22", "new": 0, "total": 1, "city": "", "province": "Kanagawa Prefecture", "country": "Japan"}}, {"type": "Feature", "geometry": {"type": "Point", "coordinates": [121.4555, 31.2045]}, "properties": {"date": "2020-01-22", "new": 0, "total": 5, "city": "", "province": "Shanghai", "country": "China"}}, {"type": "Feature", "geometry": {"type": "Point", "coordinates": [112.3157, 37.96001]}, "properties": {"date": "2020-01-22", "new": 1, "total": 1, "city": "Taiyuan City", "province": "Shanxi", "country": "China"}}, {"type": "Feature", "geometry": {"type": "Point", "coordinates": [103.8256, 30.70291]}, "properties": {"date": "2020-01-22", "new": 1, "total": 2, "city": "Chengdu City", "province": "Sichuan", "country": "China"}}, {"type": "Feature", "geometry": {"type": "Point", "coordinates": [104.7008, 31.8534]}, "properties": {"date": "2020-01-22", "new": 2, "total": 2, "city": "Mianyang City", "province": "Sichuan", "country": "China"}}, {"type": "Feature", "geometry": {"type": "Point", "coordinates": [102.8739, 25.39236]}, "properties": {"date": "2020-01-22", "new": 0, "total": 1, "city": "Kunming City", "province": "Yunnan", "country": "China"}}, {"type": "Feature", "geometry": {"type": "Point", "coordinates": [107.3324, 29.660859999999996]}, "properties": {"date": "2020-01-22", "new": 1, "total": 1, "city": "Fuling District", "province": "Chongqing", "country": "China"}}, {"type": "Feature", "geometry": {"type": "Point", "coordinates": [115.7036, 32.9188]}, "properties": {"date": "2020-01-22", "new": 1, "total": 1, "city": "Fuyang City", "province": "Anhui", "country": "China"}}, {"type": "Feature", "geometry": {"type": "Point", "coordinates": [105.8705, 29.29301]}, "properties": {"date": "2020-01-22", "new": 1, "total": 1, "city": "Yongchuan District", "province": "Chongqing", "country": "China"}}, {"type": "Feature", "geometry": {"type": "Point", "coordinates": [109.7462, 19.1987]}, "properties": {"date": "2020-01-22", "new": 1, "total": 1, "city": "", "province": "Hainan", "country": "China"}}, {"type": "Feature", "geometry": {"type": "Point", "coordinates": [110.4894, 19.74837]}, "properties": {"date": "2020-01-22", "new": 1, "total": 1, "city": "Qiongshan District, Haikou City", "province": "Hainan", "country": "China"}}, {"type": "Feature", "geometry": {"type": "Point", "coordinates": [109.7128, 19.80185]}, "properties": {"date": "2020-01-22", "new": 1, "total": 1, "city": "Lingao County", "province": "Hainan", "country": "China"}}, {"type": "Feature", "geometry": {"type": "Point", "coordinates": [109.4197, 18.39084]}, "properties": {"date": "2020-01-22", "new": 1, "total": 1, "city": "Sanya City", "province": "Hainan", "country": "China"}}, {"type": "Feature", "geometry": {"type": "Point", "coordinates": [139.4468, 35.71145]}, "properties": {"date": "2020-01-22", "new": 0, "total": 1, "city": "", "province": "Tokyo", "country": "Japan"}}, {"type": "Feature", "geometry": {"type": "Point", "coordinates": [126.443389, 37.462026]}, "properties": {"date": "2020-01-22", "new": 0, "total": 1, "city": "Incheon Airport", "province": "", "country": "South Korea"}}, {"type": "Feature", "geometry": {"type": "Point", "coordinates": [121.2348, 25.0797]}, "properties": {"date": "2020-01-22", "new": 0, "total": 1, "city": "Taoyuan International Airport", "province": "Taiwan", "country": ""}}, {"type": "Feature", "geometry": {"type": "Point", "coordinates": [100.5363, 13.76658]}, "properties": {"date": "2020-01-22", "new": 0, "total": 2, "city": "Bangkok", "province": "Bangkok Metropolis", "country": "Thailand"}}, {"type": "Feature", "geometry": {"type": "Point", "coordinates": [-121.8346131, 47.49137892]}, "properties": {"date": "2020-01-22", "new": 1, "total": 1, "city": "King", "province": "Washington", "country": "United States"}}]