[{"type": "Feature", "geometry": {"type": "Point", "coordinates": [103.8256, 30.70291]}, "properties": {"date": "2020-02-21", "new": 0, "total": 11, "city": "Chengdu City", "province": "Sichuan", "country": "China"}}, {"type": "Feature", "geometry": {"type": "Point", "coordinates": [114.1324, 22.38074]}, "properties": {"date": "2020-02-21", "new": 0, "total": 1, "city": "Hong Kong", "province": "Hong Kong", "country": "China"}}, {"type": "Feature", "geometry": {"type": "Point", "coordinates": [104.9131, 29.6418]}, "properties": {"date": "2020-02-21", "new": 0, "total": 4, "city": "Neijiang City", "province": "Sichuan", "country": "China"}}, {"type": "Feature", "geometry": {"type": "Point", "coordinates": [106.6635, 30.42717]}, "properties": {"date": "2020-02-21", "new": 0, "total": 3, "city": "Guang'An City", "province": "Sichuan", "country": "China"}}, {"type": "Feature", "geometry": {"type": "Point", "coordinates": [105.666, 28.44237]}, "properties": {"date": "2020-02-21", "new": 0, "total": 2, "city": "Luzhou City", "province": "Sichuan", "country": "China"}}, {"type": "Feature", "geometry": {"type": "Point", "coordinates": [104.4301, 31.13417]}, "properties": {"date": "2020-02-21", "new": 0, "total": 2, "city": "Deyang City", "province": "Sichuan", "country": "China"}}, {"type": "Feature", "geometry": {"type": "Point", "coordinates": [147.0045, -32.23834]}, "properties": {"date": "2020-02-21", "new": 0, "total": 1, "city": "Sydney", "province": "New South Wales", "country": "Australia"}}, {"type": "Feature", "geometry": {"type": "Point", "coordinates": [107.6465, 31.370140000000003]}, "properties": {"date": "2020-02-21", "new": 0, "total": 5, "city": "Dazhou City", "province": "Sichuan", "country": "China"}}, {"type": "Feature", "geometry": {"type": "Point", "coordinates": [103.7518, 29.92724]}, "properties": {"date": "2020-02-21", "new": 0, "total": 2, "city": "Meishan City", "province": "Sichuan", "country": "China"}}, {"type": "Feature", "geometry": {"type": "Point", "coordinates": [100.01, 30.945059999999998]}, "properties": {"date": "2020-02-21", "new": 0, "total": 21, "city": "Ganzi Prefecture", "province": "Sichuan", "country": "China"}}, {"type": "Feature", "geometry": {"type": "Point", "coordinates": [105.7818, 32.26332]}, "properties": {"date": "2020-02-21", "new": 0, "total": 1, "city": "Guangyuan City", "province": "Sichuan", "country": "China"}}, {"type": "Feature", "geometry": {"type": "Point", "coordinates": [106.2033, 31.197029999999998]}, "properties": {"date": "2020-02-21", "new": 0, "total": 4, "city": "Nanchong City", "province": "Sichuan", "country": "China"}}, {"type": "Feature", "geometry": {"type": "Point", "coordinates": [103.5, 10.633333]}, "properties": {"date": "2020-02-21", "new": 0, "total": 1, "city": "Sihanoukville City", "province": "Sihanoukville", "country": "Cambodia"}}, {"type": "Feature", "geometry": {"type": "Point", "coordinates": [102.0762, 27.892709999999997]}, "properties": {"date": "2020-02-21", "new": 0, "total": 3, "city": "Liangshan Prefecture", "province": "Sichuan", "country": "China"}}, {"type": "Feature", "geometry": {"type": "Point", "coordinates": [113.5364, 23.349829999999997]}, "properties": {"date": "2020-02-21", "new": 0, "total": 27, "city": "Guangzhou City", "province": "Guangdong", "country": "China"}}, {"type": "Feature", "geometry": {"type": "Point", "coordinates": [105.4711, 30.633309999999998]}, "properties": {"date": "2020-02-21", "new": 0, "total": 7, "city": "Suining City", "province": "Sichuan", "country": "China"}}, {"type": "Feature", "geometry": {"type": "Point", "coordinates": [114.1291, 22.65389]}, "properties": {"date": "2020-02-21", "new": 0, "total": 12, "city": "Shenzhen City", "province": "Guangdong", "country": "China"}}, {"type": "Feature", "geometry": {"type": "Point", "coordinates": [117.3333, 39.297129999999996]}, "properties": {"date": "2020-02-21", "new": 0, "total": 2, "city": "", "province": "Tianjin", "country": "China"}}, {"type": "Feature", "geometry": {"type": "Point", "coordinates": [139.781111, 35.553333]}, "properties": {"date": "2020-02-21", "new": 0, "total": 1, "city": "Haneda Airport", "province": "Tokyo", "country": "Japan"}}, {"type": "Feature", "geometry": {"type": "Point", "coordinates": [139.4468, 35.71145]}, "properties": {"date": "2020-02-21", "new": 3, "total": 18, "city": "", "province": "Tokyo", "country": "Japan"}}, {"type": "Feature", "geometry": {"type": "Point", "coordinates": [139.669372, 35.5671615]}, "properties": {"date": "2020-02-21", "new": 0, "total": 1, "city": "Ota-Ku", "province": "Tokyo", "country": "Japan"}}, {"type": "Feature", "geometry": {"type": "Point", "coordinates": [54.33112, 23.92122]}, "properties": {"date": "2020-02-21", "new": 0, "total": 6, "city": "", "province": "", "country": "United Arab Emirates"}}, {"type": "Feature", "geometry": {"type": "Point", "coordinates": [105.63005, 21.3273973]}, "properties": {"date": "2020-02-21", "new": 0, "total": 1, "city": "Thien Ke Commune, Binh Xuyen District", "province": "Vinh Phuc", "country": "Vietnam"}}, {"type": "Feature", "geometry": {"type": "Point", "coordinates": [105.67881200000001, 21.276162]}, "properties": {"date": "2020-02-21", "new": 0, "total": 2, "city": "Son Loi Commune, Binh Xuyen District", "province": "Vinh Phuc", "country": "Vietnam"}}, {"type": "Feature", "geometry": {"type": "Point", "coordinates": [105.619479, 21.2847242]}, "properties": {"date": "2020-02-21", "new": 0, "total": 1, "city": "Quat Luu Commune, Binh Xuyen District", "province": "Vinh Phuc", "country": "Vietnam"}}, {"type": "Feature", "geometry": {"type": "Point", "coordinates": [135.190954, 34.0458974]}, "properties": {"date": "2020-02-21", "new": 0, "total": 3, "city": "Yuasa (Saiseikai Arida Hospital), Arida District", "province": "Wakayama Prefecture", "country": "Japan"}}, {"type": "Feature", "geometry": {"type": "Point", "coordinates": [135.149891, 34.0351325]}, "properties": {"date": "2020-02-21", "new": 0, "total": 3, "city": "Yuasa-Cho", "province": "Wakayama Prefecture", "country": "Japan"}}, {"type": "Feature", "geometry": {"type": "Point", "coordinates": [87.78531, 43.73043]}, "properties": {"date": "2020-02-21", "new": 0, "total": 7, "city": "Urumqi City", "province": "Xinjiang", "country": "China"}}, {"type": "Feature", "geometry": {"type": "Point", "coordinates": [87.45765, 39.56335]}, "properties": {"date": "2020-02-21", "new": 0, "total": 2, "city": "Bayingolin Prefecture", "province": "Xinjiang", "country": "China"}}, {"type": "Feature", "geometry": {"type": "Point", "coordinates": [81.97697, 40.932559999999995]}, "properties": {"date": "2020-02-21", "new": 0, "total": 1, "city": "", "province": "Xinjiang", "country": "China"}}, {"type": "Feature", "geometry": {"type": "Point", "coordinates": [82.0969, 43.467929999999996]}, "properties": {"date": "2020-02-21", "new": 0, "total": 1, "city": "Ili Prefecture", "province": "Xinjiang", "country": "China"}}, {"type": "Feature", "geometry": {"type": "Point", "coordinates": [104.0039, 27.65652]}, "properties": {"date": "2020-02-21", "new": 0, "total": 8, "city": "Zhaotong City", "province": "Yunnan", "country": "China"}}, {"type": "Feature", "geometry": {"type": "Point", "coordinates": [101.4838, 25.01087]}, "properties": {"date": "2020-02-21", "new": 0, "total": 1, "city": "", "province": "Yunnan", "country": "China"}}, {"type": "Feature", "geometry": {"type": "Point", "coordinates": [102.8739, 25.39236]}, "properties": {"date": "2020-02-21", "new": 0, "total": 7, "city": "Kunming City", "province": "Yunnan", "country": "China"}}, {"type": "Feature", "geometry": {"type": "Point", "coordinates": [104.7145, 23.69131]}, "properties": {"date": "2020-02-21", "new": 0, "total": 1, "city": "Wenshan Zhuang And Miao Autonomous Prefecture", "province": "Yunnan", "country": "China"}}, {"type": "Feature", "geometry": {"type": "Point", "coordinates": [103.1373, 23.30956]}, "properties": {"date": "2020-02-21", "new": 0, "total": 2, "city": "Gejiu City, Honghe Prefecture", "province": "Yunnan", "country": "China"}}, {"type": "Feature", "geometry": {"type": "Point", "coordinates": [100.037, 25.73038]}, "properties": {"date": "2020-02-21", "new": 0, "total": 3, "city": "Dali Prefecture", "province": "Yunnan", "country": "China"}}, {"type": "Feature", "geometry": {"type": "Point", "coordinates": [103.9368, 25.70936]}, "properties": {"date": "2020-02-21", "new": 0, "total": 1, "city": "Qujing City", "province": "Yunnan", "country": "China"}}, {"type": "Feature", "geometry": {"type": "Point", "coordinates": [103.036, 23.44225]}, "properties": {"date": "2020-02-21", "new": 0, "total": 1, "city": "Honghe Prefecture", "province": "Yunnan", "country": "China"}}, {"type": "Feature", "geometry": {"type": "Point", "coordinates": [98.49303, 25.2764]}, "properties": {"date": "2020-02-21", "new": 0, "total": 1, "city": "Tengchong City, Baoshan City", "province": "Yunnan", "country": "China"}}, {"type": "Feature", "geometry": {"type": "Point", "coordinates": [119.4715, 29.901659999999996]}, "properties": {"date": "2020-02-21", "new": 0, "total": 29, "city": "Hangzhou City", "province": "Zhejiang", "country": "China"}}, {"type": "Feature", "geometry": {"type": "Point", "coordinates": [121.4792, 29.711470000000002]}, "properties": {"date": "2020-02-21", "new": 0, "total": 40, "city": "Ningbo City", "province": "Zhejiang", "country": "China"}}, {"type": "Feature", "geometry": {"type": "Point", "coordinates": [120.4404, 27.905379999999997]}, "properties": {"date": "2020-02-21", "new": 0, "total": 104, "city": "Wenzhou City", "province": "Zhejiang", "country": "China"}}, {"type": "Feature", "geometry": {"type": "Point", "coordinates": [120.7547, 30.63995]}, "properties": {"date": "2020-02-21", "new": 0, "total": 8, "city": "Jiaxing City", "province": "Zhejiang", "country": "China"}}, {"type": "Feature", "geometry": {"type": "Point", "coordinates": [120.63600000000001, 29.7353]}, "properties": {"date": "2020-02-21", "new": 0, "total": 6, "city": "Shaoxing City", "province": "Zhejiang", "country": "China"}}, {"type": "Feature", "geometry": {"type": "Point", "coordinates": [119.9524, 29.117459999999998]}, "properties": {"date": "2020-02-21", "new": 0, "total": 11, "city": "Jinhua City", "province": "Zhejiang", "country": "China"}}, {"type": "Feature", "geometry": {"type": "Point", "coordinates": [121.1116, 28.775]}, "properties": {"date": "2020-02-21", "new": 0, "total": 18, "city": "Taizhou City", "province": "Zhejiang", "country": "China"}}, {"type": "Feature", "geometry": {"type": "Point", "coordinates": [116.3151, 31.75941]}, "properties": {"date": "2020-02-21", "new": 0, "total": 1, "city": "Lu'An City", "province": "Anhui", "country": "China"}}, {"type": "Feature", "geometry": {"type": "Point", "coordinates": [119.8686, 30.74578]}, "properties": {"date": "2020-02-21", "new": 0, "total": 3, "city": "Huzhou City", "province": "Zhejiang", "country": "China"}}, {"type": "Feature", "geometry": {"type": "Point", "coordinates": [119.5133, 28.20076]}, "properties": {"date": "2020-02-21", "new": 0, "total": 1, "city": "Lishui City", "province": "Zhejiang", "country": "China"}}, {"type": "Feature", "geometry": {"type": "Point", "coordinates": [112.9444, 23.0131]}, "properties": {"date": "2020-02-21", "new": 0, "total": 4, "city": "Foshan City", "province": "Guangdong", "country": "China"}}, {"type": "Feature", "geometry": {"type": "Point", "coordinates": [115.5411, 23.0011]}, "properties": {"date": "2020-02-21", "new": 0, "total": 1, "city": "Shanwei City", "province": "Guangdong", "country": "China"}}, {"type": "Feature", "geometry": {"type": "Point", "coordinates": [118.67399999999999, 28.9356]}, "properties": {"date": "2020-02-21", "new": 0, "total": 3, "city": "Quzhou City", "province": "Zhejiang", "country": "China"}}, {"type": "Feature", "geometry": {"type": "Point", "coordinates": [110.1654, 21.10003]}, "properties": {"date": "2020-02-21", "new": 0, "total": 3, "city": "Zhanjiang City", "province": "Guangdong", "country": "China"}}, {"type": "Feature", "geometry": {"type": "Point", "coordinates": [113.3859, 22.52105]}, "properties": {"date": "2020-02-21", "new": 0, "total": 2, "city": "Zhongshan City", "province": "Guangdong", "country": "China"}}, {"type": "Feature", "geometry": {"type": "Point", "coordinates": [138.1427, 37.84798]}, "properties": {"date": "2020-02-21", "new": 0, "total": 5, "city": "", "province": "", "country": "Japan"}}, {"type": "Feature", "geometry": {"type": "Point", "coordinates": [103.882694, 1.379517]}, "properties": {"date": "2020-02-21", "new": 0, "total": 1, "city": "Buangkok Green", "province": "", "country": "Singapore"}}, {"type": "Feature", "geometry": {"type": "Point", "coordinates": [103.844049, 1.2855985]}, "properties": {"date": "2020-02-21", "new": 0, "total": 1, "city": "Park Royal Collection Pickering And Oasia Hotel Downtown", "province": "", "country": "Singapore"}}, {"type": "Feature", "geometry": {"type": "Point", "coordinates": [103.8472, 1.322098]}, "properties": {"date": "2020-02-21", "new": 0, "total": 26, "city": "National Centre For Infectious Diseases", "province": "", "country": "Singapore"}}, {"type": "Feature", "geometry": {"type": "Point", "coordinates": [103.8345, 1.280224]}, "properties": {"date": "2020-02-21", "new": 0, "total": 1, "city": "Singapore General Hospital", "province": "", "country": "Singapore"}}, {"type": "Feature", "geometry": {"type": "Point", "coordinates": [127.0057, 37.56767]}, "properties": {"date": "2020-02-21", "new": 0, "total": 2, "city": "National Medical Center", "province": "Seoul", "country": "South Korea"}}, {"type": "Feature", "geometry": {"type": "Point", "coordinates": [11.41584, 48.968]}, "properties": {"date": "2020-02-21", "new": 0, "total": 1, "city": "", "province": "Bavaria", "country": "Germany"}}, {"type": "Feature", "geometry": {"type": "Point", "coordinates": [103.8934, 1.3954950000000002]}, "properties": {"date": "2020-02-21", "new": 0, "total": 1, "city": "Sengkang General Hospital", "province": "", "country": "Singapore"}}, {"type": "Feature", "geometry": {"type": "Point", "coordinates": [101.4988, 3.27094]}, "properties": {"date": "2020-02-21", "new": 0, "total": 1, "city": "", "province": "Selangor", "country": "Malaysia"}}, {"type": "Feature", "geometry": {"type": "Point", "coordinates": [103.838157, 1.424566]}, "properties": {"date": "2020-02-21", "new": 0, "total": 1, "city": "Khoo Teck Puat Hospital", "province": "", "country": "Singapore"}}, {"type": "Feature", "geometry": {"type": "Point", "coordinates": [-1.46183, 52.65185]}, "properties": {"date": "2020-02-21", "new": 0, "total": 1, "city": "", "province": "England", "country": "United Kingdom"}}, {"type": "Feature", "geometry": {"type": "Point", "coordinates": [139.6651, 35.45085]}, "properties": {"date": "2020-02-21", "new": 0, "total": 153, "city": "Yokohama", "province": "Kanagawa Prefecture", "country": "Japan"}}, {"type": "Feature", "geometry": {"type": "Point", "coordinates": [-0.1275, 51.507220000000004]}, "properties": {"date": "2020-02-21", "new": 0, "total": 5, "city": "London", "province": "England", "country": "United Kingdom"}}, {"type": "Feature", "geometry": {"type": "Point", "coordinates": [127.7975, 36.378190000000004]}, "properties": {"date": "2020-02-21", "new": 0, "total": 2, "city": "", "province": "", "country": "South Korea"}}, {"type": "Feature", "geometry": {"type": "Point", "coordinates": [103.782833, 1.295083]}, "properties": {"date": "2020-02-21", "new": 0, "total": 2, "city": "National University Hospital", "province": "", "country": "Singapore"}}, {"type": "Feature", "geometry": {"type": "Point", "coordinates": [101.6869, 3.139]}, "properties": {"date": "2020-02-21", "new": 0, "total": 2, "city": "Kuala Lumpur", "province": "Wilayah Persekutuan Kuala Lumpur", "country": "Malaysia"}}, {"type": "Feature", "geometry": {"type": "Point", "coordinates": [140.1992, 35.511509999999994]}, "properties": {"date": "2020-02-21", "new": 0, "total": 1, "city": "", "province": "Chiba Prefecture", "country": "Japan"}}, {"type": "Feature", "geometry": {"type": "Point", "coordinates": [139.339, 35.41557]}, "properties": {"date": "2020-02-21", "new": 0, "total": 2, "city": "", "province": "Kanagawa Prefecture", "country": "Japan"}}, {"type": "Feature", "geometry": {"type": "Point", "coordinates": [135.5052, 33.91287]}, "properties": {"date": "2020-02-21", "new": 0, "total": 2, "city": "", "province": "Wakayama Prefecture", "country": "Japan"}}, {"type": "Feature", "geometry": {"type": "Point", "coordinates": [137.2115, 35.03613]}, "properties": {"date": "2020-02-21", "new": 0, "total": 1, "city": "", "province": "Aichi Prefecture", "country": "Japan"}}, {"type": "Feature", "geometry": {"type": "Point", "coordinates": [142.5571, 43.402]}, "properties": {"date": "2020-02-21", "new": 0, "total": 1, "city": "", "province": "Hokkaido", "country": "Japan"}}, {"type": "Feature", "geometry": {"type": "Point", "coordinates": [103.85729599999999, 1.368968]}, "properties": {"date": "2020-02-21", "new": 0, "total": 1, "city": "Ang Mo Kio Avenue 3", "province": "", "country": "Singapore"}}, {"type": "Feature", "geometry": {"type": "Point", "coordinates": [103.703948, 1.341101]}, "properties": {"date": "2020-02-21", "new": 0, "total": 1, "city": "Jurong West Street 64", "province": "", "country": "Singapore"}}, {"type": "Feature", "geometry": {"type": "Point", "coordinates": [103.84344300000001, 1.276542]}, "properties": {"date": "2020-02-21", "new": 0, "total": 1, "city": "Tanjong Pagar Road", "province": "", "country": "Singapore"}}, {"type": "Feature", "geometry": {"type": "Point", "coordinates": [103.86301, 1.3336139]}, "properties": {"date": "2020-02-21", "new": 0, "total": 1, "city": "Potong Pasir Avenue 3", "province": "", "country": "Singapore"}}, {"type": "Feature", "geometry": {"type": "Point", "coordinates": [103.695092, 1.347171]}, "properties": {"date": "2020-02-21", "new": 0, "total": 1, "city": "Jurong West Street 81", "province": "", "country": "Singapore"}}, {"type": "Feature", "geometry": {"type": "Point", "coordinates": [103.8151, 1.35346]}, "properties": {"date": "2020-02-21", "new": 0, "total": 4, "city": "", "province": "", "country": "Singapore"}}, {"type": "Feature", "geometry": {"type": "Point", "coordinates": [29.77867, 26.667959999999997]}, "properties": {"date": "2020-02-21", "new": 0, "total": 1, "city": "", "province": "", "country": "Egypt"}}, {"type": "Feature", "geometry": {"type": "Point", "coordinates": [126.6822, 25.78098]}, "properties": {"date": "2020-02-21", "new": 0, "total": 1, "city": "", "province": "Okinawa", "country": "Japan"}}, {"type": "Feature", "geometry": {"type": "Point", "coordinates": [126.91948899999998, 35.1419144]}, "properties": {"date": "2020-02-21", "new": 0, "total": 1, "city": "Chosun University Hospital", "province": "", "country": "South Korea"}}, {"type": "Feature", "geometry": {"type": "Point", "coordinates": [100.404137, 6.1505669]}, "properties": {"date": "2020-02-21", "new": 0, "total": 1, "city": "Hospital Sultanah Bahiyah", "province": "Kedah", "country": "Malaysia"}}, {"type": "Feature", "geometry": {"type": "Point", "coordinates": [109.7073, 3.797529]}, "properties": {"date": "2020-02-21", "new": 0, "total": 1, "city": "", "province": "", "country": "Malaysia"}}, {"type": "Feature", "geometry": {"type": "Point", "coordinates": [101.0156, 15.179910000000001]}, "properties": {"date": "2020-02-21", "new": 0, "total": 2, "city": "", "province": "", "country": "Thailand"}}, {"type": "Feature", "geometry": {"type": "Point", "coordinates": [103.860478, 1.3538729999999999]}, "properties": {"date": "2020-02-21", "new": 0, "total": 2, "city": "Mei Hwan Drive", "province": "", "country": "Singapore"}}, {"type": "Feature", "geometry": {"type": "Point", "coordinates": [103.87613499999999, 1.393697]}, "properties": {"date": "2020-02-21", "new": 0, "total": 1, "city": "Fernvale Road", "province": "", "country": "Singapore"}}, {"type": "Feature", "geometry": {"type": "Point", "coordinates": [103.801742, 1.4466]}, "properties": {"date": "2020-02-21", "new": 0, "total": 1, "city": "Woodlands Crescent", "province": "", "country": "Singapore"}}, {"type": "Feature", "geometry": {"type": "Point", "coordinates": [126.9667, 37.56667]}, "properties": {"date": "2020-02-21", "new": 0, "total": 1, "city": "Seoul", "province": "Seoul", "country": "South Korea"}}, {"type": "Feature", "geometry": {"type": "Point", "coordinates": [120.9559, 23.75947]}, "properties": {"date": "2020-02-21", "new": 0, "total": 4, "city": "", "province": "Taiwan", "country": ""}}, {"type": "Feature", "geometry": {"type": "Point", "coordinates": [103.856471, 1.339832]}, "properties": {"date": "2020-02-21", "new": 0, "total": 1, "city": "Lorong 8 Toa Payoh", "province": "", "country": "Singapore"}}, {"type": "Feature", "geometry": {"type": "Point", "coordinates": [103.803003, 1.2934976]}, "properties": {"date": "2020-02-21", "new": 0, "total": 1, "city": "Mei Ling Street", "province": "", "country": "Singapore"}}, {"type": "Feature", "geometry": {"type": "Point", "coordinates": [54.36666999999999, 24.46667]}, "properties": {"date": "2020-02-21", "new": 0, "total": 1, "city": "Abu Dhabi", "province": "Abu Dhabi", "country": "United Arab Emirates"}}, {"type": "Feature", "geometry": {"type": "Point", "coordinates": [139.370999, 35.5683173]}, "properties": {"date": "2020-02-21", "new": 0, "total": 1, "city": "Sagamihara Chuo Hospital", "province": "Kanagawa Prefecture", "country": "Japan"}}, {"type": "Feature", "geometry": {"type": "Point", "coordinates": [110.4222, 19.83166]}, "properties": {"date": "2020-02-21", "new": 0, "total": 7, "city": "Haikou City", "province": "Hainan", "country": "China"}}, {"type": "Feature", "geometry": {"type": "Point", "coordinates": [109.9864, 19.691679999999998]}, "properties": {"date": "2020-02-21", "new": 0, "total": 1, "city": "Chengmai County", "province": "Hainan", "country": "China"}}, {"type": "Feature", "geometry": {"type": "Point", "coordinates": [110.182, 22.44296]}, "properties": {"date": "2020-02-21", "new": 0, "total": 1, "city": "Yulin City", "province": "Guangxi", "country": "China"}}, {"type": "Feature", "geometry": {"type": "Point", "coordinates": [107.8409, 24.64574]}, "properties": {"date": "2020-02-21", "new": 0, "total": 1, "city": "Hechi City", "province": "Guangxi", "country": "China"}}, {"type": "Feature", "geometry": {"type": "Point", "coordinates": [117.3428, 31.79444]}, "properties": {"date": "2020-02-21", "new": 0, "total": 2, "city": "Hefei City", "province": "Anhui", "country": "China"}}, {"type": "Feature", "geometry": {"type": "Point", "coordinates": [116.734, 32.75738]}, "properties": {"date": "2020-02-21", "new": 0, "total": 2, "city": "Huainan City", "province": "Anhui", "country": "China"}}, {"type": "Feature", "geometry": {"type": "Point", "coordinates": [118.1285, 31.14997]}, "properties": {"date": "2020-02-21", "new": 0, "total": 2, "city": "Wuhu City", "province": "Anhui", "country": "China"}}, {"type": "Feature", "geometry": {"type": "Point", "coordinates": [117.2092, 33.860859999999995]}, "properties": {"date": "2020-02-21", "new": 0, "total": 1, "city": "Suzhou City", "province": "Anhui", "country": "China"}}, {"type": "Feature", "geometry": {"type": "Point", "coordinates": [115.7036, 32.9188]}, "properties": {"date": "2020-02-21", "new": 0, "total": 1, "city": "Fuyang City", "province": "Anhui", "country": "China"}}, {"type": "Feature", "geometry": {"type": "Point", "coordinates": [117.8965, 30.944670000000002]}, "properties": {"date": "2020-02-21", "new": 0, "total": 1, "city": "Tongling City", "province": "Anhui", "country": "China"}}, {"type": "Feature", "geometry": {"type": "Point", "coordinates": [113.25399999999999, 29.0682]}, "properties": {"date": "2020-02-21", "new": 0, "total": 1, "city": "Yueyang City", "province": "Hunan", "country": "China"}}, {"type": "Feature", "geometry": {"type": "Point", "coordinates": [116.0257, 28.66149]}, "properties": {"date": "2020-02-21", "new": 0, "total": 1, "city": "Nanchang City", "province": "Jiangxi", "country": "China"}}, {"type": "Feature", "geometry": {"type": "Point", "coordinates": [115.4418, 29.3255]}, "properties": {"date": "2020-02-21", "new": 0, "total": 1, "city": "Jiujiang City", "province": "Jiangxi", "country": "China"}}, {"type": "Feature", "geometry": {"type": "Point", "coordinates": [114.8248, 26.97535]}, "properties": {"date": "2020-02-21", "new": 0, "total": 1, "city": "Ji'An City", "province": "Jiangxi", "country": "China"}}, {"type": "Feature", "geometry": {"type": "Point", "coordinates": [113.8738, 22.93336]}, "properties": {"date": "2020-02-21", "new": 0, "total": 3, "city": "Dongguan City", "province": "Guangdong", "country": "China"}}, {"type": "Feature", "geometry": {"type": "Point", "coordinates": [113.361, 22.16925]}, "properties": {"date": "2020-02-21", "new": 0, "total": 1, "city": "Zhuhai City", "province": "Guangdong", "country": "China"}}, {"type": "Feature", "geometry": {"type": "Point", "coordinates": [114.4983, 23.24435]}, "properties": {"date": "2020-02-21", "new": 0, "total": 1, "city": "Huizhou City", "province": "Guangdong", "country": "China"}}, {"type": "Feature", "geometry": {"type": "Point", "coordinates": [112.2026, 23.54164]}, "properties": {"date": "2020-02-21", "new": 0, "total": 2, "city": "Zhaoqing City", "province": "Guangdong", "country": "China"}}, {"type": "Feature", "geometry": {"type": "Point", "coordinates": [114.8834, 32.08258]}, "properties": {"date": "2020-02-21", "new": 0, "total": 4, "city": "Xinyang City", "province": "Henan", "country": "China"}}, {"type": "Feature", "geometry": {"type": "Point", "coordinates": [113.46799999999999, 34.62931]}, "properties": {"date": "2020-02-21", "new": 0, "total": 12, "city": "Zhengzhou City", "province": "Henan", "country": "China"}}, {"type": "Feature", "geometry": {"type": "Point", "coordinates": [114.3525, 35.87894]}, "properties": {"date": "2020-02-21", "new": 0, "total": 5, "city": "Anyang City", "province": "Henan", "country": "China"}}, {"type": "Feature", "geometry": {"type": "Point", "coordinates": [112.2833, 33.04534]}, "properties": {"date": "2020-02-21", "new": 0, "total": 5, "city": "Nanyang City", "province": "Henan", "country": "China"}}, {"type": "Feature", "geometry": {"type": "Point", "coordinates": [114.8773, 33.723859999999995]}, "properties": {"date": "2020-02-21", "new": 0, "total": 7, "city": "Zhoukou City", "province": "Henan", "country": "China"}}, {"type": "Feature", "geometry": {"type": "Point", "coordinates": [114.1505, 32.92419]}, "properties": {"date": "2020-02-21", "new": 0, "total": 1, "city": "Zhumadian City", "province": "Henan", "country": "China"}}, {"type": "Feature", "geometry": {"type": "Point", "coordinates": [119.6369, 31.62592]}, "properties": {"date": "2020-02-21", "new": 0, "total": 1, "city": "Changzhou City", "province": "Jiangsu", "country": "China"}}, {"type": "Feature", "geometry": {"type": "Point", "coordinates": [120.6418, 31.378020000000003]}, "properties": {"date": "2020-02-21", "new": 0, "total": 1, "city": "Suzhou City", "province": "Jiangsu", "country": "China"}}, {"type": "Feature", "geometry": {"type": "Point", "coordinates": [118.9639, 33.357009999999995]}, "properties": {"date": "2020-02-21", "new": 0, "total": 1, "city": "Huai'An City", "province": "Jiangsu", "country": "China"}}, {"type": "Feature", "geometry": {"type": "Point", "coordinates": [101.7307, 26.808459999999997]}, "properties": {"date": "2020-02-21", "new": 0, "total": 3, "city": "Panzhihua City", "province": "Sichuan", "country": "China"}}, {"type": "Feature", "geometry": {"type": "Point", "coordinates": [122.1883, 30.09654]}, "properties": {"date": "2020-02-21", "new": 0, "total": 2, "city": "Zhoushan City", "province": "Zhejiang", "country": "China"}}, {"type": "Feature", "geometry": {"type": "Point", "coordinates": [104.633, 28.57595]}, "properties": {"date": "2020-02-21", "new": 0, "total": 1, "city": "Yibin City", "province": "Sichuan", "country": "China"}}, {"type": "Feature", "geometry": {"type": "Point", "coordinates": [121.4555, 31.2045]}, "properties": {"date": "2020-02-21", "new": 0, "total": 1, "city": "", "province": "Shanghai", "country": "China"}}, {"type": "Feature", "geometry": {"type": "Point", "coordinates": [117.32600000000001, 33.10901]}, "properties": {"date": "2020-02-21", "new": 0, "total": 1, "city": "Bengbu City", "province": "Anhui", "country": "China"}}, {"type": "Feature", "geometry": {"type": "Point", "coordinates": [108.4023, 30.706120000000002]}, "properties": {"date": "2020-02-21", "new": 0, "total": 3, "city": "Wanzhou District", "province": "Chongqing", "country": "China"}}, {"type": "Feature", "geometry": {"type": "Point", "coordinates": [109.3445, 30.955209999999997]}, "properties": {"date": "2020-02-21", "new": 0, "total": 2, "city": "Fengjie County", "province": "Chongqing", "country": "China"}}, {"type": "Feature", "geometry": {"type": "Point", "coordinates": [107.9967, 21.88401]}, "properties": {"date": "2020-02-21", "new": 0, "total": 1, "city": "Fangchenggang City", "province": "Guangxi", "country": "China"}}, {"type": "Feature", "geometry": {"type": "Point", "coordinates": [127.6804, 48.03987]}, "properties": {"date": "2020-02-21", "new": 0, "total": 6, "city": "", "province": "Heilongjiang", "country": "China"}}, {"type": "Feature", "geometry": {"type": "Point", "coordinates": [50.87639, 34.64]}, "properties": {"date": "2020-02-21", "new": 7, "total": 11, "city": "Qom", "province": "Qom", "country": "Iran"}}, {"type": "Feature", "geometry": {"type": "Point", "coordinates": [9.701432, 45.1611]}, "properties": {"date": "2020-02-21", "new": 14, "total": 14, "city": "Codogno", "province": "Lombardia", "country": "Italy"}}, {"type": "Feature", "geometry": {"type": "Point", "coordinates": [11.6583815, 45.2977477]}, "properties": {"date": "2020-02-21", "new": 2, "total": 2, "city": "Vo Euganeo", "province": "Veneto", "country": "Italy"}}, {"type": "Feature", "geometry": {"type": "Point", "coordinates": [9.994373, 45.220890000000004]}, "properties": {"date": "2020-02-21", "new": 1, "total": 1, "city": "Cremona", "province": "Lombardia", "country": "Italy"}}, {"type": "Feature", "geometry": {"type": "Point", "coordinates": [114.8515, 27.84546]}, "properties": {"date": "2020-02-21", "new": 0, "total": 1, "city": "Xinyu City", "province": "Jiangxi", "country": "China"}}, {"type": "Feature", "geometry": {"type": "Point", "coordinates": [121.2179, 49.71785]}, "properties": {"date": "2020-02-21", "new": 0, "total": 1, "city": "Hulunbuir City", "province": "Inner Mongolia", "country": "China"}}, {"type": "Feature", "geometry": {"type": "Point", "coordinates": [115.5438, 44.24353]}, "properties": {"date": "2020-02-21", "new": 0, "total": 1, "city": "Xilingol League City", "province": "Inner Mongolia", "country": "China"}}, {"type": "Feature", "geometry": {"type": "Point", "coordinates": [130.420122, 32.8203606]}, "properties": {"date": "2020-02-21", "new": 1, "total": 1, "city": "Kumamoto City", "province": "Kumamoto", "country": "Japan"}}, {"type": "Feature", "geometry": {"type": "Point", "coordinates": [35.513059999999996, 33.88694]}, "properties": {"date": "2020-02-21", "new": 1, "total": 1, "city": "Beirut", "province": "Beirut", "country": "Lebanon"}}, {"type": "Feature", "geometry": {"type": "Point", "coordinates": [-121.88, 49.55813]}, "properties": {"date": "2020-02-21", "new": 0, "total": 1, "city": "Fraser Valley", "province": "British Columbia", "country": "Canada"}}, {"type": "Feature", "geometry": {"type": "Point", "coordinates": [136.9, 35.18333]}, "properties": {"date": "2020-02-21", "new": 2, "total": 2, "city": "Nagoya City", "province": "Aichi Prefecture", "country": "Japan"}}, {"type": "Feature", "geometry": {"type": "Point", "coordinates": [140.1962, 35.179540700000004]}, "properties": {"date": "2020-02-21", "new": 1, "total": 1, "city": "Katsuura", "province": "Chiba Prefecture", "country": "Japan"}}, {"type": "Feature", "geometry": {"type": "Point", "coordinates": [136.7721, 36.77347]}, "properties": {"date": "2020-02-21", "new": 1, "total": 1, "city": "", "province": "Ishikawa", "country": "Japan"}}, {"type": "Feature", "geometry": {"type": "Point", "coordinates": [139.3476, 35.99736]}, "properties": {"date": "2020-02-21", "new": 1, "total": 1, "city": "", "province": "Saitama", "country": "Japan"}}, {"type": "Feature", "geometry": {"type": "Point", "coordinates": [142.38331399999998, 43.4115473]}, "properties": {"date": "2020-02-21", "new": 2, "total": 2, "city": "Nakafurano", "province": "Hokkaido", "country": "Japan"}}, {"type": "Feature", "geometry": {"type": "Point", "coordinates": [141.240905, 42.8173752]}, "properties": {"date": "2020-02-21", "new": 1, "total": 1, "city": "Chitose", "province": "Hokkaido", "country": "Japan"}}, {"type": "Feature", "geometry": {"type": "Point", "coordinates": [139.3667, 35.56667]}, "properties": {"date": "2020-02-21", "new": 1, "total": 1, "city": "Sagamihara City", "province": "Kanagawa Prefecture", "country": "Japan"}}, {"type": "Feature", "geometry": {"type": "Point", "coordinates": [114.084, 35.26547]}, "properties": {"date": "2020-02-21", "new": 0, "total": 1, "city": "Xinxiang City", "province": "Henan", "country": "China"}}, {"type": "Feature", "geometry": {"type": "Point", "coordinates": [126.8551, 35.13445]}, "properties": {"date": "2020-02-21", "new": 1, "total": 1, "city": "", "province": "Gwangju", "country": "South Korea"}}, {"type": "Feature", "geometry": {"type": "Point", "coordinates": [126.5551, 33.384640000000005]}, "properties": {"date": "2020-02-21", "new": 0, "total": 1, "city": "", "province": "Jeju", "country": "South Korea"}}, {"type": "Feature", "geometry": {"type": "Point", "coordinates": [140.021254, 35.6040591]}, "properties": {"date": "2020-02-21", "new": 1, "total": 1, "city": "Chiba City", "province": "Chiba Prefecture", "country": "Japan"}}, {"type": "Feature", "geometry": {"type": "Point", "coordinates": [114.1505, 32.92419]}, "properties": {"date": "2020-02-21", "new": 0, "total": 2, "city": "Zhumadian City", "province": "Henan", "country": "China"}}, {"type": "Feature", "geometry": {"type": "Point", "coordinates": [113.8999, 33.65542]}, "properties": {"date": "2020-02-21", "new": 0, "total": 3, "city": "Luohe City", "province": "Henan", "country": "China"}}, {"type": "Feature", "geometry": {"type": "Point", "coordinates": [126.9017, 34.86927]}, "properties": {"date": "2020-02-21", "new": 0, "total": 1, "city": "", "province": "South Jeolla", "country": "South Korea"}}, {"type": "Feature", "geometry": {"type": "Point", "coordinates": [113.3859, 22.52105]}, "properties": {"date": "2020-02-21", "new": 0, "total": 1, "city": "Zhongshan City", "province": "Guangdong", "country": "China"}}, {"type": "Feature", "geometry": {"type": "Point", "coordinates": [115.6977, 34.28974]}, "properties": {"date": "2020-02-21", "new": 0, "total": 6, "city": "Shangqiu City", "province": "Henan", "country": "China"}}, {"type": "Feature", "geometry": {"type": "Point", "coordinates": [103.8472, 1.322098]}, "properties": {"date": "2020-02-21", "new": 1, "total": 1, "city": "National Centre For Infectious Diseases", "province": "", "country": "Singapore"}}, {"type": "Feature", "geometry": {"type": "Point", "coordinates": [103.886403, 1.3748719999999999]}, "properties": {"date": "2020-02-21", "new": 1, "total": 1, "city": "Hougang Street 91", "province": "", "country": "Singapore"}}, {"type": "Feature", "geometry": {"type": "Point", "coordinates": [141.686859, 42.782188299999994]}, "properties": {"date": "2020-02-21", "new": 1, "total": 1, "city": "New Chitose Airport", "province": "Hokkaido", "country": "Japan"}}, {"type": "Feature", "geometry": {"type": "Point", "coordinates": [121.4792, 29.711470000000002]}, "properties": {"date": "2020-02-21", "new": 0, "total": 1, "city": "Ningbo City", "province": "Zhejiang", "country": "China"}}, {"type": "Feature", "geometry": {"type": "Point", "coordinates": [114.084, 35.26547]}, "properties": {"date": "2020-02-21", "new": 0, "total": 1, "city": "Xinxiang City", "province": "Henan", "country": "China"}}, {"type": "Feature", "geometry": {"type": "Point", "coordinates": [119.054565, 29.091673999999998]}, "properties": {"date": "2020-02-21", "new": 0, "total": 27, "city": "Shilifeng Prison", "province": "Zhejiang", "country": "China"}}, {"type": "Feature", "geometry": {"type": "Point", "coordinates": [113.0108, 33.796859999999995]}, "properties": {"date": "2020-02-21", "new": 0, "total": 3, "city": "Pingdingshan City", "province": "Henan", "country": "China"}}, {"type": "Feature", "geometry": {"type": "Point", "coordinates": [113.1532, 28.227590000000003]}, "properties": {"date": "2020-02-21", "new": 0, "total": 5, "city": "Changsha City", "province": "Hunan", "country": "China"}}, {"type": "Feature", "geometry": {"type": "Point", "coordinates": [113.25399999999999, 29.0682]}, "properties": {"date": "2020-02-21", "new": 0, "total": 2, "city": "Yueyang City", "province": "Hunan", "country": "China"}}, {"type": "Feature", "geometry": {"type": "Point", "coordinates": [108.4629, 23.05898]}, "properties": {"date": "2020-02-21", "new": 1, "total": 26, "city": "Nanning City", "province": "Guangxi", "country": "China"}}, {"type": "Feature", "geometry": {"type": "Point", "coordinates": [113.361, 22.16925]}, "properties": {"date": "2020-02-21", "new": 0, "total": 4, "city": "Zhuhai City", "province": "Guangdong", "country": "China"}}, {"type": "Feature", "geometry": {"type": "Point", "coordinates": [109.32799999999999, 21.676660000000002]}, "properties": {"date": "2020-02-21", "new": 0, "total": 14, "city": "Beihai City", "province": "Guangxi", "country": "China"}}, {"type": "Feature", "geometry": {"type": "Point", "coordinates": [109.37100000000001, 24.95009]}, "properties": {"date": "2020-02-21", "new": 0, "total": 10, "city": "Liuzhou City", "province": "Guangxi", "country": "China"}}, {"type": "Feature", "geometry": {"type": "Point", "coordinates": [110.5145, 25.35865]}, "properties": {"date": "2020-02-21", "new": 1, "total": 14, "city": "Guilin City", "province": "Guangxi", "country": "China"}}, {"type": "Feature", "geometry": {"type": "Point", "coordinates": [111.1065, 34.36358]}, "properties": {"date": "2020-02-21", "new": 0, "total": 1, "city": "Sanmenxia City", "province": "Henan", "country": "China"}}, {"type": "Feature", "geometry": {"type": "Point", "coordinates": [107.9967, 21.88401]}, "properties": {"date": "2020-02-21", "new": 0, "total": 6, "city": "Fangchenggang City", "province": "Guangxi", "country": "China"}}, {"type": "Feature", "geometry": {"type": "Point", "coordinates": [109.9982, 23.30914]}, "properties": {"date": "2020-02-21", "new": 0, "total": 5, "city": "Guigang City", "province": "Guangxi", "country": "China"}}, {"type": "Feature", "geometry": {"type": "Point", "coordinates": [107.8409, 24.64574]}, "properties": {"date": "2020-02-21", "new": 1, "total": 9, "city": "Hechi City", "province": "Guangxi", "country": "China"}}, {"type": "Feature", "geometry": {"type": "Point", "coordinates": [109.4156, 23.857110000000002]}, "properties": {"date": "2020-02-21", "new": 0, "total": 4, "city": "Laibin City", "province": "Guangxi", "country": "China"}}, {"type": "Feature", "geometry": {"type": "Point", "coordinates": [112.0323, 34.2936]}, "properties": {"date": "2020-02-21", "new": 0, "total": 1, "city": "Luoyang City", "province": "Henan", "country": "China"}}, {"type": "Feature", "geometry": {"type": "Point", "coordinates": [109.0235, 22.1822]}, "properties": {"date": "2020-02-21", "new": 0, "total": 3, "city": "Qinzhou City", "province": "Guangxi", "country": "China"}}, {"type": "Feature", "geometry": {"type": "Point", "coordinates": [114.5375, 34.6068]}, "properties": {"date": "2020-02-21", "new": 0, "total": 1, "city": "Kaifeng City", "province": "Henan", "country": "China"}}, {"type": "Feature", "geometry": {"type": "Point", "coordinates": [114.3093, 35.72307]}, "properties": {"date": "2020-02-21", "new": 0, "total": 2, "city": "Hebi City", "province": "Henan", "country": "China"}}, {"type": "Feature", "geometry": {"type": "Point", "coordinates": [110.182, 22.44296]}, "properties": {"date": "2020-02-21", "new": 0, "total": 3, "city": "Yulin City", "province": "Guangxi", "country": "China"}}, {"type": "Feature", "geometry": {"type": "Point", "coordinates": [111.3626, 24.36175]}, "properties": {"date": "2020-02-21", "new": 0, "total": 3, "city": "Hezhou City", "province": "Guangxi", "country": "China"}}, {"type": "Feature", "geometry": {"type": "Point", "coordinates": [113.7089, 34.07273]}, "properties": {"date": "2020-02-21", "new": 0, "total": 1, "city": "Xuchang City", "province": "Henan", "country": "China"}}, {"type": "Feature", "geometry": {"type": "Point", "coordinates": [106.7477, 29.37342]}, "properties": {"date": "2020-02-21", "new": 0, "total": 1, "city": "Banan District", "province": "Chongqing", "country": "China"}}, {"type": "Feature", "geometry": {"type": "Point", "coordinates": [107.1356, 29.95723]}, "properties": {"date": "2020-02-21", "new": 0, "total": 1, "city": "Changshou District", "province": "Chongqing", "country": "China"}}, {"type": "Feature", "geometry": {"type": "Point", "coordinates": [106.4452, 29.41508]}, "properties": {"date": "2020-02-21", "new": 0, "total": 1, "city": "Dadukou District", "province": "Chongqing", "country": "China"}}, {"type": "Feature", "geometry": {"type": "Point", "coordinates": [115.7036, 32.9188]}, "properties": {"date": "2020-02-21", "new": 0, "total": 1, "city": "Fuyang City", "province": "Anhui", "country": "China"}}, {"type": "Feature", "geometry": {"type": "Point", "coordinates": [120.9559, 23.75947]}, "properties": {"date": "2020-02-21", "new": 2, "total": 2, "city": "", "province": "Taiwan", "country": ""}}, {"type": "Feature", "geometry": {"type": "Point", "coordinates": [106.2863, 23.98862]}, "properties": {"date": "2020-02-21", "new": 0, "total": 1, "city": "Baise City", "province": "Guangxi", "country": "China"}}, {"type": "Feature", "geometry": {"type": "Point", "coordinates": [107.4326, 30.259759999999996]}, "properties": {"date": "2020-02-21", "new": 0, "total": 2, "city": "Dianjiang County", "province": "Chongqing", "country": "China"}}, {"type": "Feature", "geometry": {"type": "Point", "coordinates": [110.9909, 23.481720000000003]}, "properties": {"date": "2020-02-21", "new": 0, "total": 1, "city": "Wuzhou City", "province": "Guangxi", "country": "China"}}, {"type": "Feature", "geometry": {"type": "Point", "coordinates": [118.3354, 39.72276]}, "properties": {"date": "2020-02-21", "new": 0, "total": 1, "city": "Tangshan City", "province": "Hebei", "country": "China"}}, {"type": "Feature", "geometry": {"type": "Point", "coordinates": [119.4715, 29.901659999999996]}, "properties": {"date": "2020-02-21", "new": 0, "total": 1, "city": "Hangzhou City", "province": "Zhejiang", "country": "China"}}, {"type": "Feature", "geometry": {"type": "Point", "coordinates": [120.7547, 30.63995]}, "properties": {"date": "2020-02-21", "new": 0, "total": 2, "city": "Jiaxing City", "province": "Zhejiang", "country": "China"}}, {"type": "Feature", "geometry": {"type": "Point", "coordinates": [112.7069, 35.61116]}, "properties": {"date": "2020-02-21", "new": 0, "total": 1, "city": "Jincheng City", "province": "Shanxi", "country": "China"}}, {"type": "Feature", "geometry": {"type": "Point", "coordinates": [116.0257, 28.66149]}, "properties": {"date": "2020-02-21", "new": 0, "total": 1, "city": "Nanchang City", "province": "Jiangxi", "country": "China"}}, {"type": "Feature", "geometry": {"type": "Point", "coordinates": [118.8424, 31.92997]}, "properties": {"date": "2020-02-21", "new": 0, "total": 1, "city": "Nanjing City", "province": "Jiangsu", "country": "China"}}, {"type": "Feature", "geometry": {"type": "Point", "coordinates": [119.6369, 31.62592]}, "properties": {"date": "2020-02-21", "new": 0, "total": 1, "city": "Changzhou City", "province": "Jiangsu", "country": "China"}}, {"type": "Feature", "geometry": {"type": "Point", "coordinates": [118.8683, 26.61637]}, "properties": {"date": "2020-02-21", "new": 0, "total": 1, "city": "Gutian County, Ningde City", "province": "Fujian", "country": "China"}}, {"type": "Feature", "geometry": {"type": "Point", "coordinates": [110.8759, 26.91525]}, "properties": {"date": "2020-02-21", "new": 0, "total": 7, "city": "Shaoyang City", "province": "Hunan", "country": "China"}}, {"type": "Feature", "geometry": {"type": "Point", "coordinates": [139.339, 35.41557]}, "properties": {"date": "2020-02-21", "new": 0, "total": 1, "city": "", "province": "Kanagawa Prefecture", "country": "Japan"}}, {"type": "Feature", "geometry": {"type": "Point", "coordinates": [139.781111, 35.553333]}, "properties": {"date": "2020-02-21", "new": 0, "total": 1, "city": "Haneda Airport", "province": "Tokyo", "country": "Japan"}}, {"type": "Feature", "geometry": {"type": "Point", "coordinates": [137.2115, 35.03613]}, "properties": {"date": "2020-02-21", "new": 0, "total": 1, "city": "", "province": "Aichi Prefecture", "country": "Japan"}}, {"type": "Feature", "geometry": {"type": "Point", "coordinates": [107.823, 29.88972]}, "properties": {"date": "2020-02-21", "new": 0, "total": 2, "city": "Fengdu County", "province": "Chongqing", "country": "China"}}, {"type": "Feature", "geometry": {"type": "Point", "coordinates": [103.6554, 36.351259999999996]}, "properties": {"date": "2020-02-21", "new": 0, "total": 5, "city": "Lanzhou City", "province": "Gansu", "country": "China"}}, {"type": "Feature", "geometry": {"type": "Point", "coordinates": [105.7378, 34.64971]}, "properties": {"date": "2020-02-21", "new": 0, "total": 1, "city": "Tianshui City", "province": "Gansu", "country": "China"}}, {"type": "Feature", "geometry": {"type": "Point", "coordinates": [103.8756, 36.07809]}, "properties": {"date": "2020-02-21", "new": 0, "total": 2, "city": "Chengguan District, Lanzhou City", "province": "Gansu", "country": "China"}}, {"type": "Feature", "geometry": {"type": "Point", "coordinates": [105.0565, 34.10804]}, "properties": {"date": "2020-02-21", "new": 0, "total": 2, "city": "Lixian County, Longnan City", "province": "Gansu", "country": "China"}}, {"type": "Feature", "geometry": {"type": "Point", "coordinates": [103.7711, 35.96467]}, "properties": {"date": "2020-02-21", "new": 0, "total": 1, "city": "Qilihe District, Lanzhou City", "province": "Gansu", "country": "China"}}, {"type": "Feature", "geometry": {"type": "Point", "coordinates": [104.4519, 35.12274]}, "properties": {"date": "2020-02-21", "new": 0, "total": 1, "city": "Dingxi City", "province": "Gansu", "country": "China"}}, {"type": "Feature", "geometry": {"type": "Point", "coordinates": [103.2668, 36.60351]}, "properties": {"date": "2020-02-21", "new": 0, "total": 1, "city": "Yongdeng County, Lanzhou City", "province": "Gansu", "country": "China"}}, {"type": "Feature", "geometry": {"type": "Point", "coordinates": [103.2798, 35.63012]}, "properties": {"date": "2020-02-21", "new": 0, "total": 1, "city": "Linxia Prefecture", "province": "Gansu", "country": "China"}}, {"type": "Feature", "geometry": {"type": "Point", "coordinates": [4.015407499999999, 45.4583907]}, "properties": {"date": "2020-02-21", "new": 0, "total": 2, "city": "Grenoble", "province": "Auvergne-Rhone-Alpes", "country": "France"}}, {"type": "Feature", "geometry": {"type": "Point", "coordinates": [2.342325, 48.85666]}, "properties": {"date": "2020-02-21", "new": 0, "total": 2, "city": "Paris", "province": "Ile-De-France", "country": "France"}}, {"type": "Feature", "geometry": {"type": "Point", "coordinates": [106.3081, 30.11512]}, "properties": {"date": "2020-02-21", "new": 0, "total": 1, "city": "Hechuan District", "province": "Chongqing", "country": "China"}}, {"type": "Feature", "geometry": {"type": "Point", "coordinates": [106.70700000000001, 29.62085]}, "properties": {"date": "2020-02-21", "new": 0, "total": 1, "city": "Jiangbei District", "province": "Chongqing", "country": "China"}}, {"type": "Feature", "geometry": {"type": "Point", "coordinates": [-124.95307, 55.17425]}, "properties": {"date": "2020-02-21", "new": 0, "total": 1, "city": "Interior Health Region", "province": "British Columbia", "country": "Canada"}}, {"type": "Feature", "geometry": {"type": "Point", "coordinates": [106.2579, 29.03267]}, "properties": {"date": "2020-02-21", "new": 0, "total": 2, "city": "Jiangjin District", "province": "Chongqing", "country": "China"}}, {"type": "Feature", "geometry": {"type": "Point", "coordinates": [106.3625, 29.431890000000003]}, "properties": {"date": "2020-02-21", "new": 0, "total": 1, "city": "Jiulongpo District", "province": "Chongqing", "country": "China"}}, {"type": "Feature", "geometry": {"type": "Point", "coordinates": [108.3787, 31.27337]}, "properties": {"date": "2020-02-21", "new": 0, "total": 3, "city": "Kaizhou District", "province": "Chongqing", "country": "China"}}, {"type": "Feature", "geometry": {"type": "Point", "coordinates": [106.56700000000001, 29.6426]}, "properties": {"date": "2020-02-21", "new": 0, "total": 4, "city": "Liangjiang New District", "province": "Chongqing", "country": "China"}}, {"type": "Feature", "geometry": {"type": "Point", "coordinates": [107.8793, 30.07034]}, "properties": {"date": "2020-02-21", "new": 0, "total": 3, "city": "", "province": "Chongqing", "country": "China"}}, {"type": "Feature", "geometry": {"type": "Point", "coordinates": [106.7179, 28.88242]}, "properties": {"date": "2020-02-21", "new": 0, "total": 1, "city": "Qijiang District", "province": "Chongqing", "country": "China"}}, {"type": "Feature", "geometry": {"type": "Point", "coordinates": [108.4023, 30.706120000000002]}, "properties": {"date": "2020-02-21", "new": 0, "total": 1, "city": "Wanzhou District", "province": "Chongqing", "country": "China"}}, {"type": "Feature", "geometry": {"type": "Point", "coordinates": [109.8962, 31.11774]}, "properties": {"date": "2020-02-21", "new": 0, "total": 2, "city": "Wushan County", "province": "Chongqing", "country": "China"}}, {"type": "Feature", "geometry": {"type": "Point", "coordinates": [109.3486, 31.5058]}, "properties": {"date": "2020-02-21", "new": 0, "total": 2, "city": "Wuxi County", "province": "Chongqing", "country": "China"}}, {"type": "Feature", "geometry": {"type": "Point", "coordinates": [106.7437, 29.81392]}, "properties": {"date": "2020-02-21", "new": 0, "total": 1, "city": "Yubei District", "province": "Chongqing", "country": "China"}}, {"type": "Feature", "geometry": {"type": "Point", "coordinates": [108.8523, 31.03847]}, "properties": {"date": "2020-02-21", "new": 0, "total": 4, "city": "Yunyang County", "province": "Chongqing", "country": "China"}}, {"type": "Feature", "geometry": {"type": "Point", "coordinates": [111.7726, 22.037689999999998]}, "properties": {"date": "2020-02-21", "new": 0, "total": 3, "city": "Yangjiang City", "province": "Guangdong", "country": "China"}}, {"type": "Feature", "geometry": {"type": "Point", "coordinates": [107.9107, 30.338520000000003]}, "properties": {"date": "2020-02-21", "new": 0, "total": 1, "city": "Zhongxian County", "province": "Chongqing", "country": "China"}}, {"type": "Feature", "geometry": {"type": "Point", "coordinates": [111.5202, 29.30245]}, "properties": {"date": "2020-02-21", "new": 0, "total": 5, "city": "Changde City", "province": "Hunan", "country": "China"}}, {"type": "Feature", "geometry": {"type": "Point", "coordinates": [110.0777, 27.55503]}, "properties": {"date": "2020-02-21", "new": 0, "total": 3, "city": "Huaihua City", "province": "Hunan", "country": "China"}}, {"type": "Feature", "geometry": {"type": "Point", "coordinates": [113.1376, 25.81815]}, "properties": {"date": "2020-02-21", "new": 0, "total": 4, "city": "Chenzhou City", "province": "Hunan", "country": "China"}}, {"type": "Feature", "geometry": {"type": "Point", "coordinates": [113.5158, 27.12398]}, "properties": {"date": "2020-02-21", "new": 0, "total": 2, "city": "Zhuzhou City", "province": "Hunan", "country": "China"}}, {"type": "Feature", "geometry": {"type": "Point", "coordinates": [153.0281, -27.4678]}, "properties": {"date": "2020-02-21", "new": 1, "total": 1, "city": "Brisbane", "province": "Queensland", "country": "Australia"}}, {"type": "Feature", "geometry": {"type": "Point", "coordinates": [111.9523, 28.576829999999998]}, "properties": {"date": "2020-02-21", "new": 0, "total": 3, "city": "Yiyang City", "province": "Hunan", "country": "China"}}, {"type": "Feature", "geometry": {"type": "Point", "coordinates": [111.6133, 27.73964]}, "properties": {"date": "2020-02-21", "new": 0, "total": 2, "city": "Loudi City", "province": "Hunan", "country": "China"}}, {"type": "Feature", "geometry": {"type": "Point", "coordinates": [112.8749, 24.31602]}, "properties": {"date": "2020-02-21", "new": 0, "total": 1, "city": "Qingyuan City", "province": "Guangdong", "country": "China"}}, {"type": "Feature", "geometry": {"type": "Point", "coordinates": [112.5737, 26.796020000000002]}, "properties": {"date": "2020-02-21", "new": 0, "total": 1, "city": "Hengyang City", "province": "Hunan", "country": "China"}}, {"type": "Feature", "geometry": {"type": "Point", "coordinates": [100.5228, 13.8538]}, "properties": {"date": "2020-02-21", "new": 0, "total": 1, "city": "Bamrasnaradura Hospital", "province": "Nonthaburi", "country": "Thailand"}}, {"type": "Feature", "geometry": {"type": "Point", "coordinates": [120.1436, 36.454840000000004]}, "properties": {"date": "2020-02-21", "new": 0, "total": 4, "city": "Qingdao City", "province": "Shandong", "country": "China"}}, {"type": "Feature", "geometry": {"type": "Point", "coordinates": [121.9821, 37.12174]}, "properties": {"date": "2020-02-21", "new": 0, "total": 6, "city": "Weihai City", "province": "Shandong", "country": "China"}}, {"type": "Feature", "geometry": {"type": "Point", "coordinates": [113.5364, 23.349829999999997]}, "properties": {"date": "2020-02-21", "new": 0, "total": 2, "city": "Guangzhou City", "province": "Guangdong", "country": "China"}}, {"type": "Feature", "geometry": {"type": "Point", "coordinates": [117.0851, 36.734140000000004]}, "properties": {"date": "2020-02-21", "new": 0, "total": 2, "city": "Jinan City", "province": "Shandong", "country": "China"}}, {"type": "Feature", "geometry": {"type": "Point", "coordinates": [120.8051, 37.24217]}, "properties": {"date": "2020-02-21", "new": 0, "total": 8, "city": "Yantai City", "province": "Shandong", "country": "China"}}, {"type": "Feature", "geometry": {"type": "Point", "coordinates": [116.6525, 37.24178]}, "properties": {"date": "2020-02-21", "new": 0, "total": 3, "city": "Dezhou City", "province": "Shandong", "country": "China"}}, {"type": "Feature", "geometry": {"type": "Point", "coordinates": [119.1358, 35.58324]}, "properties": {"date": "2020-02-21", "new": 0, "total": 1, "city": "Rizhao City", "province": "Shandong", "country": "China"}}, {"type": "Feature", "geometry": {"type": "Point", "coordinates": [115.6914, 35.15343]}, "properties": {"date": "2020-02-21", "new": 0, "total": 4, "city": "Heze City", "province": "Shandong", "country": "China"}}, {"type": "Feature", "geometry": {"type": "Point", "coordinates": [113.361, 22.16925]}, "properties": {"date": "2020-02-21", "new": 0, "total": 4, "city": "Zhuhai City", "province": "Guangdong", "country": "China"}}, {"type": "Feature", "geometry": {"type": "Point", "coordinates": [117.3919, 34.916509999999995]}, "properties": {"date": "2020-02-21", "new": 0, "total": 1, "city": "Zaozhuang City", "province": "Shandong", "country": "China"}}, {"type": "Feature", "geometry": {"type": "Point", "coordinates": [116.4106, 39.91129]}, "properties": {"date": "2020-02-21", "new": 0, "total": 1, "city": "Dongcheng District", "province": "Beijing", "country": "China"}}, {"type": "Feature", "geometry": {"type": "Point", "coordinates": [116.4172, 39.642379999999996]}, "properties": {"date": "2020-02-21", "new": 0, "total": 1, "city": "Daxing District", "province": "Beijing", "country": "China"}}, {"type": "Feature", "geometry": {"type": "Point", "coordinates": [116.2499, 39.8306]}, "properties": {"date": "2020-02-21", "new": 0, "total": 1, "city": "Fengtai District", "province": "Beijing", "country": "China"}}, {"type": "Feature", "geometry": {"type": "Point", "coordinates": [116.4151, 40.18535]}, "properties": {"date": "2020-02-21", "new": 0, "total": 1, "city": "", "province": "Beijing", "country": "China"}}, {"type": "Feature", "geometry": {"type": "Point", "coordinates": [117.32600000000001, 33.10901]}, "properties": {"date": "2020-02-21", "new": 0, "total": 1, "city": "Bengbu City", "province": "Anhui", "country": "China"}}, {"type": "Feature", "geometry": {"type": "Point", "coordinates": [118.1285, 31.14997]}, "properties": {"date": "2020-02-21", "new": 0, "total": 3, "city": "Wuhu City", "province": "Anhui", "country": "China"}}, {"type": "Feature", "geometry": {"type": "Point", "coordinates": [116.5956, 30.61122]}, "properties": {"date": "2020-02-21", "new": 0, "total": 4, "city": "Anqing City", "province": "Anhui", "country": "China"}}, {"type": "Feature", "geometry": {"type": "Point", "coordinates": [116.1808, 33.43671]}, "properties": {"date": "2020-02-21", "new": 0, "total": 2, "city": "Bozhou City", "province": "Anhui", "country": "China"}}, {"type": "Feature", "geometry": {"type": "Point", "coordinates": [104.7008, 31.8534]}, "properties": {"date": "2020-02-21", "new": 0, "total": 2, "city": "Mianyang City", "province": "Sichuan", "country": "China"}}, {"type": "Feature", "geometry": {"type": "Point", "coordinates": [106.6635, 30.42717]}, "properties": {"date": "2020-02-21", "new": 0, "total": 4, "city": "Guang'An City", "province": "Sichuan", "country": "China"}}, {"type": "Feature", "geometry": {"type": "Point", "coordinates": [104.68299999999999, 29.28939]}, "properties": {"date": "2020-02-21", "new": 0, "total": 4, "city": "Zigong City", "province": "Sichuan", "country": "China"}}, {"type": "Feature", "geometry": {"type": "Point", "coordinates": [105.666, 28.44237]}, "properties": {"date": "2020-02-21", "new": 0, "total": 3, "city": "Luzhou City", "province": "Sichuan", "country": "China"}}, {"type": "Feature", "geometry": {"type": "Point", "coordinates": [106.2033, 31.197029999999998]}, "properties": {"date": "2020-02-21", "new": 0, "total": 2, "city": "Nanchong City", "province": "Sichuan", "country": "China"}}, {"type": "Feature", "geometry": {"type": "Point", "coordinates": [105.4711, 30.633309999999998]}, "properties": {"date": "2020-02-21", "new": 0, "total": 1, "city": "Suining City", "province": "Sichuan", "country": "China"}}, {"type": "Feature", "geometry": {"type": "Point", "coordinates": [107.6465, 31.370140000000003]}, "properties": {"date": "2020-02-21", "new": 0, "total": 2, "city": "Dazhou City", "province": "Sichuan", "country": "China"}}, {"type": "Feature", "geometry": {"type": "Point", "coordinates": [104.9131, 29.6418]}, "properties": {"date": "2020-02-21", "new": 0, "total": 1, "city": "Neijiang City", "province": "Sichuan", "country": "China"}}, {"type": "Feature", "geometry": {"type": "Point", "coordinates": [100.01, 30.945059999999998]}, "properties": {"date": "2020-02-21", "new": 0, "total": 2, "city": "Ganzi Prefecture", "province": "Sichuan", "country": "China"}}, {"type": "Feature", "geometry": {"type": "Point", "coordinates": [103.5687, 29.21265]}, "properties": {"date": "2020-02-21", "new": 0, "total": 1, "city": "Leshan City", "province": "Sichuan", "country": "China"}}, {"type": "Feature", "geometry": {"type": "Point", "coordinates": [102.0762, 27.892709999999997]}, "properties": {"date": "2020-02-21", "new": 0, "total": 1, "city": "Liangshan Prefecture", "province": "Sichuan", "country": "China"}}, {"type": "Feature", "geometry": {"type": "Point", "coordinates": [103.7518, 29.92724]}, "properties": {"date": "2020-02-21", "new": 0, "total": 1, "city": "Meishan City", "province": "Sichuan", "country": "China"}}, {"type": "Feature", "geometry": {"type": "Point", "coordinates": [112.9444, 23.0131]}, "properties": {"date": "2020-02-21", "new": 0, "total": 3, "city": "Foshan City", "province": "Guangdong", "country": "China"}}, {"type": "Feature", "geometry": {"type": "Point", "coordinates": [104.633, 28.57595]}, "properties": {"date": "2020-02-21", "new": 0, "total": 1, "city": "Yibin City", "province": "Sichuan", "country": "China"}}, {"type": "Feature", "geometry": {"type": "Point", "coordinates": [118.2574, 25.21145]}, "properties": {"date": "2020-02-21", "new": 0, "total": 5, "city": "Quanzhou City", "province": "Fujian", "country": "China"}}, {"type": "Feature", "geometry": {"type": "Point", "coordinates": [117.3972, 26.300829999999998]}, "properties": {"date": "2020-02-21", "new": 0, "total": 4, "city": "Sanming City", "province": "Fujian", "country": "China"}}, {"type": "Feature", "geometry": {"type": "Point", "coordinates": [117.4428, 24.37045]}, "properties": {"date": "2020-02-21", "new": 0, "total": 4, "city": "Zhangzhou City", "province": "Fujian", "country": "China"}}, {"type": "Feature", "geometry": {"type": "Point", "coordinates": [119.4745, 26.976740000000003]}, "properties": {"date": "2020-02-21", "new": 0, "total": 5, "city": "Ningde City", "province": "Fujian", "country": "China"}}, {"type": "Feature", "geometry": {"type": "Point", "coordinates": [2.342325, 48.85666]}, "properties": {"date": "2020-02-21", "new": 0, "total": 1, "city": "Paris", "province": "Ile-De-France", "country": "France"}}, {"type": "Feature", "geometry": {"type": "Point", "coordinates": [109.7462, 19.1987]}, "properties": {"date": "2020-02-21", "new": 0, "total": 1, "city": "", "province": "Hainan", "country": "China"}}, {"type": "Feature", "geometry": {"type": "Point", "coordinates": [34.88278, 32.009440000000005]}, "properties": {"date": "2020-02-21", "new": 1, "total": 1, "city": "Ben Gurion Airport", "province": "", "country": "Israel"}}, {"type": "Feature", "geometry": {"type": "Point", "coordinates": [118.1138, 24.67595]}, "properties": {"date": "2020-02-21", "new": 0, "total": 1, "city": "Xiamen City", "province": "Fujian", "country": "China"}}, {"type": "Feature", "geometry": {"type": "Point", "coordinates": [118.1433, 27.341520000000003]}, "properties": {"date": "2020-02-21", "new": 0, "total": 2, "city": "Nanping City", "province": "Fujian", "country": "China"}}, {"type": "Feature", "geometry": {"type": "Point", "coordinates": [121.4555, 31.2045]}, "properties": {"date": "2020-02-21", "new": 0, "total": 4, "city": "", "province": "Shanghai", "country": "China"}}, {"type": "Feature", "geometry": {"type": "Point", "coordinates": [121.4555, 31.2045]}, "properties": {"date": "2020-02-21", "new": 0, "total": 9, "city": "", "province": "Shanghai", "country": "China"}}, {"type": "Feature", "geometry": {"type": "Point", "coordinates": [112.9444, 23.0131]}, "properties": {"date": "2020-02-21", "new": 0, "total": 2, "city": "Foshan City", "province": "Guangdong", "country": "China"}}, {"type": "Feature", "geometry": {"type": "Point", "coordinates": [120.6418, 31.378020000000003]}, "properties": {"date": "2020-02-21", "new": 0, "total": 1, "city": "Suzhou City", "province": "Jiangsu", "country": "China"}}, {"type": "Feature", "geometry": {"type": "Point", "coordinates": [119.6369, 31.62592]}, "properties": {"date": "2020-02-21", "new": 0, "total": 1, "city": "Changzhou City", "province": "Jiangsu", "country": "China"}}, {"type": "Feature", "geometry": {"type": "Point", "coordinates": [117.5145, 34.3568]}, "properties": {"date": "2020-02-21", "new": 0, "total": 3, "city": "Xuzhou City", "province": "Jiangsu", "country": "China"}}, {"type": "Feature", "geometry": {"type": "Point", "coordinates": [44.38814, 33.32696]}, "properties": {"date": "2020-02-21", "new": 0, "total": 3, "city": "", "province": "Baghdad", "country": "Iraq"}}, {"type": "Feature", "geometry": {"type": "Point", "coordinates": [47.03508, 31.910259999999997]}, "properties": {"date": "2020-02-21", "new": 0, "total": 1, "city": "", "province": "Maysan", "country": "Iraq"}}, {"type": "Feature", "geometry": {"type": "Point", "coordinates": [43.74071, 31.05282]}, "properties": {"date": "2020-02-21", "new": 0, "total": 1, "city": "", "province": "Najaf", "country": "Iraq"}}, {"type": "Feature", "geometry": {"type": "Point", "coordinates": [121.0053, 32.1975]}, "properties": {"date": "2020-02-21", "new": 0, "total": 2, "city": "Nantong City", "province": "Jiangsu", "country": "China"}}, {"type": "Feature", "geometry": {"type": "Point", "coordinates": [120.0767, 31.52812]}, "properties": {"date": "2020-02-21", "new": 0, "total": 2, "city": "Wuxi City", "province": "Jiangsu", "country": "China"}}, {"type": "Feature", "geometry": {"type": "Point", "coordinates": [119.4729, 32.73976]}, "properties": {"date": "2020-02-21", "new": 0, "total": 3, "city": "Yangzhou City", "province": "Jiangsu", "country": "China"}}, {"type": "Feature", "geometry": {"type": "Point", "coordinates": [9.577214, 34.16168]}, "properties": {"date": "2020-02-21", "new": 0, "total": 1, "city": "", "province": "", "country": "Tunisia"}}, {"type": "Feature", "geometry": {"type": "Point", "coordinates": [120.0575, 32.57248]}, "properties": {"date": "2020-02-21", "new": 0, "total": 1, "city": "Taizhou City", "province": "Jiangsu", "country": "China"}}, {"type": "Feature", "geometry": {"type": "Point", "coordinates": [118.9639, 33.357009999999995]}, "properties": {"date": "2020-02-21", "new": 0, "total": 1, "city": "Huai'An City", "province": "Jiangsu", "country": "China"}}, {"type": "Feature", "geometry": {"type": "Point", "coordinates": [113.7723, 24.82198]}, "properties": {"date": "2020-02-21", "new": 0, "total": 1, "city": "Shaoguan City", "province": "Guangdong", "country": "China"}}, {"type": "Feature", "geometry": {"type": "Point", "coordinates": [153.0281, -27.4678]}, "properties": {"date": "2020-02-21", "new": 1, "total": 1, "city": "Brisbane", "province": "Queensland", "country": "Australia"}}, {"type": "Feature", "geometry": {"type": "Point", "coordinates": [103.8472, 1.322098]}, "properties": {"date": "2020-02-21", "new": 0, "total": 1, "city": "National Centre For Infectious Diseases", "province": "", "country": "Singapore"}}, {"type": "Feature", "geometry": {"type": "Point", "coordinates": [50.9825102, 34.6951488]}, "properties": {"date": "2020-02-21", "new": 0, "total": 7, "city": "", "province": "Qom", "country": "Iran"}}, {"type": "Feature", "geometry": {"type": "Point", "coordinates": [51.876920399999996, 35.556791]}, "properties": {"date": "2020-02-21", "new": 0, "total": 4, "city": "", "province": "Tehran", "country": "Iran"}}, {"type": "Feature", "geometry": {"type": "Point", "coordinates": [49.689170000000004, 34.09167]}, "properties": {"date": "2020-02-21", "new": 0, "total": 1, "city": "Arak", "province": "Markazi", "country": "Iran"}}, {"type": "Feature", "geometry": {"type": "Point", "coordinates": [49.583059999999996, 37.28083]}, "properties": {"date": "2020-02-21", "new": 0, "total": 2, "city": "Rasht", "province": "Gilan", "country": "Iran"}}, {"type": "Feature", "geometry": {"type": "Point", "coordinates": [108.7872, 34.10727]}, "properties": {"date": "2020-02-21", "new": 0, "total": 5, "city": "Xi'An City", "province": "Shaanxi", "country": "China"}}, {"type": "Feature", "geometry": {"type": "Point", "coordinates": [114.4983, 23.24435]}, "properties": {"date": "2020-02-21", "new": 0, "total": 4, "city": "Huizhou City", "province": "Guangdong", "country": "China"}}, {"type": "Feature", "geometry": {"type": "Point", "coordinates": [108.9258, 32.761829999999996]}, "properties": {"date": "2020-02-21", "new": 0, "total": 3, "city": "Ankang City", "province": "Shaanxi", "country": "China"}}, {"type": "Feature", "geometry": {"type": "Point", "coordinates": [108.3897, 34.78867]}, "properties": {"date": "2020-02-21", "new": 0, "total": 2, "city": "Xianyang City", "province": "Shaanxi", "country": "China"}}, {"type": "Feature", "geometry": {"type": "Point", "coordinates": [117.3658, 30.28525]}, "properties": {"date": "2020-02-21", "new": 0, "total": 1, "city": "Chizhou City", "province": "Anhui", "country": "China"}}, {"type": "Feature", "geometry": {"type": "Point", "coordinates": [107.1014, 33.0928]}, "properties": {"date": "2020-02-21", "new": 0, "total": 2, "city": "Hanzhong City", "province": "Shaanxi", "country": "China"}}, {"type": "Feature", "geometry": {"type": "Point", "coordinates": [110.2876, 18.83795]}, "properties": {"date": "2020-02-21", "new": 0, "total": 2, "city": "Wanning City", "province": "Hainan", "country": "China"}}, {"type": "Feature", "geometry": {"type": "Point", "coordinates": [109.4197, 18.39084]}, "properties": {"date": "2020-02-21", "new": 0, "total": 2, "city": "Sanya City", "province": "Hainan", "country": "China"}}, {"type": "Feature", "geometry": {"type": "Point", "coordinates": [110.4222, 19.83166]}, "properties": {"date": "2020-02-21", "new": 0, "total": 2, "city": "Haikou City", "province": "Hainan", "country": "China"}}, {"type": "Feature", "geometry": {"type": "Point", "coordinates": [109.7462, 19.1987]}, "properties": {"date": "2020-02-21", "new": 0, "total": 2, "city": "", "province": "Hainan", "country": "China"}}, {"type": "Feature", "geometry": {"type": "Point", "coordinates": [121.6189, 41.47081]}, "properties": {"date": "2020-02-21", "new": 0, "total": 2, "city": "Jinzhou City", "province": "Liaoning", "country": "China"}}, {"type": "Feature", "geometry": {"type": "Point", "coordinates": [120.0166, 41.51421]}, "properties": {"date": "2020-02-21", "new": 0, "total": 1, "city": "Chaoyang City", "province": "Liaoning", "country": "China"}}, {"type": "Feature", "geometry": {"type": "Point", "coordinates": [124.1707, 42.64676]}, "properties": {"date": "2020-02-21", "new": 0, "total": 2, "city": "Tieling City", "province": "Liaoning", "country": "China"}}, {"type": "Feature", "geometry": {"type": "Point", "coordinates": [120.1972, 40.62562]}, "properties": {"date": "2020-02-21", "new": 0, "total": 1, "city": "Huludao City", "province": "Liaoning", "country": "China"}}, {"type": "Feature", "geometry": {"type": "Point", "coordinates": [102.8739, 25.39236]}, "properties": {"date": "2020-02-21", "new": 0, "total": 8, "city": "Kunming City", "province": "Yunnan", "country": "China"}}, {"type": "Feature", "geometry": {"type": "Point", "coordinates": [100.5235, 26.94233]}, "properties": {"date": "2020-02-21", "new": 0, "total": 2, "city": "Lijiang City", "province": "Yunnan", "country": "China"}}, {"type": "Feature", "geometry": {"type": "Point", "coordinates": [117.3333, 39.297129999999996]}, "properties": {"date": "2020-02-21", "new": 0, "total": 4, "city": "Tianjin City", "province": "Tianjin", "country": "China"}}, {"type": "Feature", "geometry": {"type": "Point", "coordinates": [113.3859, 22.52105]}, "properties": {"date": "2020-02-21", "new": 0, "total": 1, "city": "Zhongshan City", "province": "Guangdong", "country": "China"}}, {"type": "Feature", "geometry": {"type": "Point", "coordinates": [127.9588, 45.646570000000004]}, "properties": {"date": "2020-02-21", "new": 0, "total": 2, "city": "Harbin City", "province": "Heilongjiang", "country": "China"}}, {"type": "Feature", "geometry": {"type": "Point", "coordinates": [126.6487, 46.90084]}, "properties": {"date": "2020-02-21", "new": 0, "total": 3, "city": "Suihua City", "province": "Heilongjiang", "country": "China"}}, {"type": "Feature", "geometry": {"type": "Point", "coordinates": [114.4384, 38.13361]}, "properties": {"date": "2020-02-21", "new": 0, "total": 2, "city": "Shijiazhuang City", "province": "Hebei", "country": "China"}}, {"type": "Feature", "geometry": {"type": "Point", "coordinates": [116.6264, 39.25678]}, "properties": {"date": "2020-02-21", "new": 0, "total": 2, "city": "Langfang City", "province": "Hebei", "country": "China"}}, {"type": "Feature", "geometry": {"type": "Point", "coordinates": [114.8155, 37.21327]}, "properties": {"date": "2020-02-21", "new": 0, "total": 1, "city": "Xingtai City", "province": "Hebei", "country": "China"}}, {"type": "Feature", "geometry": {"type": "Point", "coordinates": [103.8756, 36.07809]}, "properties": {"date": "2020-02-21", "new": 0, "total": 1, "city": "Chengguan District, Lanzhou City", "province": "Gansu", "country": "China"}}, {"type": "Feature", "geometry": {"type": "Point", "coordinates": [105.0565, 34.10804]}, "properties": {"date": "2020-02-21", "new": 0, "total": 1, "city": "Lixian County, Longnan City", "province": "Gansu", "country": "China"}}, {"type": "Feature", "geometry": {"type": "Point", "coordinates": [109.32799999999999, 21.676660000000002]}, "properties": {"date": "2020-02-21", "new": 0, "total": 1, "city": "Beihai City", "province": "Guangxi", "country": "China"}}, {"type": "Feature", "geometry": {"type": "Point", "coordinates": [110.2561, 41.56212]}, "properties": {"date": "2020-02-21", "new": 0, "total": 2, "city": "Baotou City", "province": "Inner Mongolia", "country": "China"}}, {"type": "Feature", "geometry": {"type": "Point", "coordinates": [114.3421, 30.625059999999998]}, "properties": {"date": "2020-02-21", "new": 314, "total": 849, "city": "Wuhan City", "province": "Hubei", "country": "China"}}, {"type": "Feature", "geometry": {"type": "Point", "coordinates": [115.0246, 29.9274]}, "properties": {"date": "2020-02-21", "new": 5, "total": 5, "city": "Huangshi City", "province": "Hubei", "country": "China"}}, {"type": "Feature", "geometry": {"type": "Point", "coordinates": [110.4419, 32.46032]}, "properties": {"date": "2020-02-21", "new": 4, "total": 4, "city": "Shiyan City", "province": "Hubei", "country": "China"}}, {"type": "Feature", "geometry": {"type": "Point", "coordinates": [114.7554, 30.32797]}, "properties": {"date": "2020-02-21", "new": 2, "total": 2, "city": "Ezhou City", "province": "Hubei", "country": "China"}}, {"type": "Feature", "geometry": {"type": "Point", "coordinates": [113.8795, 31.120459999999998]}, "properties": {"date": "2020-02-21", "new": 2, "total": 2, "city": "Xiaogan City", "province": "Hubei", "country": "China"}}, {"type": "Feature", "geometry": {"type": "Point", "coordinates": [115.3378, 30.71988]}, "properties": {"date": "2020-02-21", "new": 16, "total": 16, "city": "Huanggang City", "province": "Hubei", "country": "China"}}, {"type": "Feature", "geometry": {"type": "Point", "coordinates": [113.4236, 31.8296]}, "properties": {"date": "2020-02-21", "new": 4, "total": 4, "city": "Suizhou City", "province": "Hubei", "country": "China"}}, {"type": "Feature", "geometry": {"type": "Point", "coordinates": [113.1135, 30.645570000000003]}, "properties": {"date": "2020-02-21", "new": 1, "total": 1, "city": "Tianmen City", "province": "Hubei", "country": "China"}}, {"type": "Feature", "geometry": {"type": "Point", "coordinates": [112.7567, 30.3399]}, "properties": {"date": "2020-02-21", "new": 1, "total": 1, "city": "Qianjiang City", "province": "Hubei", "country": "China"}}, {"type": "Feature", "geometry": {"type": "Point", "coordinates": [112.2665, 30.989340000000002]}, "properties": {"date": "2020-02-21", "new": 1, "total": 1, "city": "", "province": "Hubei", "country": "China"}}, {"type": "Feature", "geometry": {"type": "Point", "coordinates": [112.5689, 29.99747]}, "properties": {"date": "2020-02-21", "new": 6, "total": 6, "city": "Jingzhou City", "province": "Hubei", "country": "China"}}, {"type": "Feature", "geometry": {"type": "Point", "coordinates": [113.375, 30.29059]}, "properties": {"date": "2020-02-21", "new": 3, "total": 3, "city": "Xiantao City", "province": "Hubei", "country": "China"}}, {"type": "Feature", "geometry": {"type": "Point", "coordinates": [111.9357, 31.932340000000003]}, "properties": {"date": "2020-02-21", "new": 2, "total": 2, "city": "Xiangyang City", "province": "Hubei", "country": "China"}}, {"type": "Feature", "geometry": {"type": "Point", "coordinates": [112.6079, 31.069879999999998]}, "properties": {"date": "2020-02-21", "new": 2, "total": 2, "city": "Jingmen City", "province": "Hubei", "country": "China"}}, {"type": "Feature", "geometry": {"type": "Point", "coordinates": [114.1753, 29.62495]}, "properties": {"date": "2020-02-21", "new": 2, "total": 2, "city": "Xianning City", "province": "Hubei", "country": "China"}}, {"type": "Feature", "geometry": {"type": "Point", "coordinates": [109.5493, 30.1943]}, "properties": {"date": "2020-02-21", "new": 1, "total": 1, "city": "Enshi Prefecture", "province": "Hubei", "country": "China"}}, {"type": "Feature", "geometry": {"type": "Point", "coordinates": [110.4754, 31.591929999999998]}, "properties": {"date": "2020-02-21", "new": 1, "total": 1, "city": "Shennongjia Forest District", "province": "Hubei", "country": "China"}}, {"type": "Feature", "geometry": {"type": "Point", "coordinates": [35.513059999999996, 33.88694]}, "properties": {"date": "2020-02-21", "new": 1, "total": 1, "city": "Beirut", "province": "Beirut", "country": "Lebanon"}}, {"type": "Feature", "geometry": {"type": "Point", "coordinates": [34.88278, 32.009440000000005]}, "properties": {"date": "2020-02-21", "new": 1, "total": 1, "city": "Ben Gurion Airport", "province": "", "country": "Israel"}}, {"type": "Feature", "geometry": {"type": "Point", "coordinates": [31.05, -17.85]}, "properties": {"date": "2020-02-21", "new": 1, "total": 1, "city": "Harare", "province": "Harare", "country": "Zimbabwe"}}, {"type": "Feature", "geometry": {"type": "Point", "coordinates": [121.4555, 31.2045]}, "properties": {"date": "2020-02-21", "new": 0, "total": 8, "city": "", "province": "Shanghai", "country": "China"}}, {"type": "Feature", "geometry": {"type": "Point", "coordinates": [120.7547, 30.63995]}, "properties": {"date": "2020-02-21", "new": 0, "total": 8, "city": "Jiaxing City", "province": "Zhejiang", "country": "China"}}, {"type": "Feature", "geometry": {"type": "Point", "coordinates": [120.63600000000001, 29.7353]}, "properties": {"date": "2020-02-21", "new": 0, "total": 5, "city": "Shaoxing City", "province": "Zhejiang", "country": "China"}}, {"type": "Feature", "geometry": {"type": "Point", "coordinates": [119.9524, 29.117459999999998]}, "properties": {"date": "2020-02-21", "new": 0, "total": 9, "city": "Jinhua City", "province": "Zhejiang", "country": "China"}}, {"type": "Feature", "geometry": {"type": "Point", "coordinates": [121.1116, 28.775]}, "properties": {"date": "2020-02-21", "new": 0, "total": 17, "city": "Taizhou City", "province": "Zhejiang", "country": "China"}}, {"type": "Feature", "geometry": {"type": "Point", "coordinates": [119.4715, 29.901659999999996]}, "properties": {"date": "2020-02-21", "new": 0, "total": 26, "city": "Hangzhou City", "province": "Zhejiang", "country": "China"}}, {"type": "Feature", "geometry": {"type": "Point", "coordinates": [120.4404, 27.905379999999997]}, "properties": {"date": "2020-02-21", "new": 0, "total": 80, "city": "Wenzhou City", "province": "Zhejiang", "country": "China"}}, {"type": "Feature", "geometry": {"type": "Point", "coordinates": [121.4792, 29.711470000000002]}, "properties": {"date": "2020-02-21", "new": 0, "total": 36, "city": "Ningbo City", "province": "Zhejiang", "country": "China"}}, {"type": "Feature", "geometry": {"type": "Point", "coordinates": [119.8686, 30.74578]}, "properties": {"date": "2020-02-21", "new": 0, "total": 1, "city": "Huzhou City", "province": "Zhejiang", "country": "China"}}, {"type": "Feature", "geometry": {"type": "Point", "coordinates": [119.5133, 28.20076]}, "properties": {"date": "2020-02-21", "new": 0, "total": 1, "city": "Lishui City", "province": "Zhejiang", "country": "China"}}, {"type": "Feature", "geometry": {"type": "Point", "coordinates": [108.4629, 23.05898]}, "properties": {"date": "2020-02-21", "new": 1, "total": 29, "city": "Nanning City", "province": "Guangxi", "country": "China"}}, {"type": "Feature", "geometry": {"type": "Point", "coordinates": [110.5145, 25.35865]}, "properties": {"date": "2020-02-21", "new": 1, "total": 12, "city": "Guilin City", "province": "Guangxi", "country": "China"}}, {"type": "Feature", "geometry": {"type": "Point", "coordinates": [109.37100000000001, 24.95009]}, "properties": {"date": "2020-02-21", "new": 0, "total": 11, "city": "Liuzhou City", "province": "Guangxi", "country": "China"}}, {"type": "Feature", "geometry": {"type": "Point", "coordinates": [118.67399999999999, 28.9356]}, "properties": {"date": "2020-02-21", "new": 0, "total": 1, "city": "Quzhou City", "province": "Zhejiang", "country": "China"}}, {"type": "Feature", "geometry": {"type": "Point", "coordinates": [109.32799999999999, 21.676660000000002]}, "properties": {"date": "2020-02-21", "new": 0, "total": 15, "city": "Beihai City", "province": "Guangxi", "country": "China"}}, {"type": "Feature", "geometry": {"type": "Point", "coordinates": [107.9967, 21.88401]}, "properties": {"date": "2020-02-21", "new": 0, "total": 8, "city": "Fangchenggang City", "province": "Guangxi", "country": "China"}}, {"type": "Feature", "geometry": {"type": "Point", "coordinates": [138.1427, 37.84798]}, "properties": {"date": "2020-02-21", "new": 0, "total": 5, "city": "", "province": "", "country": "Japan"}}, {"type": "Feature", "geometry": {"type": "Point", "coordinates": [103.882694, 1.379517]}, "properties": {"date": "2020-02-21", "new": 0, "total": 1, "city": "Buangkok Green", "province": "", "country": "Singapore"}}, {"type": "Feature", "geometry": {"type": "Point", "coordinates": [103.844049, 1.2855985]}, "properties": {"date": "2020-02-21", "new": 0, "total": 1, "city": "Park Royal Collection Pickering And Oasia Hotel Downtown", "province": "", "country": "Singapore"}}, {"type": "Feature", "geometry": {"type": "Point", "coordinates": [103.8472, 1.322098]}, "properties": {"date": "2020-02-21", "new": 1, "total": 27, "city": "National Centre For Infectious Diseases", "province": "", "country": "Singapore"}}, {"type": "Feature", "geometry": {"type": "Point", "coordinates": [103.8345, 1.280224]}, "properties": {"date": "2020-02-21", "new": 0, "total": 1, "city": "Singapore General Hospital", "province": "", "country": "Singapore"}}, {"type": "Feature", "geometry": {"type": "Point", "coordinates": [127.0057, 37.56767]}, "properties": {"date": "2020-02-21", "new": 0, "total": 2, "city": "National Medical Center", "province": "Seoul", "country": "South Korea"}}, {"type": "Feature", "geometry": {"type": "Point", "coordinates": [110.182, 22.44296]}, "properties": {"date": "2020-02-21", "new": 0, "total": 5, "city": "Yulin City", "province": "Guangxi", "country": "China"}}, {"type": "Feature", "geometry": {"type": "Point", "coordinates": [54.33112, 23.92122]}, "properties": {"date": "2020-02-21", "new": 0, "total": 3, "city": "", "province": "", "country": "United Arab Emirates"}}, {"type": "Feature", "geometry": {"type": "Point", "coordinates": [103.8934, 1.3954950000000002]}, "properties": {"date": "2020-02-21", "new": 0, "total": 1, "city": "Sengkang General Hospital", "province": "", "country": "Singapore"}}, {"type": "Feature", "geometry": {"type": "Point", "coordinates": [101.4988, 3.27094]}, "properties": {"date": "2020-02-21", "new": 0, "total": 1, "city": "", "province": "Selangor", "country": "Malaysia"}}, {"type": "Feature", "geometry": {"type": "Point", "coordinates": [103.838157, 1.424566]}, "properties": {"date": "2020-02-21", "new": 0, "total": 1, "city": "Khoo Teck Puat Hospital", "province": "", "country": "Singapore"}}, {"type": "Feature", "geometry": {"type": "Point", "coordinates": [116.4344, 27.51128]}, "properties": {"date": "2020-02-21", "new": 0, "total": 2, "city": "Fuzhou City", "province": "Jiangxi", "country": "China"}}, {"type": "Feature", "geometry": {"type": "Point", "coordinates": [139.6651, 35.45085]}, "properties": {"date": "2020-02-21", "new": 0, "total": 153, "city": "Yokohama", "province": "Kanagawa Prefecture", "country": "Japan"}}, {"type": "Feature", "geometry": {"type": "Point", "coordinates": [115.2745, 25.71368]}, "properties": {"date": "2020-02-21", "new": 0, "total": 5, "city": "Ganzhou City", "province": "Jiangxi", "country": "China"}}, {"type": "Feature", "geometry": {"type": "Point", "coordinates": [127.7975, 36.378190000000004]}, "properties": {"date": "2020-02-21", "new": 0, "total": 2, "city": "", "province": "", "country": "South Korea"}}, {"type": "Feature", "geometry": {"type": "Point", "coordinates": [114.8248, 26.97535]}, "properties": {"date": "2020-02-21", "new": 0, "total": 2, "city": "Ji'An City", "province": "Jiangxi", "country": "China"}}, {"type": "Feature", "geometry": {"type": "Point", "coordinates": [103.782833, 1.295083]}, "properties": {"date": "2020-02-21", "new": 0, "total": 2, "city": "National University Hospital", "province": "", "country": "Singapore"}}, {"type": "Feature", "geometry": {"type": "Point", "coordinates": [101.6869, 3.139]}, "properties": {"date": "2020-02-21", "new": 0, "total": 2, "city": "Kuala Lumpur", "province": "Wilayah Persekutuan Kuala Lumpur", "country": "Malaysia"}}, {"type": "Feature", "geometry": {"type": "Point", "coordinates": [140.1992, 35.511509999999994]}, "properties": {"date": "2020-02-21", "new": 0, "total": 1, "city": "", "province": "Chiba Prefecture", "country": "Japan"}}, {"type": "Feature", "geometry": {"type": "Point", "coordinates": [139.339, 35.41557]}, "properties": {"date": "2020-02-21", "new": 0, "total": 2, "city": "", "province": "Kanagawa Prefecture", "country": "Japan"}}, {"type": "Feature", "geometry": {"type": "Point", "coordinates": [116.0257, 28.66149]}, "properties": {"date": "2020-02-21", "new": 0, "total": 2, "city": "Nanchang City", "province": "Jiangxi", "country": "China"}}, {"type": "Feature", "geometry": {"type": "Point", "coordinates": [135.5052, 33.91287]}, "properties": {"date": "2020-02-21", "new": 0, "total": 2, "city": "", "province": "Wakayama Prefecture", "country": "Japan"}}, {"type": "Feature", "geometry": {"type": "Point", "coordinates": [139.4468, 35.71145]}, "properties": {"date": "2020-02-21", "new": 3, "total": 7, "city": "", "province": "Tokyo", "country": "Japan"}}, {"type": "Feature", "geometry": {"type": "Point", "coordinates": [137.2115, 35.03613]}, "properties": {"date": "2020-02-21", "new": 0, "total": 1, "city": "", "province": "Aichi Prefecture", "country": "Japan"}}, {"type": "Feature", "geometry": {"type": "Point", "coordinates": [142.5571, 43.402]}, "properties": {"date": "2020-02-21", "new": 0, "total": 1, "city": "", "province": "Hokkaido", "country": "Japan"}}, {"type": "Feature", "geometry": {"type": "Point", "coordinates": [113.9029, 27.51356]}, "properties": {"date": "2020-02-21", "new": 0, "total": 1, "city": "Pingxiang City", "province": "Jiangxi", "country": "China"}}, {"type": "Feature", "geometry": {"type": "Point", "coordinates": [103.85729599999999, 1.368968]}, "properties": {"date": "2020-02-21", "new": 0, "total": 1, "city": "Ang Mo Kio Avenue 3", "province": "", "country": "Singapore"}}, {"type": "Feature", "geometry": {"type": "Point", "coordinates": [103.703948, 1.341101]}, "properties": {"date": "2020-02-21", "new": 0, "total": 1, "city": "Jurong West Street 64", "province": "", "country": "Singapore"}}, {"type": "Feature", "geometry": {"type": "Point", "coordinates": [103.84344300000001, 1.276542]}, "properties": {"date": "2020-02-21", "new": 0, "total": 1, "city": "Tanjong Pagar Road", "province": "", "country": "Singapore"}}, {"type": "Feature", "geometry": {"type": "Point", "coordinates": [103.86301, 1.3336139]}, "properties": {"date": "2020-02-21", "new": 0, "total": 1, "city": "Potong Pasir Avenue 3", "province": "", "country": "Singapore"}}, {"type": "Feature", "geometry": {"type": "Point", "coordinates": [103.695092, 1.347171]}, "properties": {"date": "2020-02-21", "new": 0, "total": 1, "city": "Jurong West Street 81", "province": "", "country": "Singapore"}}, {"type": "Feature", "geometry": {"type": "Point", "coordinates": [103.8151, 1.35346]}, "properties": {"date": "2020-02-21", "new": 0, "total": 4, "city": "", "province": "", "country": "Singapore"}}, {"type": "Feature", "geometry": {"type": "Point", "coordinates": [117.4692, 28.77693]}, "properties": {"date": "2020-02-21", "new": 0, "total": 4, "city": "Shangrao City", "province": "Jiangxi", "country": "China"}}, {"type": "Feature", "geometry": {"type": "Point", "coordinates": [126.6822, 25.78098]}, "properties": {"date": "2020-02-21", "new": 0, "total": 1, "city": "", "province": "Okinawa", "country": "Japan"}}, {"type": "Feature", "geometry": {"type": "Point", "coordinates": [126.91948899999998, 35.1419144]}, "properties": {"date": "2020-02-21", "new": 0, "total": 1, "city": "Chosun University Hospital", "province": "", "country": "South Korea"}}, {"type": "Feature", "geometry": {"type": "Point", "coordinates": [100.404137, 6.1505669]}, "properties": {"date": "2020-02-21", "new": 0, "total": 1, "city": "Hospital Sultanah Bahiyah", "province": "Kedah", "country": "Malaysia"}}, {"type": "Feature", "geometry": {"type": "Point", "coordinates": [109.7073, 3.797529]}, "properties": {"date": "2020-02-21", "new": 0, "total": 1, "city": "", "province": "", "country": "Malaysia"}}, {"type": "Feature", "geometry": {"type": "Point", "coordinates": [101.0156, 15.179910000000001]}, "properties": {"date": "2020-02-21", "new": 0, "total": 2, "city": "", "province": "", "country": "Thailand"}}, {"type": "Feature", "geometry": {"type": "Point", "coordinates": [103.860478, 1.3538729999999999]}, "properties": {"date": "2020-02-21", "new": 0, "total": 2, "city": "Mei Hwan Drive", "province": "", "country": "Singapore"}}, {"type": "Feature", "geometry": {"type": "Point", "coordinates": [103.87613499999999, 1.393697]}, "properties": {"date": "2020-02-21", "new": 0, "total": 1, "city": "Fernvale Road", "province": "", "country": "Singapore"}}, {"type": "Feature", "geometry": {"type": "Point", "coordinates": [103.801742, 1.4466]}, "properties": {"date": "2020-02-21", "new": 0, "total": 1, "city": "Woodlands Crescent", "province": "", "country": "Singapore"}}, {"type": "Feature", "geometry": {"type": "Point", "coordinates": [126.9667, 37.56667]}, "properties": {"date": "2020-02-21", "new": 0, "total": 1, "city": "Seoul", "province": "Seoul", "country": "South Korea"}}, {"type": "Feature", "geometry": {"type": "Point", "coordinates": [120.9559, 23.75947]}, "properties": {"date": "2020-02-21", "new": 0, "total": 4, "city": "", "province": "Taiwan", "country": ""}}, {"type": "Feature", "geometry": {"type": "Point", "coordinates": [103.856471, 1.339832]}, "properties": {"date": "2020-02-21", "new": 0, "total": 1, "city": "Lorong 8 Toa Payoh", "province": "", "country": "Singapore"}}, {"type": "Feature", "geometry": {"type": "Point", "coordinates": [103.803003, 1.2934976]}, "properties": {"date": "2020-02-21", "new": 0, "total": 1, "city": "Mei Ling Street", "province": "", "country": "Singapore"}}, {"type": "Feature", "geometry": {"type": "Point", "coordinates": [54.36666999999999, 24.46667]}, "properties": {"date": "2020-02-21", "new": 0, "total": 1, "city": "Abu Dhabi", "province": "Abu Dhabi", "country": "United Arab Emirates"}}, {"type": "Feature", "geometry": {"type": "Point", "coordinates": [139.370999, 35.5683173]}, "properties": {"date": "2020-02-21", "new": 0, "total": 1, "city": "Sagamihara Chuo Hospital", "province": "Kanagawa Prefecture", "country": "Japan"}}, {"type": "Feature", "geometry": {"type": "Point", "coordinates": [114.9732, 28.30755]}, "properties": {"date": "2020-02-21", "new": 0, "total": 4, "city": "Yichun City", "province": "Jiangxi", "country": "China"}}, {"type": "Feature", "geometry": {"type": "Point", "coordinates": [119.1789, 26.05196]}, "properties": {"date": "2020-02-21", "new": 0, "total": 4, "city": "Fuzhou City", "province": "Fujian", "country": "China"}}, {"type": "Feature", "geometry": {"type": "Point", "coordinates": [103.6554, 36.351259999999996]}, "properties": {"date": "2020-02-21", "new": 0, "total": 1, "city": "Lanzhou City", "province": "Gansu", "country": "China"}}, {"type": "Feature", "geometry": {"type": "Point", "coordinates": [118.8892, 25.45184]}, "properties": {"date": "2020-02-21", "new": 0, "total": 9, "city": "Putian City", "province": "Fujian", "country": "China"}}, {"type": "Feature", "geometry": {"type": "Point", "coordinates": [110.4222, 19.83166]}, "properties": {"date": "2020-02-21", "new": 0, "total": 7, "city": "Haikou City", "province": "Hainan", "country": "China"}}, {"type": "Feature", "geometry": {"type": "Point", "coordinates": [109.9864, 19.691679999999998]}, "properties": {"date": "2020-02-21", "new": 0, "total": 1, "city": "Chengmai County", "province": "Hainan", "country": "China"}}, {"type": "Feature", "geometry": {"type": "Point", "coordinates": [107.8409, 24.64574]}, "properties": {"date": "2020-02-21", "new": 1, "total": 10, "city": "Hechi City", "province": "Guangxi", "country": "China"}}, {"type": "Feature", "geometry": {"type": "Point", "coordinates": [117.3428, 31.79444]}, "properties": {"date": "2020-02-21", "new": 0, "total": 2, "city": "Hefei City", "province": "Anhui", "country": "China"}}, {"type": "Feature", "geometry": {"type": "Point", "coordinates": [116.734, 32.75738]}, "properties": {"date": "2020-02-21", "new": 0, "total": 2, "city": "Huainan City", "province": "Anhui", "country": "China"}}, {"type": "Feature", "geometry": {"type": "Point", "coordinates": [118.1285, 31.14997]}, "properties": {"date": "2020-02-21", "new": 0, "total": 2, "city": "Wuhu City", "province": "Anhui", "country": "China"}}, {"type": "Feature", "geometry": {"type": "Point", "coordinates": [117.2092, 33.860859999999995]}, "properties": {"date": "2020-02-21", "new": 0, "total": 1, "city": "Suzhou City", "province": "Anhui", "country": "China"}}, {"type": "Feature", "geometry": {"type": "Point", "coordinates": [115.7036, 32.9188]}, "properties": {"date": "2020-02-21", "new": 0, "total": 1, "city": "Fuyang City", "province": "Anhui", "country": "China"}}, {"type": "Feature", "geometry": {"type": "Point", "coordinates": [117.8965, 30.944670000000002]}, "properties": {"date": "2020-02-21", "new": 0, "total": 1, "city": "Tongling City", "province": "Anhui", "country": "China"}}, {"type": "Feature", "geometry": {"type": "Point", "coordinates": [113.25399999999999, 29.0682]}, "properties": {"date": "2020-02-21", "new": 0, "total": 2, "city": "Yueyang City", "province": "Hunan", "country": "China"}}, {"type": "Feature", "geometry": {"type": "Point", "coordinates": [115.4418, 29.3255]}, "properties": {"date": "2020-02-21", "new": 0, "total": 1, "city": "Jiujiang City", "province": "Jiangxi", "country": "China"}}, {"type": "Feature", "geometry": {"type": "Point", "coordinates": [113.8738, 22.93336]}, "properties": {"date": "2020-02-21", "new": 0, "total": 3, "city": "Dongguan City", "province": "Guangdong", "country": "China"}}, {"type": "Feature", "geometry": {"type": "Point", "coordinates": [114.1291, 22.65389]}, "properties": {"date": "2020-02-21", "new": 0, "total": 1, "city": "Shenzhen City", "province": "Guangdong", "country": "China"}}, {"type": "Feature", "geometry": {"type": "Point", "coordinates": [113.361, 22.16925]}, "properties": {"date": "2020-02-21", "new": 0, "total": 1, "city": "Zhuhai City", "province": "Guangdong", "country": "China"}}, {"type": "Feature", "geometry": {"type": "Point", "coordinates": [114.4983, 23.24435]}, "properties": {"date": "2020-02-21", "new": 0, "total": 1, "city": "Huizhou City", "province": "Guangdong", "country": "China"}}, {"type": "Feature", "geometry": {"type": "Point", "coordinates": [112.2026, 23.54164]}, "properties": {"date": "2020-02-21", "new": 0, "total": 1, "city": "Zhaoqing City", "province": "Guangdong", "country": "China"}}, {"type": "Feature", "geometry": {"type": "Point", "coordinates": [114.8834, 32.08258]}, "properties": {"date": "2020-02-21", "new": 0, "total": 4, "city": "Xinyang City", "province": "Henan", "country": "China"}}, {"type": "Feature", "geometry": {"type": "Point", "coordinates": [113.46799999999999, 34.62931]}, "properties": {"date": "2020-02-21", "new": 0, "total": 3, "city": "Zhengzhou City", "province": "Henan", "country": "China"}}, {"type": "Feature", "geometry": {"type": "Point", "coordinates": [114.3525, 35.87894]}, "properties": {"date": "2020-02-21", "new": 0, "total": 1, "city": "Anyang City", "province": "Henan", "country": "China"}}, {"type": "Feature", "geometry": {"type": "Point", "coordinates": [112.2833, 33.04534]}, "properties": {"date": "2020-02-21", "new": 0, "total": 1, "city": "Nanyang City", "province": "Henan", "country": "China"}}, {"type": "Feature", "geometry": {"type": "Point", "coordinates": [114.8773, 33.723859999999995]}, "properties": {"date": "2020-02-21", "new": 0, "total": 1, "city": "Zhoukou City", "province": "Henan", "country": "China"}}, {"type": "Feature", "geometry": {"type": "Point", "coordinates": [114.1505, 32.92419]}, "properties": {"date": "2020-02-21", "new": 0, "total": 1, "city": "Zhumadian City", "province": "Henan", "country": "China"}}, {"type": "Feature", "geometry": {"type": "Point", "coordinates": [119.6369, 31.62592]}, "properties": {"date": "2020-02-21", "new": 0, "total": 1, "city": "Changzhou City", "province": "Jiangsu", "country": "China"}}, {"type": "Feature", "geometry": {"type": "Point", "coordinates": [120.6418, 31.378020000000003]}, "properties": {"date": "2020-02-21", "new": 0, "total": 6, "city": "Suzhou City", "province": "Jiangsu", "country": "China"}}, {"type": "Feature", "geometry": {"type": "Point", "coordinates": [118.9639, 33.357009999999995]}, "properties": {"date": "2020-02-21", "new": 0, "total": 2, "city": "Huai'An City", "province": "Jiangsu", "country": "China"}}, {"type": "Feature", "geometry": {"type": "Point", "coordinates": [100.01, 30.945059999999998]}, "properties": {"date": "2020-02-21", "new": 0, "total": 5, "city": "Ganzi Prefecture", "province": "Sichuan", "country": "China"}}, {"type": "Feature", "geometry": {"type": "Point", "coordinates": [101.7307, 26.808459999999997]}, "properties": {"date": "2020-02-21", "new": 0, "total": 3, "city": "Panzhihua City", "province": "Sichuan", "country": "China"}}, {"type": "Feature", "geometry": {"type": "Point", "coordinates": [106.2033, 31.197029999999998]}, "properties": {"date": "2020-02-21", "new": 0, "total": 3, "city": "Nanchong City", "province": "Sichuan", "country": "China"}}, {"type": "Feature", "geometry": {"type": "Point", "coordinates": [104.633, 28.57595]}, "properties": {"date": "2020-02-21", "new": 0, "total": 1, "city": "Yibin City", "province": "Sichuan", "country": "China"}}, {"type": "Feature", "geometry": {"type": "Point", "coordinates": [107.6465, 31.370140000000003]}, "properties": {"date": "2020-02-21", "new": 0, "total": 1, "city": "Dazhou City", "province": "Sichuan", "country": "China"}}, {"type": "Feature", "geometry": {"type": "Point", "coordinates": [117.32600000000001, 33.10901]}, "properties": {"date": "2020-02-21", "new": 0, "total": 1, "city": "Bengbu City", "province": "Anhui", "country": "China"}}, {"type": "Feature", "geometry": {"type": "Point", "coordinates": [108.4023, 30.706120000000002]}, "properties": {"date": "2020-02-21", "new": 0, "total": 3, "city": "Wanzhou District", "province": "Chongqing", "country": "China"}}, {"type": "Feature", "geometry": {"type": "Point", "coordinates": [109.3445, 30.955209999999997]}, "properties": {"date": "2020-02-21", "new": 0, "total": 2, "city": "Fengjie County", "province": "Chongqing", "country": "China"}}, {"type": "Feature", "geometry": {"type": "Point", "coordinates": [127.6804, 48.03987]}, "properties": {"date": "2020-02-21", "new": 0, "total": 6, "city": "", "province": "Heilongjiang", "country": "China"}}, {"type": "Feature", "geometry": {"type": "Point", "coordinates": [102.8739, 25.39236]}, "properties": {"date": "2020-02-21", "new": 0, "total": 1, "city": "Kunming City", "province": "Yunnan", "country": "China"}},