[{"type": "Feature", "geometry": {"type": "Point", "coordinates": [111.9357, 31.932340000000003]}, "properties": {"date": "2020-03-31", "new": 0, "total": 12, "city": "Xiangyang City", "province": "Hubei", "country": "China"}}, {"type": "Feature", "geometry": {"type": "Point", "coordinates": [111.1349, 30.74933]}, "properties": {"date": "2020-03-31", "new": 0, "total": 78, "city": "Yichang City", "province": "Hubei", "country": "China"}}, {"type": "Feature", "geometry": {"type": "Point", "coordinates": [114.3421, 30.625059999999998]}, "properties": {"date": "2020-03-31", "new": 0, "total": 67, "city": "Wuhan City", "province": "Hubei", "country": "China"}}, {"type": "Feature", "geometry": {"type": "Point", "coordinates": [112.6079, 31.069879999999998]}, "properties": {"date": "2020-03-31", "new": 0, "total": 75, "city": "Jingmen City", "province": "Hubei", "country": "China"}}, {"type": "Feature", "geometry": {"type": "Point", "coordinates": [114.7554, 30.32797]}, "properties": {"date": "2020-03-31", "new": 0, "total": 70, "city": "Ezhou City", "province": "Hubei", "country": "China"}}, {"type": "Feature", "geometry": {"type": "Point", "coordinates": [115.0246, 29.9274]}, "properties": {"date": "2020-03-31", "new": 0, "total": 57, "city": "Huangshi City", "province": "Hubei", "country": "China"}}, {"type": "Feature", "geometry": {"type": "Point", "coordinates": [112.5689, 29.99747]}, "properties": {"date": "2020-03-31", "new": 0, "total": 56, "city": "Jingzhou City", "province": "Hubei", "country": "China"}}, {"type": "Feature", "geometry": {"type": "Point", "coordinates": [113.4236, 31.8296]}, "properties": {"date": "2020-03-31", "new": 0, "total": 31, "city": "Suizhou City", "province": "Hubei", "country": "China"}}, {"type": "Feature", "geometry": {"type": "Point", "coordinates": [110.4419, 32.46032]}, "properties": {"date": "2020-03-31", "new": 0, "total": 29, "city": "Shiyan City", "province": "Hubei", "country": "China"}}, {"type": "Feature", "geometry": {"type": "Point", "coordinates": [113.375, 30.29059]}, "properties": {"date": "2020-03-31", "new": 0, "total": 20, "city": "Xiantao City", "province": "Hubei", "country": "China"}}, {"type": "Feature", "geometry": {"type": "Point", "coordinates": [113.1135, 30.645570000000003]}, "properties": {"date": "2020-03-31", "new": 0, "total": 18, "city": "Tianmen City", "province": "Hubei", "country": "China"}}, {"type": "Feature", "geometry": {"type": "Point", "coordinates": [114.1753, 29.62495]}, "properties": {"date": "2020-03-31", "new": 0, "total": 17, "city": "Xianning City", "province": "Hubei", "country": "China"}}, {"type": "Feature", "geometry": {"type": "Point", "coordinates": [109.5493, 30.1943]}, "properties": {"date": "2020-03-31", "new": 0, "total": 11, "city": "Enshi Prefecture", "province": "Hubei", "country": "China"}}, {"type": "Feature", "geometry": {"type": "Point", "coordinates": [112.7567, 30.3399]}, "properties": {"date": "2020-03-31", "new": 0, "total": 2, "city": "Qianjiang City", "province": "Hubei", "country": "China"}}, {"type": "Feature", "geometry": {"type": "Point", "coordinates": [47.61266, 29.356559999999998]}, "properties": {"date": "2020-03-31", "new": 0, "total": 8, "city": "", "province": "", "country": "Kuwait"}}, {"type": "Feature", "geometry": {"type": "Point", "coordinates": [56.11048, 20.631079999999997]}, "properties": {"date": "2020-03-31", "new": 0, "total": 4, "city": "", "province": "", "country": "Oman"}}, {"type": "Feature", "geometry": {"type": "Point", "coordinates": [29.77867, 26.667959999999997]}, "properties": {"date": "2020-03-31", "new": 54, "total": 216, "city": "", "province": "", "country": "Egypt"}}, {"type": "Feature", "geometry": {"type": "Point", "coordinates": [30.7216, -28.7422]}, "properties": {"date": "2020-03-31", "new": 0, "total": 22, "city": "", "province": "Kwazulu-Natal", "country": "South Africa"}}, {"type": "Feature", "geometry": {"type": "Point", "coordinates": [2.674582, 28.42343]}, "properties": {"date": "2020-03-31", "new": 0, "total": 9, "city": "", "province": "", "country": "Algeria"}}, {"type": "Feature", "geometry": {"type": "Point", "coordinates": [2.125278, 13.511667000000001]}, "properties": {"date": "2020-03-31", "new": 0, "total": 27, "city": "Niamey", "province": "Niamey Capital District", "country": "Niger"}}, {"type": "Feature", "geometry": {"type": "Point", "coordinates": [11.50516, 3.850253]}, "properties": {"date": "2020-03-31", "new": 0, "total": 2, "city": "Yaounde", "province": "", "country": "Cameroon"}}, {"type": "Feature", "geometry": {"type": "Point", "coordinates": [-7.58333, 33.53333]}, "properties": {"date": "2020-03-31", "new": 0, "total": 1, "city": "Casablanca", "province": "Casablanca-Settat", "country": "Morocco"}}, {"type": "Feature", "geometry": {"type": "Point", "coordinates": [51.19044, 25.28442]}, "properties": {"date": "2020-03-31", "new": 0, "total": 1, "city": "", "province": "", "country": "Qatar"}}, {"type": "Feature", "geometry": {"type": "Point", "coordinates": [55.53273000000001, -21.1335]}, "properties": {"date": "2020-03-31", "new": 0, "total": 9, "city": "", "province": "", "country": "Reunion"}}, {"type": "Feature", "geometry": {"type": "Point", "coordinates": [38.74, 9.03]}, "properties": {"date": "2020-03-31", "new": 3, "total": 5, "city": "Addis Ababa", "province": "Addis Ababa", "country": "Ethiopia"}}, {"type": "Feature", "geometry": {"type": "Point", "coordinates": [36.75, 11.333333]}, "properties": {"date": "2020-03-31", "new": 0, "total": 1, "city": "Addis Kidame", "province": "Amhara", "country": "Ethiopia"}}, {"type": "Feature", "geometry": {"type": "Point", "coordinates": [37.383333, 11.6]}, "properties": {"date": "2020-03-31", "new": 0, "total": 1, "city": "Bahirdar", "province": "Amhara", "country": "Ethiopia"}}, {"type": "Feature", "geometry": {"type": "Point", "coordinates": [17.227929999999997, -22.2558]}, "properties": {"date": "2020-03-31", "new": 0, "total": 5, "city": "", "province": "", "country": "Namibia"}}, {"type": "Feature", "geometry": {"type": "Point", "coordinates": [28.0, -26.0]}, "properties": {"date": "2020-03-31", "new": 0, "total": 82, "city": "", "province": "Gauteng", "country": "South Africa"}}, {"type": "Feature", "geometry": {"type": "Point", "coordinates": [20.0, -34.0]}, "properties": {"date": "2020-03-31", "new": 0, "total": 46, "city": "", "province": "Western Cape", "country": "South Africa"}}, {"type": "Feature", "geometry": {"type": "Point", "coordinates": [30.0, -26.0]}, "properties": {"date": "2020-03-31", "new": 0, "total": 5, "city": "", "province": "Mpumalanga", "country": "South Africa"}}, {"type": "Feature", "geometry": {"type": "Point", "coordinates": [-1.51989, 12.3714]}, "properties": {"date": "2020-03-31", "new": 0, "total": 2, "city": "Ouagadougou", "province": "", "country": "Burkina Faso"}}, {"type": "Feature", "geometry": {"type": "Point", "coordinates": [29.0, -24.0]}, "properties": {"date": "2020-03-31", "new": 0, "total": 1, "city": "", "province": "Limpopo", "country": "South Africa"}}, {"type": "Feature", "geometry": {"type": "Point", "coordinates": [15.30144, -4.38828]}, "properties": {"date": "2020-03-31", "new": 0, "total": 1, "city": "Kinshasa", "province": "", "country": "Democratic Republic Of The Congo"}}, {"type": "Feature", "geometry": {"type": "Point", "coordinates": [2.9197130000000002, 36.49228]}, "properties": {"date": "2020-03-31", "new": 0, "total": 5, "city": "Blida", "province": "Blida", "country": "Algeria"}}, {"type": "Feature", "geometry": {"type": "Point", "coordinates": [0.13333299999999998, 35.4]}, "properties": {"date": "2020-03-31", "new": 0, "total": 2, "city": "Mascara", "province": "Mascara", "country": "Algeria"}}, {"type": "Feature", "geometry": {"type": "Point", "coordinates": [4.37111, 36.745278000000006]}, "properties": {"date": "2020-03-31", "new": 0, "total": 1, "city": "Azazga", "province": "Tizi Ouzou", "country": "Algeria"}}, {"type": "Feature", "geometry": {"type": "Point", "coordinates": [7.951111, 36.286389]}, "properties": {"date": "2020-03-31", "new": 0, "total": 1, "city": "Souk-Ahras", "province": "Souk-Ahras", "country": "Algeria"}}, {"type": "Feature", "geometry": {"type": "Point", "coordinates": [25.031470000000002, -29.122]}, "properties": {"date": "2020-03-31", "new": 27, "total": 290, "city": "", "province": "", "country": "South Africa"}}, {"type": "Feature", "geometry": {"type": "Point", "coordinates": [2.9197130000000002, 36.49228]}, "properties": {"date": "2020-03-31", "new": 0, "total": 185, "city": "Blida", "province": "Blida", "country": "Algeria"}}, {"type": "Feature", "geometry": {"type": "Point", "coordinates": [47.61266, 29.356559999999998]}, "properties": {"date": "2020-03-31", "new": 0, "total": 7, "city": "", "province": "", "country": "Kuwait"}}, {"type": "Feature", "geometry": {"type": "Point", "coordinates": [3.0588889999999997, 36.753889]}, "properties": {"date": "2020-03-31", "new": 0, "total": 87, "city": "Algiers", "province": "Algiers", "country": "Algeria"}}, {"type": "Feature", "geometry": {"type": "Point", "coordinates": [6.9, 36.866667]}, "properties": {"date": "2020-03-31", "new": 0, "total": 6, "city": "Skikda", "province": "Skikda", "country": "Algeria"}}, {"type": "Feature", "geometry": {"type": "Point", "coordinates": [4.05, 36.716667]}, "properties": {"date": "2020-03-31", "new": 0, "total": 17, "city": "Tizi Ouzou", "province": "Tizi Ouzou", "country": "Algeria"}}, {"type": "Feature", "geometry": {"type": "Point", "coordinates": [7.766667, 36.9]}, "properties": {"date": "2020-03-31", "new": 0, "total": 5, "city": "Annaba", "province": "Annaba", "country": "Algeria"}}, {"type": "Feature", "geometry": {"type": "Point", "coordinates": [5.066667, 36.75]}, "properties": {"date": "2020-03-31", "new": 0, "total": 14, "city": "Bejaia", "province": "Bejaia", "country": "Algeria"}}, {"type": "Feature", "geometry": {"type": "Point", "coordinates": [-0.2, 5.55]}, "properties": {"date": "2020-03-31", "new": 0, "total": 15, "city": "Accra", "province": "Greater Accra Region", "country": "Ghana"}}, {"type": "Feature", "geometry": {"type": "Point", "coordinates": [-1.616667, 6.6666669999999995]}, "properties": {"date": "2020-03-31", "new": 0, "total": 4, "city": "Kumasi", "province": "Ashanti Region", "country": "Ghana"}}, {"type": "Feature", "geometry": {"type": "Point", "coordinates": [0.0, 5.6666669999999995]}, "properties": {"date": "2020-03-31", "new": 0, "total": 1, "city": "Tema", "province": "Greater Accra Region", "country": "Ghana"}}, {"type": "Feature", "geometry": {"type": "Point", "coordinates": [-1.2106, 7.977253999999999]}, "properties": {"date": "2020-03-31", "new": 0, "total": 121, "city": "", "province": "", "country": "Ghana"}}, {"type": "Feature", "geometry": {"type": "Point", "coordinates": [29.77867, 26.667959999999997]}, "properties": {"date": "2020-03-31", "new": 0, "total": 1, "city": "", "province": "", "country": "Egypt"}}, {"type": "Feature", "geometry": {"type": "Point", "coordinates": [3.384082, 6.455026999999999]}, "properties": {"date": "2020-03-31", "new": 1, "total": 50, "city": "", "province": "Lagos", "country": "Nigeria"}}, {"type": "Feature", "geometry": {"type": "Point", "coordinates": [10.0, 10.5]}, "properties": {"date": "2020-03-31", "new": 0, "total": 1, "city": "", "province": "Bauchi", "country": "Nigeria"}}, {"type": "Feature", "geometry": {"type": "Point", "coordinates": [7.483333, 9.066667]}, "properties": {"date": "2020-03-31", "new": 3, "total": 18, "city": "", "province": "Abuja", "country": "Nigeria"}}, {"type": "Feature", "geometry": {"type": "Point", "coordinates": [4.0, 8.0]}, "properties": {"date": "2020-03-31", "new": 0, "total": 7, "city": "", "province": "Oyo", "country": "Nigeria"}}, {"type": "Feature", "geometry": {"type": "Point", "coordinates": [7.5, 6.5]}, "properties": {"date": "2020-03-31", "new": 0, "total": 2, "city": "", "province": "Enugu", "country": "Nigeria"}}, {"type": "Feature", "geometry": {"type": "Point", "coordinates": [6.0, 6.5]}, "properties": {"date": "2020-03-31", "new": 0, "total": 1, "city": "", "province": "Edo", "country": "Nigeria"}}, {"type": "Feature", "geometry": {"type": "Point", "coordinates": [8.75, 7.33333]}, "properties": {"date": "2020-03-31", "new": 0, "total": 1, "city": "", "province": "Benue", "country": "Nigeria"}}, {"type": "Feature", "geometry": {"type": "Point", "coordinates": [7.433333, 10.516667]}, "properties": {"date": "2020-03-31", "new": 0, "total": 3, "city": "", "province": "Kaduna", "country": "Nigeria"}}, {"type": "Feature", "geometry": {"type": "Point", "coordinates": [4.5, 7.5]}, "properties": {"date": "2020-03-31", "new": 3, "total": 4, "city": "", "province": "Osun", "country": "Nigeria"}}, {"type": "Feature", "geometry": {"type": "Point", "coordinates": [3.583333, 7.0]}, "properties": {"date": "2020-03-31", "new": 1, "total": 1, "city": "", "province": "Ogun", "country": "Nigeria"}}, {"type": "Feature", "geometry": {"type": "Point", "coordinates": [-14.294903, 13.276764000000002]}, "properties": {"date": "2020-03-31", "new": 0, "total": 1, "city": "Numuyel", "province": "", "country": "Gambia"}}, {"type": "Feature", "geometry": {"type": "Point", "coordinates": [-16.5775, 13.453056]}, "properties": {"date": "2020-03-31", "new": 0, "total": 1, "city": "Banjul", "province": "", "country": "Gambia"}}, {"type": "Feature", "geometry": {"type": "Point", "coordinates": [-1.133333, 35.3]}, "properties": {"date": "2020-03-31", "new": 0, "total": 2, "city": "Ain Temouchent", "province": "Ain Temouchent", "country": "Algeria"}}, {"type": "Feature", "geometry": {"type": "Point", "coordinates": [1.333333, 36.216667]}, "properties": {"date": "2020-03-31", "new": 0, "total": 4, "city": "Chlef", "province": "Chlef", "country": "Algeria"}}, {"type": "Feature", "geometry": {"type": "Point", "coordinates": [5.75, 36.816666999999995]}, "properties": {"date": "2020-03-31", "new": 0, "total": 2, "city": "Jijel", "province": "Jijel", "country": "Algeria"}}, {"type": "Feature", "geometry": {"type": "Point", "coordinates": [0.083333, 35.933333000000005]}, "properties": {"date": "2020-03-31", "new": 0, "total": 5, "city": "Mostaganem", "province": "Mostaganem", "country": "Algeria"}}, {"type": "Feature", "geometry": {"type": "Point", "coordinates": [-0.641389, 35.193889]}, "properties": {"date": "2020-03-31", "new": 0, "total": 3, "city": "Sidi Bel Abbes", "province": "Sidi Bel Abbes", "country": "Algeria"}}, {"type": "Feature", "geometry": {"type": "Point", "coordinates": [2.4494439999999997, 36.591944]}, "properties": {"date": "2020-03-31", "new": 0, "total": 14, "city": "Tipaza", "province": "Tipaza", "country": "Algeria"}}, {"type": "Feature", "geometry": {"type": "Point", "coordinates": [-1.31667, 34.882776]}, "properties": {"date": "2020-03-31", "new": 0, "total": 11, "city": "Tlemcen", "province": "Tlemcen", "country": "Algeria"}}, {"type": "Feature", "geometry": {"type": "Point", "coordinates": [-0.283333, 27.866667]}, "properties": {"date": "2020-03-31", "new": 0, "total": 1, "city": "Adrar", "province": "Adrar", "country": "Algeria"}}, {"type": "Feature", "geometry": {"type": "Point", "coordinates": [7.183333, 33.455556]}, "properties": {"date": "2020-03-31", "new": 0, "total": 3, "city": "El Oued", "province": "El Oued", "country": "Algeria"}}, {"type": "Feature", "geometry": {"type": "Point", "coordinates": [7.133333, 35.416667]}, "properties": {"date": "2020-03-31", "new": 0, "total": 1, "city": "Khenchela", "province": "Khenchela", "country": "Algeria"}}, {"type": "Feature", "geometry": {"type": "Point", "coordinates": [5.4, 36.183333000000005]}, "properties": {"date": "2020-03-31", "new": 0, "total": 9, "city": "Setif", "province": "Setif", "country": "Algeria"}}, {"type": "Feature", "geometry": {"type": "Point", "coordinates": [-0.6330560000000001, 35.696944]}, "properties": {"date": "2020-03-31", "new": 0, "total": 20, "city": "Oran", "province": "Oran", "country": "Algeria"}}, {"type": "Feature", "geometry": {"type": "Point", "coordinates": [3.4723669999999998, 36.760342]}, "properties": {"date": "2020-03-31", "new": 0, "total": 3, "city": "Boumerdes", "province": "Boumerdes", "country": "Algeria"}}, {"type": "Feature", "geometry": {"type": "Point", "coordinates": [1.9703, 36.2652]}, "properties": {"date": "2020-03-31", "new": 0, "total": 14, "city": "Ain Defla", "province": "Ain Defla", "country": "Algeria"}}, {"type": "Feature", "geometry": {"type": "Point", "coordinates": [4.766667, 36.066666999999995]}, "properties": {"date": "2020-03-31", "new": 0, "total": 4, "city": "Bordj Bou-Arreridj", "province": "Bordj Bou-Arreridj", "country": "Algeria"}}, {"type": "Feature", "geometry": {"type": "Point", "coordinates": [0.13333299999999998, 35.4]}, "properties": {"date": "2020-03-31", "new": 0, "total": 3, "city": "Mascara", "province": "Mascara", "country": "Algeria"}}, {"type": "Feature", "geometry": {"type": "Point", "coordinates": [2.75, 36.2675]}, "properties": {"date": "2020-03-31", "new": 0, "total": 8, "city": "Medea", "province": "Medea", "country": "Algeria"}}, {"type": "Feature", "geometry": {"type": "Point", "coordinates": [5.733333, 34.85]}, "properties": {"date": "2020-03-31", "new": 0, "total": 2, "city": "Biskra", "province": "Biskra", "country": "Algeria"}}, {"type": "Feature", "geometry": {"type": "Point", "coordinates": [6.6, 36.35]}, "properties": {"date": "2020-03-31", "new": 0, "total": 3, "city": "Constantine", "province": "Constantine", "country": "Algeria"}}, {"type": "Feature", "geometry": {"type": "Point", "coordinates": [7.113611, 35.8775]}, "properties": {"date": "2020-03-31", "new": 0, "total": 2, "city": "Oum El Bouaghi", "province": "Oum El Bouaghi", "country": "Algeria"}}, {"type": "Feature", "geometry": {"type": "Point", "coordinates": [6.1666669999999995, 35.55]}, "properties": {"date": "2020-03-31", "new": 0, "total": 2, "city": "Batna", "province": "Batna", "country": "Algeria"}}, {"type": "Feature", "geometry": {"type": "Point", "coordinates": [7.951111, 36.286389]}, "properties": {"date": "2020-03-31", "new": 0, "total": 2, "city": "Souk-Ahras", "province": "Souk-Ahras", "country": "Algeria"}}, {"type": "Feature", "geometry": {"type": "Point", "coordinates": [3.25, 34.666667]}, "properties": {"date": "2020-03-31", "new": 0, "total": 2, "city": "Djelfa", "province": "Djelfa", "country": "Algeria"}}, {"type": "Feature", "geometry": {"type": "Point", "coordinates": [3.666667, 32.483333]}, "properties": {"date": "2020-03-31", "new": 0, "total": 1, "city": "Ghardaia", "province": "Ghardaia", "country": "Algeria"}}, {"type": "Feature", "geometry": {"type": "Point", "coordinates": [8.317, 36.766999999999996]}, "properties": {"date": "2020-03-31", "new": 0, "total": 2, "city": "El Tarf", "province": "El Tarf", "country": "Algeria"}}, {"type": "Feature", "geometry": {"type": "Point", "coordinates": [56.11048, 20.631079999999997]}, "properties": {"date": "2020-03-31", "new": 0, "total": 2, "city": "", "province": "", "country": "Oman"}}, {"type": "Feature", "geometry": {"type": "Point", "coordinates": [3.901389, 36.38]}, "properties": {"date": "2020-03-31", "new": 0, "total": 1, "city": "Bouira", "province": "Bouira", "country": "Algeria"}}, {"type": "Feature", "geometry": {"type": "Point", "coordinates": [7.433333, 36.45]}, "properties": {"date": "2020-03-31", "new": 0, "total": 1, "city": "Guelma", "province": "Guelma", "country": "Algeria"}}, {"type": "Feature", "geometry": {"type": "Point", "coordinates": [3.0588889999999997, 36.753889]}, "properties": {"date": "2020-03-31", "new": 20, "total": 21, "city": "Alger", "province": "Alger", "country": "Algeria"}}, {"type": "Feature", "geometry": {"type": "Point", "coordinates": [5.066667, 36.75]}, "properties": {"date": "2020-03-31", "new": 6, "total": 11, "city": "Bejaia", "province": "Bejaia", "country": "Algeria"}}, {"type": "Feature", "geometry": {"type": "Point", "coordinates": [4.766667, 36.066666999999995]}, "properties": {"date": "2020-03-31", "new": 3, "total": 5, "city": "Bordj Bou-Arreridj", "province": "Bordj Bou-Arreridj", "country": "Algeria"}}, {"type": "Feature", "geometry": {"type": "Point", "coordinates": [3.901389, 36.38]}, "properties": {"date": "2020-03-31", "new": 2, "total": 3, "city": "Bouira", "province": "Bouira", "country": "Algeria"}}, {"type": "Feature", "geometry": {"type": "Point", "coordinates": [3.4723669999999998, 36.760342]}, "properties": {"date": "2020-03-31", "new": 3, "total": 5, "city": "Boumerdes", "province": "Boumerdes", "country": "Algeria"}}, {"type": "Feature", "geometry": {"type": "Point", "coordinates": [1.333333, 36.216667]}, "properties": {"date": "2020-03-31", "new": 2, "total": 3, "city": "Chlef", "province": "Chlef", "country": "Algeria"}}, {"type": "Feature", "geometry": {"type": "Point", "coordinates": [-16.5775, 13.453056]}, "properties": {"date": "2020-03-31", "new": 0, "total": 1, "city": "Banjul", "province": "", "country": "Gambia"}}, {"type": "Feature", "geometry": {"type": "Point", "coordinates": [7.433333, 36.45]}, "properties": {"date": "2020-03-31", "new": 0, "total": 1, "city": "Guelma", "province": "Guelma", "country": "Algeria"}}, {"type": "Feature", "geometry": {"type": "Point", "coordinates": [-0.6330560000000001, 35.696944]}, "properties": {"date": "2020-03-31", "new": 10, "total": 18, "city": "Oran", "province": "Oran", "country": "Algeria"}}, {"type": "Feature", "geometry": {"type": "Point", "coordinates": [5.4, 36.183333000000005]}, "properties": {"date": "2020-03-31", "new": 7, "total": 9, "city": "Setif", "province": "Setif", "country": "Algeria"}}, {"type": "Feature", "geometry": {"type": "Point", "coordinates": [-0.641389, 35.193889]}, "properties": {"date": "2020-03-31", "new": 2, "total": 3, "city": "Sidi Bel Abbes", "province": "Sidi Bel Abbes", "country": "Algeria"}}, {"type": "Feature", "geometry": {"type": "Point", "coordinates": [-1.31667, 34.882776]}, "properties": {"date": "2020-03-31", "new": 0, "total": 1, "city": "Tlemcen", "province": "Tlemcen", "country": "Algeria"}}, {"type": "Feature", "geometry": {"type": "Point", "coordinates": [4.05, 36.716667]}, "properties": {"date": "2020-03-31", "new": 2, "total": 5, "city": "Tizi Ouzou", "province": "Tizi Ouzou", "country": "Algeria"}}, {"type": "Feature", "geometry": {"type": "Point", "coordinates": [2.4494439999999997, 36.591944]}, "properties": {"date": "2020-03-31", "new": 0, "total": 4, "city": "Tipaza", "province": "Tipaza", "country": "Algeria"}}, {"type": "Feature", "geometry": {"type": "Point", "coordinates": [2.9197130000000002, 36.49228]}, "properties": {"date": "2020-03-31", "new": 50, "total": 50, "city": "Blida", "province": "Blida", "country": "Algeria"}}, {"type": "Feature", "geometry": {"type": "Point", "coordinates": [56.11048, 20.631079999999997]}, "properties": {"date": "2020-03-31", "new": 0, "total": 4, "city": "", "province": "", "country": "Oman"}}, {"type": "Feature", "geometry": {"type": "Point", "coordinates": [8.4822, 26.505]}, "properties": {"date": "2020-03-31", "new": 1, "total": 1, "city": "Illizi", "province": "Illizi", "country": "Algeria"}}, {"type": "Feature", "geometry": {"type": "Point", "coordinates": [2.75, 36.2675]}, "properties": {"date": "2020-03-31", "new": 7, "total": 7, "city": "Medea", "province": "Medea", "country": "Algeria"}}, {"type": "Feature", "geometry": {"type": "Point", "coordinates": [0.13333299999999998, 35.4]}, "properties": {"date": "2020-03-31", "new": 2, "total": 2, "city": "Mascara", "province": "Mascara", "country": "Algeria"}}, {"type": "Feature", "geometry": {"type": "Point", "coordinates": [5.75, 36.816666999999995]}, "properties": {"date": "2020-03-31", "new": 2, "total": 2, "city": "Jijel", "province": "Jijel", "country": "Algeria"}}, {"type": "Feature", "geometry": {"type": "Point", "coordinates": [7.183333, 33.455556]}, "properties": {"date": "2020-03-31", "new": 2, "total": 2, "city": "El Oued", "province": "El Oued", "country": "Algeria"}}, {"type": "Feature", "geometry": {"type": "Point", "coordinates": [6.6, 36.35]}, "properties": {"date": "2020-03-31", "new": 5, "total": 5, "city": "Constantine", "province": "Constantine", "country": "Algeria"}}, {"type": "Feature", "geometry": {"type": "Point", "coordinates": [8.317, 36.766999999999996]}, "properties": {"date": "2020-03-31", "new": 2, "total": 2, "city": "El Tarf", "province": "El Tarf", "country": "Algeria"}}, {"type": "Feature", "geometry": {"type": "Point", "coordinates": [1.9703, 36.2652]}, "properties": {"date": "2020-03-31", "new": 2, "total": 2, "city": "Ain Defla", "province": "Ain Defla", "country": "Algeria"}}, {"type": "Feature", "geometry": {"type": "Point", "coordinates": [37.84561, 0.5537850000000001]}, "properties": {"date": "2020-03-31", "new": 9, "total": 40, "city": "", "province": "", "country": "Kenya"}}, {"type": "Feature", "geometry": {"type": "Point", "coordinates": [-1.133333, 35.3]}, "properties": {"date": "2020-03-31", "new": 1, "total": 1, "city": "Ain Temouchent", "province": "Ain Temouchent", "country": "Algeria"}}, {"type": "Feature", "geometry": {"type": "Point", "coordinates": [39.48, -4.47]}, "properties": {"date": "2020-03-31", "new": 0, "total": 1, "city": "Msambweni", "province": "Kwale County", "country": "Kenya"}}, {"type": "Feature", "geometry": {"type": "Point", "coordinates": [2.674582, 28.42343]}, "properties": {"date": "2020-03-31", "new": 0, "total": 1, "city": "", "province": "", "country": "Algeria"}}, {"type": "Feature", "geometry": {"type": "Point", "coordinates": [35.513059999999996, 33.88694]}, "properties": {"date": "2020-03-31", "new": 0, "total": 3, "city": "Beirut", "province": "Beirut", "country": "Lebanon"}}, {"type": "Feature", "geometry": {"type": "Point", "coordinates": [17.083610999999998, -22.57]}, "properties": {"date": "2020-03-31", "new": 0, "total": 3, "city": "Windhoek", "province": "", "country": "Namibia"}}, {"type": "Feature", "geometry": {"type": "Point", "coordinates": [3.583333, 7.0]}, "properties": {"date": "2020-03-31", "new": 0, "total": 3, "city": "", "province": "Ogun", "country": "Nigeria"}}, {"type": "Feature", "geometry": {"type": "Point", "coordinates": [3.369446, 6.520080999999999]}, "properties": {"date": "2020-03-31", "new": 0, "total": 2, "city": "Lagos", "province": "Lagos", "country": "Nigeria"}}, {"type": "Feature", "geometry": {"type": "Point", "coordinates": [5.25, 7.6666669999999995]}, "properties": {"date": "2020-03-31", "new": 0, "total": 1, "city": "", "province": "Ekiti", "country": "Nigeria"}}, {"type": "Feature", "geometry": {"type": "Point", "coordinates": [3.720668, 6.493394]}, "properties": {"date": "2020-03-31", "new": 0, "total": 2, "city": "Lekki", "province": "Lagos", "country": "Nigeria"}}, {"type": "Feature", "geometry": {"type": "Point", "coordinates": [3.384082, 6.455026999999999]}, "properties": {"date": "2020-03-31", "new": 0, "total": 21, "city": "", "province": "Lagos", "country": "Nigeria"}}, {"type": "Feature", "geometry": {"type": "Point", "coordinates": [8.102438000000001, 9.615492]}, "properties": {"date": "2020-03-31", "new": 0, "total": 7, "city": "", "province": "", "country": "Nigeria"}}, {"type": "Feature", "geometry": {"type": "Point", "coordinates": [7.483333, 9.066667]}, "properties": {"date": "2020-03-31", "new": 0, "total": 10, "city": "Abuja", "province": "Federal Capital Territory", "country": "Nigeria"}}, {"type": "Feature", "geometry": {"type": "Point", "coordinates": [3.916667, 7.396389]}, "properties": {"date": "2020-03-31", "new": 0, "total": 1, "city": "Ibadan", "province": "Oyo", "country": "Nigeria"}}, {"type": "Feature", "geometry": {"type": "Point", "coordinates": [6.0, 6.5]}, "properties": {"date": "2020-03-31", "new": 0, "total": 1, "city": "", "province": "Edo", "country": "Nigeria"}}, {"type": "Feature", "geometry": {"type": "Point", "coordinates": [-17.464178, 14.694888]}, "properties": {"date": "2020-03-31", "new": 0, "total": 2, "city": "Hospital Center University De Fann", "province": "", "country": "Senegal"}}, {"type": "Feature", "geometry": {"type": "Point", "coordinates": [9.844167, 10.315833]}, "properties": {"date": "2020-03-31", "new": 0, "total": 1, "city": "Bauchi", "province": "Bauchi", "country": "Nigeria"}}, {"type": "Feature", "geometry": {"type": "Point", "coordinates": [4.5, 7.5]}, "properties": {"date": "2020-03-31", "new": 0, "total": 1, "city": "", "province": "Osun", "country": "Nigeria"}}, {"type": "Feature", "geometry": {"type": "Point", "coordinates": [6.8333330000000005, 4.75]}, "properties": {"date": "2020-03-31", "new": 0, "total": 1, "city": "", "province": "Rivers", "country": "Nigeria"}}, {"type": "Feature", "geometry": {"type": "Point", "coordinates": [121.03, 14.63]}, "properties": {"date": "2020-03-31", "new": 0, "total": 195, "city": "Quezon", "province": "Metro Manila", "country": "Philippines"}}, {"type": "Feature", "geometry": {"type": "Point", "coordinates": [113.25399999999999, 29.0682]}, "properties": {"date": "2020-03-31", "new": 0, "total": 7, "city": "Yueyang City", "province": "Hunan", "country": "China"}}, {"type": "Feature", "geometry": {"type": "Point", "coordinates": [121.03, 14.55]}, "properties": {"date": "2020-03-31", "new": 0, "total": 66, "city": "Makati", "province": "Metro Manila", "country": "Philippines"}}, {"type": "Feature", "geometry": {"type": "Point", "coordinates": [121.0833, 14.575]}, "properties": {"date": "2020-03-31", "new": 0, "total": 44, "city": "Pasig", "province": "Metro Manila", "country": "Philippines"}}, {"type": "Feature", "geometry": {"type": "Point", "coordinates": [121.17628899999998, 14.584244]}, "properties": {"date": "2020-03-31", "new": 0, "total": 16, "city": "Antipolo", "province": "Rizal", "country": "Philippines"}}, {"type": "Feature", "geometry": {"type": "Point", "coordinates": [121.12, 14.57]}, "properties": {"date": "2020-03-31", "new": 0, "total": 13, "city": "Cainta", "province": "Rizal", "country": "Philippines"}}, {"type": "Feature", "geometry": {"type": "Point", "coordinates": [121.0, 14.55]}, "properties": {"date": "2020-03-31", "new": 0, "total": 16, "city": "Pasay", "province": "Metro Manila", "country": "Philippines"}}, {"type": "Feature", "geometry": {"type": "Point", "coordinates": [121.02, 14.47]}, "properties": {"date": "2020-03-31", "new": 0, "total": 45, "city": "Paranaque", "province": "Metro Manila", "country": "Philippines"}}, {"type": "Feature", "geometry": {"type": "Point", "coordinates": [122.8484, 11.816130000000001]}, "properties": {"date": "2020-03-31", "new": 1, "total": 162, "city": "", "province": "", "country": "Philippines"}}, {"type": "Feature", "geometry": {"type": "Point", "coordinates": [120.9772, 14.5958]}, "properties": {"date": "2020-03-31", "new": 0, "total": 88, "city": "Manila", "province": "Metro Manila", "country": "Philippines"}}, {"type": "Feature", "geometry": {"type": "Point", "coordinates": [116.4151, 40.18535]}, "properties": {"date": "2020-03-31", "new": 0, "total": 1, "city": "", "province": "Beijing", "country": "China"}}, {"type": "Feature", "geometry": {"type": "Point", "coordinates": [121.1116, 28.775]}, "properties": {"date": "2020-03-31", "new": 0, "total": 4, "city": "Taizhou City", "province": "Zhejiang", "country": "China"}}, {"type": "Feature", "geometry": {"type": "Point", "coordinates": [121.03, 14.58]}, "properties": {"date": "2020-03-31", "new": 0, "total": 36, "city": "Mandaluyong", "province": "Metro Manila", "country": "Philippines"}}, {"type": "Feature", "geometry": {"type": "Point", "coordinates": [120.8114, 14.8433]}, "properties": {"date": "2020-03-31", "new": 0, "total": 4, "city": "Malolos", "province": "Bulacan", "country": "Philippines"}}, {"type": "Feature", "geometry": {"type": "Point", "coordinates": [120.97, 14.65]}, "properties": {"date": "2020-03-31", "new": 0, "total": 12, "city": "Caloocan", "province": "Metro Manila", "country": "Philippines"}}, {"type": "Feature", "geometry": {"type": "Point", "coordinates": [121.03, 14.6]}, "properties": {"date": "2020-03-31", "new": 0, "total": 51, "city": "San Juan", "province": "Metro Manila", "country": "Philippines"}}, {"type": "Feature", "geometry": {"type": "Point", "coordinates": [121.1, 14.65]}, "properties": {"date": "2020-03-31", "new": 0, "total": 23, "city": "Marikina", "province": "Metro Manila", "country": "Philippines"}}, {"type": "Feature", "geometry": {"type": "Point", "coordinates": [125.6, 7.07]}, "properties": {"date": "2020-03-31", "new": 0, "total": 4, "city": "Davao", "province": "Davao Del Sur", "country": "Philippines"}}, {"type": "Feature", "geometry": {"type": "Point", "coordinates": [111.5202, 29.30245]}, "properties": {"date": "2020-03-31", "new": 0, "total": 2, "city": "Changde City", "province": "Hunan", "country": "China"}}, {"type": "Feature", "geometry": {"type": "Point", "coordinates": [121.0453, 14.8139]}, "properties": {"date": "2020-03-31", "new": 0, "total": 2, "city": "San Jose Del Monte", "province": "Bulacan", "country": "Philippines"}}, {"type": "Feature", "geometry": {"type": "Point", "coordinates": [120.9, 14.95]}, "properties": {"date": "2020-03-31", "new": 0, "total": 1, "city": "Baliuag", "province": "Bulacan", "country": "Philippines"}}, {"type": "Feature", "geometry": {"type": "Point", "coordinates": [110.5265, 29.393279999999997]}, "properties": {"date": "2020-03-31", "new": 0, "total": 1, "city": "Zhangjiajie City", "province": "Hunan", "country": "China"}}, {"type": "Feature", "geometry": {"type": "Point", "coordinates": [120.98, 14.45]}, "properties": {"date": "2020-03-31", "new": 0, "total": 16, "city": "Las Pinas", "province": "Metro Manila", "country": "Philippines"}}, {"type": "Feature", "geometry": {"type": "Point", "coordinates": [121.12, 14.32]}, "properties": {"date": "2020-03-31", "new": 0, "total": 2, "city": "Santa Rosa", "province": "Laguna", "country": "Philippines"}}, {"type": "Feature", "geometry": {"type": "Point", "coordinates": [111.9523, 28.576829999999998]}, "properties": {"date": "2020-03-31", "new": 0, "total": 4, "city": "Yiyang City", "province": "Hunan", "country": "China"}}, {"type": "Feature", "geometry": {"type": "Point", "coordinates": [121.05, 14.52]}, "properties": {"date": "2020-03-31", "new": 0, "total": 28, "city": "Taguig", "province": "Metro Manila", "country": "Philippines"}}, {"type": "Feature", "geometry": {"type": "Point", "coordinates": [121.05, 14.38]}, "properties": {"date": "2020-03-31", "new": 0, "total": 28, "city": "Muntinlupa", "province": "Metro Manila", "country": "Philippines"}}, {"type": "Feature", "geometry": {"type": "Point", "coordinates": [124.3, 8.0]}, "properties": {"date": "2020-03-31", "new": 0, "total": 3, "city": "Marawi", "province": "Lanao Del Sur", "country": "Philippines"}}, {"type": "Feature", "geometry": {"type": "Point", "coordinates": [121.0, 13.83]}, "properties": {"date": "2020-03-31", "new": 0, "total": 2, "city": "Batangas", "province": "Batangas", "country": "Philippines"}}, {"type": "Feature", "geometry": {"type": "Point", "coordinates": [113.1376, 25.81815]}, "properties": {"date": "2020-03-31", "new": 0, "total": 1, "city": "Chenzhou City", "province": "Hunan", "country": "China"}}, {"type": "Feature", "geometry": {"type": "Point", "coordinates": [111.7296, 25.779320000000002]}, "properties": {"date": "2020-03-31", "new": 0, "total": 2, "city": "Yongzhou City", "province": "Hunan", "country": "China"}}, {"type": "Feature", "geometry": {"type": "Point", "coordinates": [110.0777, 27.55503]}, "properties": {"date": "2020-03-31", "new": 0, "total": 2, "city": "Huaihua City", "province": "Hunan", "country": "China"}}, {"type": "Feature", "geometry": {"type": "Point", "coordinates": [120.964453, 14.462422]}, "properties": {"date": "2020-03-31", "new": 0, "total": 7, "city": "Bacoor", "province": "Cavite", "country": "Philippines"}}, {"type": "Feature", "geometry": {"type": "Point", "coordinates": [111.6133, 27.73964]}, "properties": {"date": "2020-03-31", "new": 0, "total": 6, "city": "Loudi City", "province": "Hunan", "country": "China"}}, {"type": "Feature", "geometry": {"type": "Point", "coordinates": [109.7267, 28.6973]}, "properties": {"date": "2020-03-31", "new": 0, "total": 1, "city": "Xiangxi Prefecture", "province": "Hunan", "country": "China"}}, {"type": "Feature", "geometry": {"type": "Point", "coordinates": [108.6337, 39.42306]}, "properties": {"date": "2020-03-31", "new": 0, "total": 1, "city": "Ordos City", "province": "Inner Mongolia", "country": "China"}}, {"type": "Feature", "geometry": {"type": "Point", "coordinates": [107.56700000000001, 41.453509999999994]}, "properties": {"date": "2020-03-31", "new": 0, "total": 1, "city": "Bayannur City", "province": "Inner Mongolia", "country": "China"}}, {"type": "Feature", "geometry": {"type": "Point", "coordinates": [118.8424, 31.92997]}, "properties": {"date": "2020-03-31", "new": 0, "total": 3, "city": "Nanjing City", "province": "Jiangsu", "country": "China"}}, {"type": "Feature", "geometry": {"type": "Point", "coordinates": [120.97, 15.48]}, "properties": {"date": "2020-03-31", "new": 0, "total": 1, "city": "Cabanatuan", "province": "Nueva Ecija", "country": "Philippines"}}, {"type": "Feature", "geometry": {"type": "Point", "coordinates": [120.94, 14.33]}, "properties": {"date": "2020-03-31", "new": 0, "total": 3, "city": "Dasmarinas", "province": "Cavite", "country": "Philippines"}}, {"type": "Feature", "geometry": {"type": "Point", "coordinates": [120.0767, 31.52812]}, "properties": {"date": "2020-03-31", "new": 0, "total": 1, "city": "Wuxi City", "province": "Jiangsu", "country": "China"}}, {"type": "Feature", "geometry": {"type": "Point", "coordinates": [117.5145, 34.3568]}, "properties": {"date": "2020-03-31", "new": 0, "total": 3, "city": "Xuzhou City", "province": "Jiangsu", "country": "China"}}, {"type": "Feature", "geometry": {"type": "Point", "coordinates": [119.6369, 31.62592]}, "properties": {"date": "2020-03-31", "new": 0, "total": 1, "city": "Changzhou City", "province": "Jiangsu", "country": "China"}}, {"type": "Feature", "geometry": {"type": "Point", "coordinates": [120.6418, 31.378020000000003]}, "properties": {"date": "2020-03-31", "new": 0, "total": 2, "city": "Suzhou City", "province": "Jiangsu", "country": "China"}}, {"type": "Feature", "geometry": {"type": "Point", "coordinates": [120.98, 14.7]}, "properties": {"date": "2020-03-31", "new": 0, "total": 4, "city": "Valenzuela", "province": "Metro Manila", "country": "Philippines"}}, {"type": "Feature", "geometry": {"type": "Point", "coordinates": [121.0053, 32.1975]}, "properties": {"date": "2020-03-31", "new": 0, "total": 2, "city": "Nantong City", "province": "Jiangsu", "country": "China"}}, {"type": "Feature", "geometry": {"type": "Point", "coordinates": [120.95, 14.73]}, "properties": {"date": "2020-03-31", "new": 0, "total": 1, "city": "Meycauayan", "province": "Bulacan", "country": "Philippines"}}, {"type": "Feature", "geometry": {"type": "Point", "coordinates": [119.1325, 34.534]}, "properties": {"date": "2020-03-31", "new": 0, "total": 4, "city": "Lianyungang City", "province": "Jiangsu", "country": "China"}}, {"type": "Feature", "geometry": {"type": "Point", "coordinates": [121.12194, 14.69694]}, "properties": {"date": "2020-03-31", "new": 0, "total": 4, "city": "San Mateo", "province": "Rizal", "country": "Philippines"}}, {"type": "Feature", "geometry": {"type": "Point", "coordinates": [113.5364, 23.349829999999997]}, "properties": {"date": "2020-03-31", "new": 0, "total": 4, "city": "Guangzhou City", "province": "Guangdong", "country": "China"}}, {"type": "Feature", "geometry": {"type": "Point", "coordinates": [122.95091699999999, 10.676458]}, "properties": {"date": "2020-03-31", "new": 0, "total": 4, "city": "Bacolod", "province": "Negros Occidental", "country": "Philippines"}}, {"type": "Feature", "geometry": {"type": "Point", "coordinates": [118.9639, 33.357009999999995]}, "properties": {"date": "2020-03-31", "new": 0, "total": 2, "city": "Huai'An City", "province": "Jiangsu", "country": "China"}}, {"type": "Feature", "geometry": {"type": "Point", "coordinates": [120.1736, 33.52337]}, "properties": {"date": "2020-03-31", "new": 0, "total": 5, "city": "Yancheng City", "province": "Jiangsu", "country": "China"}}, {"type": "Feature", "geometry": {"type": "Point", "coordinates": [121.72, 17.62]}, "properties": {"date": "2020-03-31", "new": 0, "total": 5, "city": "Tuguegarao", "province": "Cagayan", "country": "Philippines"}}, {"type": "Feature", "geometry": {"type": "Point", "coordinates": [121.1325, 14.569170000000002]}, "properties": {"date": "2020-03-31", "new": 0, "total": 1, "city": "Taytay", "province": "Rizal", "country": "Philippines"}}, {"type": "Feature", "geometry": {"type": "Point", "coordinates": [119.4729, 32.73976]}, "properties": {"date": "2020-03-31", "new": 0, "total": 5, "city": "Yangzhou City", "province": "Jiangsu", "country": "China"}}, {"type": "Feature", "geometry": {"type": "Point", "coordinates": [120.0575, 32.57248]}, "properties": {"date": "2020-03-31", "new": 0, "total": 5, "city": "Taizhou City", "province": "Jiangsu", "country": "China"}}, {"type": "Feature", "geometry": {"type": "Point", "coordinates": [118.5202, 33.786809999999996]}, "properties": {"date": "2020-03-31", "new": 0, "total": 1, "city": "Suqian City", "province": "Jiangsu", "country": "China"}}, {"type": "Feature", "geometry": {"type": "Point", "coordinates": [119.4564, 32.9902]}, "properties": {"date": "2020-03-31", "new": 0, "total": 5, "city": "", "province": "Jiangsu", "country": "China"}}, {"type": "Feature", "geometry": {"type": "Point", "coordinates": [116.0257, 28.66149]}, "properties": {"date": "2020-03-31", "new": 0, "total": 16, "city": "Nanchang City", "province": "Jiangxi", "country": "China"}}, {"type": "Feature", "geometry": {"type": "Point", "coordinates": [120.68, 15.03]}, "properties": {"date": "2020-03-31", "new": 0, "total": 1, "city": "San Fernando", "province": "Pampanga", "country": "Philippines"}}, {"type": "Feature", "geometry": {"type": "Point", "coordinates": [103.8472, 1.322098]}, "properties": {"date": "2020-03-31", "new": 0, "total": 2, "city": "National Centre For Infectious Diseases", "province": "", "country": "Singapore"}}, {"type": "Feature", "geometry": {"type": "Point", "coordinates": [114.8515, 27.84546]}, "properties": {"date": "2020-03-31", "new": 0, "total": 12, "city": "Xinyu City", "province": "Jiangxi", "country": "China"}}, {"type": "Feature", "geometry": {"type": "Point", "coordinates": [120.5, 14.93]}, "properties": {"date": "2020-03-31", "new": 0, "total": 1, "city": "Floridablanca", "province": "Pampanga", "country": "Philippines"}}, {"type": "Feature", "geometry": {"type": "Point", "coordinates": [120.59794, 15.480170000000001]}, "properties": {"date": "2020-03-31", "new": 0, "total": 1, "city": "Tarlac", "province": "Tarlac", "country": "Philippines"}}, {"type": "Feature", "geometry": {"type": "Point", "coordinates": [117.4692, 28.77693]}, "properties": {"date": "2020-03-31", "new": 0, "total": 4, "city": "Shangrao City", "province": "Jiangxi", "country": "China"}}, {"type": "Feature", "geometry": {"type": "Point", "coordinates": [1.530937, 41.803774100000005]}, "properties": {"date": "2020-03-31", "new": 0, "total": 132, "city": "", "province": "Catalonia", "country": "Spain"}}, {"type": "Feature", "geometry": {"type": "Point", "coordinates": [-0.5529151, 39.412298299999996]}, "properties": {"date": "2020-03-31", "new": 0, "total": 258, "city": "", "province": "Valencian Community", "country": "Spain"}}, {"type": "Feature", "geometry": {"type": "Point", "coordinates": [-6.150383799999999, 39.19928]}, "properties": {"date": "2020-03-31", "new": 0, "total": 57, "city": "", "province": "Extremadura", "country": "Spain"}}, {"type": "Feature", "geometry": {"type": "Point", "coordinates": [-7.9114304, 42.7623342]}, "properties": {"date": "2020-03-31", "new": 0, "total": 161, "city": "", "province": "Galicia", "country": "Spain"}}, {"type": "Feature", "geometry": {"type": "Point", "coordinates": [-66.166667, -17.383333]}, "properties": {"date": "2020-03-31", "new": 0, "total": 9, "city": "Cochabamba", "province": "Cochabamba", "country": "Bolivia"}}, {"type": "Feature", "geometry": {"type": "Point", "coordinates": [-68.15, -16.5]}, "properties": {"date": "2020-03-31", "new": 0, "total": 6, "city": "La Paz", "province": "La Paz", "country": "Bolivia"}}, {"type": "Feature", "geometry": {"type": "Point", "coordinates": [-65.75, -19.583333]}, "properties": {"date": "2020-03-31", "new": 0, "total": 3, "city": "Potosi", "province": "Potosi", "country": "Bolivia"}}, {"type": "Feature", "geometry": {"type": "Point", "coordinates": [-63.183333, -17.8]}, "properties": {"date": "2020-03-31", "new": 0, "total": 6, "city": "Santa Cruz", "province": "Santa Cruz", "country": "Bolivia"}}, {"type": "Feature", "geometry": {"type": "Point", "coordinates": [-64.1, -18.483333]}, "properties": {"date": "2020-03-31", "new": 0, "total": 4, "city": "Vallegrande", "province": "Santa Cruz", "country": "Bolivia"}}, {"type": "Feature", "geometry": {"type": "Point", "coordinates": [-64.416667, -20.0]}, "properties": {"date": "2020-03-31", "new": 0, "total": 1, "city": "", "province": "Chuquisaca", "country": "Bolivia"}}, {"type": "Feature", "geometry": {"type": "Point", "coordinates": [-68.733333, -11.033333]}, "properties": {"date": "2020-03-31", "new": 0, "total": 1, "city": "Cobija", "province": "Pando", "country": "Bolivia"}}, {"type": "Feature", "geometry": {"type": "Point", "coordinates": [-99.633333, 19.35]}, "properties": {"date": "2020-03-31", "new": 13, "total": 34, "city": "", "province": "Estado De Mexico", "country": "Mexico"}}, {"type": "Feature", "geometry": {"type": "Point", "coordinates": [-115.16666699999999, 30.0]}, "properties": {"date": "2020-03-31", "new": 6, "total": 18, "city": "", "province": "Baja California", "country": "Mexico"}}, {"type": "Feature", "geometry": {"type": "Point", "coordinates": [-96.383333, 19.433332999999998]}, "properties": {"date": "2020-03-31", "new": 1, "total": 8, "city": "", "province": "Veracruz", "country": "Mexico"}}, {"type": "Feature", "geometry": {"type": "Point", "coordinates": [-102.05, 27.3]}, "properties": {"date": "2020-03-31", "new": 1, "total": 10, "city": "", "province": "Coahuila", "country": "Mexico"}}, {"type": "Feature", "geometry": {"type": "Point", "coordinates": [-107.5, 25.0]}, "properties": {"date": "2020-03-31", "new": 1, "total": 8, "city": "", "province": "Sinaloa", "country": "Mexico"}}, {"type": "Feature", "geometry": {"type": "Point", "coordinates": [-89.0, 20.833333]}, "properties": {"date": "2020-03-31", "new": 2, "total": 13, "city": "", "province": "Yucatan", "country": "Mexico"}}, {"type": "Feature", "geometry": {"type": "Point", "coordinates": [-102.7, 23.3]}, "properties": {"date": "2020-03-31", "new": 0, "total": 2, "city": "", "province": "Zacatecas", "country": "Mexico"}}, {"type": "Feature", "geometry": {"type": "Point", "coordinates": [-99.1333, 19.433329999999998]}, "properties": {"date": "2020-03-31", "new": 26, "total": 65, "city": "Ciudad De Mexico", "province": "Ciudad De Mexico", "country": "Mexico"}}, {"type": "Feature", "geometry": {"type": "Point", "coordinates": [-103.68333299999999, 20.566667000000002]}, "properties": {"date": "2020-03-31", "new": 2, "total": 37, "city": "", "province": "Jalisco", "country": "Mexico"}}, {"type": "Feature", "geometry": {"type": "Point", "coordinates": [-87.92, 19.6]}, "properties": {"date": "2020-03-31", "new": 4, "total": 17, "city": "", "province": "Quintana Roo", "country": "Mexico"}}, {"type": "Feature", "geometry": {"type": "Point", "coordinates": [-110.868889, 29.646110999999998]}, "properties": {"date": "2020-03-31", "new": 0, "total": 4, "city": "", "province": "Sonora", "country": "Mexico"}}, {"type": "Feature", "geometry": {"type": "Point", "coordinates": [-111.96666699999999, 25.85]}, "properties": {"date": "2020-03-31", "new": 2, "total": 5, "city": "", "province": "Baja California Sur", "country": "Mexico"}}, {"type": "Feature", "geometry": {"type": "Point", "coordinates": [-97.883333, 19.0]}, "properties": {"date": "2020-03-31", "new": 2, "total": 19, "city": "", "province": "Puebla", "country": "Mexico"}}, {"type": "Feature", "geometry": {"type": "Point", "coordinates": [-98.56666700000001, 24.283333]}, "properties": {"date": "2020-03-31", "new": 0, "total": 3, "city": "", "province": "Tamaulipas", "country": "Mexico"}}, {"type": "Feature", "geometry": {"type": "Point", "coordinates": [-101.25666700000001, 21.017778]}, "properties": {"date": "2020-03-31", "new": 1, "total": 10, "city": "", "province": "Guanajuato", "country": "Mexico"}}, {"type": "Feature", "geometry": {"type": "Point", "coordinates": [-92.416667, 16.416667]}, "properties": {"date": "2020-03-31", "new": 1, "total": 4, "city": "", "province": "Chiapas", "country": "Mexico"}}, {"type": "Feature", "geometry": {"type": "Point", "coordinates": [-100.383333, 20.583333]}, "properties": {"date": "2020-03-31", "new": 0, "total": 8, "city": "", "province": "Queretaro", "country": "Mexico"}}, {"type": "Feature", "geometry": {"type": "Point", "coordinates": [-92.583333, 17.966667]}, "properties": {"date": "2020-03-31", "new": 9, "total": 18, "city": "", "province": "Tabasco", "country": "Mexico"}}, {"type": "Feature", "geometry": {"type": "Point", "coordinates": [-100.43333299999999, 22.6]}, "properties": {"date": "2020-03-31", "new": 0, "total": 7, "city": "", "province": "San Luis Potosi", "country": "Mexico"}}, {"type": "Feature", "geometry": {"type": "Point", "coordinates": [-99.966667, 25.566667000000002]}, "properties": {"date": "2020-03-31", "new": 1, "total": 22, "city": "", "province": "Nuevo Leon", "country": "Mexico"}}, {"type": "Feature", "geometry": {"type": "Point", "coordinates": [-105.233333, 21.75]}, "properties": {"date": "2020-03-31", "new": 0, "total": 2, "city": "", "province": "Nayarit", "country": "Mexico"}}, {"type": "Feature", "geometry": {"type": "Point", "coordinates": [-98.866667, 20.483333]}, "properties": {"date": "2020-03-31", "new": 2, "total": 5, "city": "", "province": "Hidalgo", "country": "Mexico"}}, {"type": "Feature", "geometry": {"type": "Point", "coordinates": [-99.95, 17.616667]}, "properties": {"date": "2020-03-31", "new": 2, "total": 4, "city": "", "province": "Guerrero", "country": "Mexico"}}, {"type": "Feature", "geometry": {"type": "Point", "coordinates": [-102.35, 22.016667]}, "properties": {"date": "2020-03-31", "new": 12, "total": 16, "city": "", "province": "Aguascalientes", "country": "Mexico"}}, {"type": "Feature", "geometry": {"type": "Point", "coordinates": [-104.91666699999999, 24.933332999999998]}, "properties": {"date": "2020-03-31", "new": 0, "total": 2, "city": "", "province": "Durango", "country": "Mexico"}}, {"type": "Feature", "geometry": {"type": "Point", "coordinates": [-99.06666700000001, 18.75]}, "properties": {"date": "2020-03-31", "new": 0, "total": 2, "city": "", "province": "Morelos", "country": "Mexico"}}, {"type": "Feature", "geometry": {"type": "Point", "coordinates": [-106.433333, 28.816667]}, "properties": {"date": "2020-03-31", "new": 0, "total": 4, "city": "", "province": "Chihuahua", "country": "Mexico"}}, {"type": "Feature", "geometry": {"type": "Point", "coordinates": [-101.9, 19.166667]}, "properties": {"date": "2020-03-31", "new": 4, "total": 5, "city": "", "province": "Michoacan", "country": "Mexico"}}, {"type": "Feature", "geometry": {"type": "Point", "coordinates": [-58.3817, -34.6033]}, "properties": {"date": "2020-03-31", "new": 0, "total": 8, "city": "Buenos Aires", "province": "", "country": "Argentina"}}, {"type": "Feature", "geometry": {"type": "Point", "coordinates": [-90.4, 18.833333]}, "properties": {"date": "2020-03-31", "new": 2, "total": 2, "city": "", "province": "Campeche", "country": "Mexico"}}, {"type": "Feature", "geometry": {"type": "Point", "coordinates": [-102.05, 27.3]}, "properties": {"date": "2020-03-31", "new": 6, "total": 6, "city": "", "province": "Coahuila", "country": "Mexico"}}, {"type": "Feature", "geometry": {"type": "Point", "coordinates": [-99.06666700000001, 18.75]}, "properties": {"date": "2020-03-31", "new": 2, "total": 2, "city": "", "province": "Morelos", "country": "Mexico"}}, {"type": "Feature", "geometry": {"type": "Point", "coordinates": [-58.3817, -34.6033]}, "properties": {"date": "2020-03-31", "new": 0, "total": 3, "city": "Buenos Aires", "province": "", "country": "Argentina"}}, {"type": "Feature", "geometry": {"type": "Point", "coordinates": [-115.16666699999999, 30.0]}, "properties": {"date": "2020-03-31", "new": 2, "total": 2, "city": "", "province": "Baja California", "country": "Mexico"}}, {"type": "Feature", "geometry": {"type": "Point", "coordinates": [-107.5, 25.0]}, "properties": {"date": "2020-03-31", "new": 2, "total": 2, "city": "", "province": "Sinaloa", "country": "Mexico"}}, {"type": "Feature", "geometry": {"type": "Point", "coordinates": [-92.416667, 16.416667]}, "properties": {"date": "2020-03-31", "new": 1, "total": 1, "city": "", "province": "Chiapas", "country": "Mexico"}}, {"type": "Feature", "geometry": {"type": "Point", "coordinates": [-92.583333, 17.966667]}, "properties": {"date": "2020-03-31", "new": 1, "total": 1, "city": "", "province": "Tabasco", "country": "Mexico"}}, {"type": "Feature", "geometry": {"type": "Point", "coordinates": [-106.433333, 28.816667]}, "properties": {"date": "2020-03-31", "new": 1, "total": 1, "city": "", "province": "Chihuahua", "country": "Mexico"}}, {"type": "Feature", "geometry": {"type": "Point", "coordinates": [-89.0, 20.833333]}, "properties": {"date": "2020-03-31", "new": 1, "total": 1, "city": "", "province": "Yucatan", "country": "Mexico"}}, {"type": "Feature", "geometry": {"type": "Point", "coordinates": [-100.383333, 20.583333]}, "properties": {"date": "2020-03-31", "new": 2, "total": 2, "city": "", "province": "Queretaro", "country": "Mexico"}}, {"type": "Feature", "geometry": {"type": "Point", "coordinates": [-97.883333, 19.0]}, "properties": {"date": "2020-03-31", "new": 3, "total": 3, "city": "", "province": "Puebla", "country": "Mexico"}}, {"type": "Feature", "geometry": {"type": "Point", "coordinates": [-99.1333, 19.433329999999998]}, "properties": {"date": "2020-03-31", "new": 2, "total": 2, "city": "Ciudad De Mexico", "province": "Ciudad De Mexico", "country": "Mexico"}}, {"type": "Feature", "geometry": {"type": "Point", "coordinates": [-111.96666699999999, 25.85]}, "properties": {"date": "2020-03-31", "new": 2, "total": 2, "city": "", "province": "Baja California Sur", "country": "Mexico"}}, {"type": "Feature", "geometry": {"type": "Point", "coordinates": [-101.25666700000001, 21.017778]}, "properties": {"date": "2020-03-31", "new": 2, "total": 2, "city": "", "province": "Guanajuato", "country": "Mexico"}}, {"type": "Feature", "geometry": {"type": "Point", "coordinates": [-58.38166700000001, -34.603333]}, "properties": {"date": "2020-03-31", "new": 0, "total": 7, "city": "", "province": "Buenos Aires", "country": "Argentina"}}, {"type": "Feature", "geometry": {"type": "Point", "coordinates": [-103.68333299999999, 20.566667000000002]}, "properties": {"date": "2020-03-31", "new": 2, "total": 2, "city": "", "province": "Jalisco", "country": "Mexico"}}, {"type": "Feature", "geometry": {"type": "Point", "coordinates": [-58.986667000000004, -27.451389000000002]}, "properties": {"date": "2020-03-31", "new": 0, "total": 1, "city": "", "province": "Chaco", "country": "Argentina"}}, {"type": "Feature", "geometry": {"type": "Point", "coordinates": [-64.18333299999999, -31.416666999999997]}, "properties": {"date": "2020-03-31", "new": 0, "total": 1, "city": "", "province": "Cordoba", "country": "Argentina"}}, {"type": "Feature", "geometry": {"type": "Point", "coordinates": [-60.281000000000006, -32.0477]}, "properties": {"date": "2020-03-31", "new": 0, "total": 1, "city": "", "province": "Entre Rios", "country": "Argentina"}}, {"type": "Feature", "geometry": {"type": "Point", "coordinates": [-70.666667, -33.45]}, "properties": {"date": "2020-03-31", "new": 0, "total": 152, "city": "Santiago", "province": "Metropolitan Region", "country": "Chile"}}, {"type": "Feature", "geometry": {"type": "Point", "coordinates": [-71.666667, -35.433333000000005]}, "properties": {"date": "2020-03-31", "new": 0, "total": 5, "city": "", "province": "Maule", "country": "Chile"}}, {"type": "Feature", "geometry": {"type": "Point", "coordinates": [-73.05, -36.833333]}, "properties": {"date": "2020-03-31", "new": 0, "total": 10, "city": "", "province": "Biobio", "country": "Chile"}}, {"type": "Feature", "geometry": {"type": "Point", "coordinates": [-72.666667, -38.9]}, "properties": {"date": "2020-03-31", "new": 0, "total": 6, "city": "", "province": "Araucania", "country": "Chile"}}, {"type": "Feature", "geometry": {"type": "Point", "coordinates": [-72.936667, -41.471667]}, "properties": {"date": "2020-03-31", "new": 0, "total": 15, "city": "", "province": "Los Lagos", "country": "Chile"}}, {"type": "Feature", "geometry": {"type": "Point", "coordinates": [-70.314444, -18.475]}, "properties": {"date": "2020-03-31", "new": 0, "total": 1, "city": "", "province": "Arica Y Parinacota", "country": "Chile"}}, {"type": "Feature", "geometry": {"type": "Point", "coordinates": [-71.343333, -29.953056]}, "properties": {"date": "2020-03-31", "new": 0, "total": 3, "city": "", "province": "Coquimbo", "country": "Chile"}}, {"type": "Feature", "geometry": {"type": "Point", "coordinates": [-71.616667, -33.05]}, "properties": {"date": "2020-03-31", "new": 0, "total": 4, "city": "", "province": "Valparaiso", "country": "Chile"}}, {"type": "Feature", "geometry": {"type": "Point", "coordinates": [-56.0142, -32.8153]}, "properties": {"date": "2020-03-31", "new": 18, "total": 338, "city": "", "province": "", "country": "Uruguay"}}, {"type": "Feature", "geometry": {"type": "Point", "coordinates": [-71.95, -36.616667]}, "properties": {"date": "2020-03-31", "new": 0, "total": 2, "city": "", "province": "Nuble", "country": "Chile"}}, {"type": "Feature", "geometry": {"type": "Point", "coordinates": [-70.4, -23.65]}, "properties": {"date": "2020-03-31", "new": 0, "total": 4, "city": "", "province": "Antofagasta", "country": "Chile"}}, {"type": "Feature", "geometry": {"type": "Point", "coordinates": [-73.051369, -36.828194]}, "properties": {"date": "2020-03-31", "new": 0, "total": 1, "city": "Concepcion", "province": "Biobio", "country": "Chile"}}, {"type": "Feature", "geometry": {"type": "Point", "coordinates": [-71.5353, -40.6773]}, "properties": {"date": "2020-03-31", "new": 0, "total": 3, "city": "", "province": "", "country": "Chile"}}, {"type": "Feature", "geometry": {"type": "Point", "coordinates": [-71.95, -36.616667]}, "properties": {"date": "2020-03-31", "new": 0, "total": 48, "city": "", "province": "Nuble", "country": "Chile"}}, {"type": "Feature", "geometry": {"type": "Point", "coordinates": [-71.5353, -40.6773]}, "properties": {"date": "2020-03-31", "new": 0, "total": 3, "city": "", "province": "", "country": "Chile"}}, {"type": "Feature", "geometry": {"type": "Point", "coordinates": [-73.05, -36.833333]}, "properties": {"date": "2020-03-31", "new": 0, "total": 39, "city": "", "province": "Biobio", "country": "Chile"}}, {"type": "Feature", "geometry": {"type": "Point", "coordinates": [-72.666667, -38.9]}, "properties": {"date": "2020-03-31", "new": 0, "total": 3, "city": "", "province": "Araucania", "country": "Chile"}}, {"type": "Feature", "geometry": {"type": "Point", "coordinates": [-72.936667, -41.471667]}, "properties": {"date": "2020-03-31", "new": 0, "total": 2, "city": "", "province": "Los Lagos", "country": "Chile"}}, {"type": "Feature", "geometry": {"type": "Point", "coordinates": [-70.4, -23.65]}, "properties": {"date": "2020-03-31", "new": 0, "total": 6, "city": "", "province": "Antofagasta", "country": "Chile"}}, {"type": "Feature", "geometry": {"type": "Point", "coordinates": [-71.616667, -33.05]}, "properties": {"date": "2020-03-31", "new": 0, "total": 17, "city": "", "province": "Valparaiso", "country": "Chile"}}, {"type": "Feature", "geometry": {"type": "Point", "coordinates": [-58.38166700000001, -34.603333]}, "properties": {"date": "2020-03-31", "new": 17, "total": 62, "city": "", "province": "Buenos Aires", "country": "Argentina"}}, {"type": "Feature", "geometry": {"type": "Point", "coordinates": [-70.666667, -33.45]}, "properties": {"date": "2020-03-31", "new": 0, "total": 138, "city": "Santiago", "province": "Metropolitan Region", "country": "Chile"}}, {"type": "Feature", "geometry": {"type": "Point", "coordinates": [-70.650278, -33.437778]}, "properties": {"date": "2020-03-31", "new": 0, "total": 1, "city": "", "province": "Metropolitan Region", "country": "Chile"}}, {"type": "Feature", "geometry": {"type": "Point", "coordinates": [-60.281000000000006, -32.0477]}, "properties": {"date": "2020-03-31", "new": 0, "total": 4, "city": "", "province": "Entre Rios", "country": "Argentina"}}, {"type": "Feature", "geometry": {"type": "Point", "coordinates": [-65.4105, -36.6354]}, "properties": {"date": "2020-03-31", "new": 0, "total": 1, "city": "", "province": "", "country": "Argentina"}}, {"type": "Feature", "geometry": {"type": "Point", "coordinates": [-58.3817, -34.6033]}, "properties": {"date": "2020-03-31", "new": 19, "total": 80, "city": "Buenos Aires", "province": "", "country": "Argentina"}}, {"type": "Feature", "geometry": {"type": "Point", "coordinates": [-58.986667000000004, -27.451389000000002]}, "properties": {"date": "2020-03-31", "new": 3, "total": 11, "city": "", "province": "Chaco", "country": "Argentina"}}, {"type": "Feature", "geometry": {"type": "Point", "coordinates": [-64.18333299999999, -31.416666999999997]}, "properties": {"date": "2020-03-31", "new": 14, "total": 19, "city": "", "province": "Cordoba", "country": "Argentina"}}, {"type": "Feature", "geometry": {"type": "Point", "coordinates": [-57.63, -28.66]}, "properties": {"date": "2020-03-31", "new": 1, "total": 6, "city": "", "province": "Corrientes", "country": "Argentina"}}, {"type": "Feature", "geometry": {"type": "Point", "coordinates": [-54.52, -26.92]}, "properties": {"date": "2020-03-31", "new": 1, "total": 2, "city": "", "province": "Misiones", "country": "Argentina"}}, {"type": "Feature", "geometry": {"type": "Point", "coordinates": [-63.0, -40.8]}, "properties": {"date": "2020-03-31", "new": 1, "total": 4, "city": "", "province": "Rio Negro", "country": "Argentina"}}, {"type": "Feature", "geometry": {"type": "Point", "coordinates": [-62.246, -33.7227]}, "properties": {"date": "2020-03-31", "new": 0, "total": 22, "city": "", "province": "Santa Fe", "country": "Argentina"}}, {"type": "Feature", "geometry": {"type": "Point", "coordinates": [-65.34, -26.94]}, "properties": {"date": "2020-03-31", "new": 1, "total": 7, "city": "", "province": "Tucuman", "country": "Argentina"}}, {"type": "Feature", "geometry": {"type": "Point", "coordinates": [-68.074444, -38.951667]}, "properties": {"date": "2020-03-31", "new": 0, "total": 6, "city": "", "province": "Neuquen", "country": "Argentina"}}, {"type": "Feature", "geometry": {"type": "Point", "coordinates": [-70.0, -54.0]}, "properties": {"date": "2020-03-31", "new": 7, "total": 11, "city": "", "province": "Tierra Del Fuego", "country": "Argentina"}}, {"type": "Feature", "geometry": {"type": "Point", "coordinates": [-68.847222, -32.890278]}, "properties": {"date": "2020-03-31", "new": 2, "total": 3, "city": "", "province": "Mendoza", "country": "Argentina"}}, {"type": "Feature", "geometry": {"type": "Point", "coordinates": [-70.314444, -18.475]}, "properties": {"date": "2020-03-31", "new": 0, "total": 1, "city": "", "province": "Arica Y Parinacota", "country": "Chile"}}, {"type": "Feature", "geometry": {"type": "Point", "coordinates": [-69.333333, -20.283333]}, "properties": {"date": "2020-03-31", "new": 0, "total": 1, "city": "", "province": "Tarapaca", "country": "Chile"}}, {"type": "Feature", "geometry": {"type": "Point", "coordinates": [-70.332222, -27.366667]}, "properties": {"date": "2020-03-31", "new": 0, "total": 1, "city": "", "province": "Atacama", "country": "Chile"}}, {"type": "Feature", "geometry": {"type": "Point", "coordinates": [-71.343333, -29.953056]}, "properties": {"date": "2020-03-31", "new": 0, "total": 3, "city": "", "province": "Coquimbo", "country": "Chile"}}, {"type": "Feature", "geometry": {"type": "Point", "coordinates": [-71.666667, -35.433333000000005]}, "properties": {"date": "2020-03-31", "new": 0, "total": 6, "city": "", "province": "Maule", "country": "Chile"}}, {"type": "Feature", "geometry": {"type": "Point", "coordinates": [-72.666667, -38.9]}, "properties": {"date": "2020-03-31", "new": 55, "total": 142, "city": "", "province": "Araucania", "country": "Chile"}}, {"type": "Feature", "geometry": {"type": "Point", "coordinates": [-71.95, -36.616667]}, "properties": {"date": "2020-03-31", "new": 16, "total": 61, "city": "", "province": "Nuble", "country": "Chile"}}, {"type": "Feature", "geometry": {"type": "Point", "coordinates": [-65.4105, -36.6354]}, "properties": {"date": "2020-03-31", "new": 0, "total": 5, "city": "", "province": "", "country": "Argentina"}}, {"type": "Feature", "geometry": {"type": "Point", "coordinates": [-73.241667, -39.808333000000005]}, "properties": {"date": "2020-03-31", "new": 11, "total": 31, "city": "", "province": "Los Rios", "country": "Chile"}}, {"type": "Feature", "geometry": {"type": "Point", "coordinates": [-72.936667, -41.471667]}, "properties": {"date": "2020-03-31", "new": 23, "total": 63, "city": "", "province": "Los Lagos", "country": "Chile"}}, {"type": "Feature", "geometry": {"type": "Point", "coordinates": [-70.93333299999999, -53.166667000000004]}, "properties": {"date": "2020-03-31", "new": 24, "total": 39, "city": "", "province": "Magallanes", "country": "Chile"}}, {"type": "Feature", "geometry": {"type": "Point", "coordinates": [-70.314444, -18.475]}, "properties": {"date": "2020-03-31", "new": 0, "total": 3, "city": "", "province": "Arica Y Parinacota", "country": "Chile"}}, {"type": "Feature", "geometry": {"type": "Point", "coordinates": [-69.333333, -20.283333]}, "properties": {"date": "2020-03-31", "new": 2, "total": 5, "city": "", "province": "Tarapaca", "country": "Chile"}}, {"type": "Feature", "geometry": {"type": "Point", "coordinates": [-70.4, -23.65]}, "properties": {"date": "2020-03-31", "new": 0, "total": 9, "city": "", "province": "Antofagasta", "country": "Chile"}}, {"type": "Feature", "geometry": {"type": "Point", "coordinates": [-73.05, -36.833333]}, "properties": {"date": "2020-03-31", "new": 15, "total": 47, "city": "", "province": "Biobio", "country": "Chile"}}, {"type": "Feature", "geometry": {"type": "Point", "coordinates": [-71.343333, -29.953056]}, "properties": {"date": "2020-03-31", "new": 1, "total": 13, "city": "", "province": "Coquimbo", "country": "Chile"}}, {"type": "Feature", "geometry": {"type": "Point", "coordinates": [-71.616667, -33.05]}, "properties": {"date": "2020-03-31", "new": 0, "total": 34, "city": "", "province": "Valparaiso", "country": "Chile"}}, {"type": "Feature", "geometry": {"type": "Point", "coordinates": [-70.666667, -33.45]}, "properties": {"date": "2020-03-31", "new": 125, "total": 342, "city": "Santiago", "province": "Metropolitan Region", "country": "Chile"}}, {"type": "Feature", "geometry": {"type": "Point", "coordinates": [-71.666667, -35.433333000000005]}, "properties": {"date": "2020-03-31", "new": 8, "total": 30, "city": "", "province": "Maule", "country": "Chile"}}, {"type": "Feature", "geometry": {"type": "Point", "coordinates": [-56.9909195, -25.2510099]}, "properties": {"date": "2020-03-31", "new": 0, "total": 1, "city": "", "province": "Cordillera", "country": "Paraguay"}}, {"type": "Feature", "geometry": {"type": "Point", "coordinates": [-57.5980891, -25.2968527]}, "properties": {"date": "2020-03-31", "new": 2, "total": 2, "city": "Asuncion", "province": "Central", "country": "Paraguay"}}, {"type": "Feature", "geometry": {"type": "Point", "coordinates": [-57.19062660000001, -26.9855385]}, "properties": {"date": "2020-03-31", "new": 1, "total": 1, "city": "", "province": "Misiones", "country": "Paraguay"}}, {"type": "Feature", "geometry": {"type": "Point", "coordinates": [-79.80982182, 37.55531756]}, "properties": {"date": "2020-03-31", "new": 0, "total": 2, "city": "Botetourt", "province": "Virginia", "country": "United States"}}, {"type": "Feature", "geometry": {"type": "Point", "coordinates": [-77.58680140000001, 37.37373208]}, "properties": {"date": "2020-03-31", "new": 0, "total": 9, "city": "Chesterfield", "province": "Virginia", "country": "United States"}}, {"type": "Feature", "geometry": {"type": "Point", "coordinates": [-77.95630870000002, 38.48199985]}, "properties": {"date": "2020-03-31", "new": 0, "total": 1, "city": "Culpeper", "province": "Virginia", "country": "United States"}}, {"type": "Feature", "geometry": {"type": "Point", "coordinates": [-77.27565836, 38.83677558]}, "properties": {"date": "2020-03-31", "new": 0, "total": 36, "city": "Fairfax", "province": "Virginia", "country": "United States"}}, {"type": "Feature", "geometry": {"type": "Point", "coordinates": [-78.25974949, 39.20172582]}, "properties": {"date": "2020-03-31", "new": 0, "total": 2, "city": "Frederick", "province": "Virginia", "country": "United States"}}, {"type": "Feature", "geometry": {"type": "Point", "coordinates": [-76.53524337, 37.40809042]}, "properties": {"date": "2020-03-31", "new": 0, "total": 1, "city": "Gloucester", "province": "Virginia", "country": "United States"}}, {"type": "Feature", "geometry": {"type": "Point", "coordinates": [-77.56351439, 36.67878901]}, "properties": {"date": "2020-03-31", "new": 0, "total": 2, "city": "Greensville", "province": "Virginia", "country": "United States"}}, {"type": "Feature", "geometry": {"type": "Point", "coordinates": [-77.49464673, 37.7583355]}, "properties": {"date": "2020-03-31", "new": 0, "total": 1, "city": "Hanover", "province": "Virginia", "country": "United States"}}, {"type": "Feature", "geometry": {"type": "Point", "coordinates": [-77.39326555, 37.53460572]}, "properties": {"date": "2020-03-31", "new": 0, "total": 4, "city": "Henrico", "province": "Virginia", "country": "United States"}}, {"type": "Feature", "geometry": {"type": "Point", "coordinates": [-79.87634026, 36.68542395]}, "properties": {"date": "2020-03-31", "new": 0, "total": 1, "city": "Henry", "province": "Virginia", "country": "United States"}}, {"type": "Feature", "geometry": {"type": "Point", "coordinates": [-76.76950618, 37.31156958]}, "properties": {"date": "2020-03-31", "new": 0, "total": 3, "city": "James City", "province": "Virginia", "country": "United States"}}, {"type": "Feature", "geometry": {"type": "Point", "coordinates": [-77.15852768, 38.26818502]}, "properties": {"date": "2020-03-31", "new": 0, "total": 1, "city": "King George", "province": "Virginia", "country": "United States"}}, {"type": "Feature", "geometry": {"type": "Point", "coordinates": [-77.09384941, 37.70965316]}, "properties": {"date": "2020-03-31", "new": 0, "total": 1, "city": "King William", "province": "Virginia", "country": "United States"}}, {"type": "Feature", "geometry": {"type": "Point", "coordinates": [-77.96274807, 37.97850256]}, "properties": {"date": "2020-03-31", "new": 0, "total": 2, "city": "Louisa", "province": "Virginia", "country": "United States"}}, {"type": "Feature", "geometry": {"type": "Point", "coordinates": [-77.91267882, 37.55016038]}, "properties": {"date": "2020-03-31", "new": 0, "total": 2, "city": "Powhatan", "province": "Virginia", "country": "United States"}}, {"type": "Feature", "geometry": {"type": "Point", "coordinates": [-77.22922187, 37.18497668]}, "properties": {"date": "2020-03-31", "new": 0, "total": 1, "city": "Prince George", "province": "Virginia", "country": "United States"}}, {"type": "Feature", "geometry": {"type": "Point", "coordinates": [-77.48713689, 38.70916224]}, "properties": {"date": "2020-03-31", "new": 0, "total": 7, "city": "Prince William", "province": "Virginia", "country": "United States"}}, {"type": "Feature", "geometry": {"type": "Point", "coordinates": [-78.87260325, 38.51006137]}, "properties": {"date": "2020-03-31", "new": 0, "total": 1, "city": "Rockingham", "province": "Virginia", "country": "United States"}}, {"type": "Feature", "geometry": {"type": "Point", "coordinates": [-78.56813762, 38.85905135]}, "properties": {"date": "2020-03-31", "new": 0, "total": 2, "city": "Shenandoah", "province": "Virginia", "country": "United States"}}, {"type": "Feature", "geometry": {"type": "Point", "coordinates": [-81.53344948, 36.84455636]}, "properties": {"date": "2020-03-31", "new": 0, "total": 1, "city": "Smyth", "province": "Virginia", "country": "United States"}}, {"type": "Feature", "geometry": {"type": "Point", "coordinates": [-77.655399, 38.18574462]}, "properties": {"date": "2020-03-31", "new": 0, "total": 3, "city": "Spotsylvania", "province": "Virginia", "country": "United States"}}, {"type": "Feature", "geometry": {"type": "Point", "coordinates": [-77.45917053, 38.41758738]}, "properties": {"date": "2020-03-31", "new": 0, "total": 9, "city": "Stafford", "province": "Virginia", "country": "United States"}}, {"type": "Feature", "geometry": {"type": "Point", "coordinates": [-81.56685568, 37.12191123]}, "properties": {"date": "2020-03-31", "new": 0, "total": 1, "city": "Tazewell", "province": "Virginia", "country": "United States"}}, {"type": "Feature", "geometry": {"type": "Point", "coordinates": [-76.54412815, 37.24374789]}, "properties": {"date": "2020-03-31", "new": 0, "total": 2, "city": "York", "province": "Virginia", "country": "United States"}}, {"type": "Feature", "geometry": {"type": "Point", "coordinates": [-77.08183073, 38.814003]}, "properties": {"date": "2020-03-31", "new": 0, "total": 1, "city": "Alexandria", "province": "Virginia", "country": "United States"}}, {"type": "Feature", "geometry": {"type": "Point", "coordinates": [-78.48569588, 38.03527919]}, "properties": {"date": "2020-03-31", "new": 0, "total": 1, "city": "Charlottesville", "province": "Virginia", "country": "United States"}}, {"type": "Feature", "geometry": {"type": "Point", "coordinates": [-76.30545744, 36.67670048]}, "properties": {"date": "2020-03-31", "new": 0, "total": 1, "city": "Chesapeake", "province": "Virginia", "country": "United States"}}, {"type": "Feature", "geometry": {"type": "Point", "coordinates": [-77.29779640000002, 38.85157547]}, "properties": {"date": "2020-03-31", "new": 0, "total": 1, "city": "Fairfax City", "province": "Virginia", "country": "United States"}}, {"type": "Feature", "geometry": {"type": "Point", "coordinates": [-76.35879121, 37.03513786]}, "properties": {"date": "2020-03-31", "new": 0, "total": 2, "city": "Hampton", "province": "Virginia", "country": "United States"}}, {"type": "Feature", "geometry": {"type": "Point", "coordinates": [-78.87536254, 38.43542574]}, "properties": {"date": "2020-03-31", "new": 0, "total": 1, "city": "Harrisonburg", "province": "Virginia", "country": "United States"}}, {"type": "Feature", "geometry": {"type": "Point", "coordinates": [-77.29754684, 37.29186313]}, "properties": {"date": "2020-03-31", "new": 0, "total": 2, "city": "Hopewell", "province": "Virginia", "country": "United States"}}, {"type": "Feature", "geometry": {"type": "Point", "coordinates": [-79.19888138, 37.40021399]}, "properties": {"date": "2020-03-31", "new": 0, "total": 1, "city": "Lynchburg", "province": "Virginia", "country": "United States"}}, {"type": "Feature", "geometry": {"type": "Point", "coordinates": [-77.48509905, 38.7464321]}, "properties": {"date": "2020-03-31", "new": 0, "total": 2, "city": "Manassas", "province": "Virginia", "country": "United States"}}, {"type": "Feature", "geometry": {"type": "Point", "coordinates": [-76.51754109, 37.08166899]}, "properties": {"date": "2020-03-31", "new": 0, "total": 1, "city": "Newport News", "province": "Virginia", "country": "United States"}}, {"type": "Feature", "geometry": {"type": "Point", "coordinates": [-76.26420872, 36.89934014]}, "properties": {"date": "2020-03-31", "new": 0, "total": 3, "city": "Norfolk", "province": "Virginia", "country": "United States"}}, {"type": "Feature", "geometry": {"type": "Point", "coordinates": [-77.39368102, 37.20530399]}, "properties": {"date": "2020-03-31", "new": 0, "total": 2, "city": "Petersburg", "province": "Virginia", "country": "United States"}}, {"type": "Feature", "geometry": {"type": "Point", "coordinates": [-79.96189766, 37.27791025]}, "properties": {"date": "2020-03-31", "new": 0, "total": 4, "city": "Roanoke City", "province": "Virginia", "country": "United States"}}, {"type": "Feature", "geometry": {"type": "Point", "coordinates": [-76.63603554, 36.70155394]}, "properties": {"date": "2020-03-31", "new": 0, "total": 2, "city": "Suffolk", "province": "Virginia", "country": "United States"}}, {"type": "Feature", "geometry": {"type": "Point", "coordinates": [-76.04566934, 36.73285734]}, "properties": {"date": "2020-03-31", "new": 0, "total": 3, "city": "Virginia Beach", "province": "Virginia", "country": "United States"}}, {"type": "Feature", "geometry": {"type": "Point", "coordinates": [-78.17325058, 39.17054517]}, "properties": {"date": "2020-03-31", "new": 0, "total": 2, "city": "Winchester", "province": "Virginia", "country": "United States"}}, {"type": "Feature", "geometry": {"type": "Point", "coordinates": [-118.56017340000001, 46.98299757]}, "properties": {"date": "2020-03-31", "new": 0, "total": 2, "city": "Adams", "province": "Washington", "country": "United States"}}, {"type": "Feature", "geometry": {"type": "Point", "coordinates": [-119.51208340000001, 46.23946995]}, "properties": {"date": "2020-03-31", "new": 0, "total": 46, "city": "Benton", "province": "Washington", "country": "United States"}}, {"type": "Feature", "geometry": {"type": "Point", "coordinates": [-120.6173956, 47.87046092]}, "properties": {"date": "2020-03-31", "new": 0, "total": 1, "city": "Chelan", "province": "Washington", "country": "United States"}}, {"type": "Feature", "geometry": {"type": "Point", "coordinates": [-123.92263190000001, 48.04754642]}, "properties": {"date": "2020-03-31", "new": 0, "total": 1, "city": "Clallam", "province": "Washington", "country": "United States"}}, {"type": "Feature", "geometry": {"type": "Point", "coordinates": [-122.6782231, 46.19074721]}, "properties": {"date": "2020-03-31", "new": 0, "total": 4, "city": "Cowlitz", "province": "Washington", "country": "United States"}}, {"type": "Feature", "geometry": {"type": "Point", "coordinates": [-118.9018212, 46.53351425]}, "properties": {"date": "2020-03-31", "new": 0, "total": 21, "city": "Franklin", "province": "Washington", "country": "United States"}}, {"type": "Feature", "geometry": {"type": "Point", "coordinates": [-119.4500749, 47.20753737]}, "properties": {"date": "2020-03-31", "new": 0, "total": 9, "city": "Grant", "province": "Washington", "country": "United States"}}, {"type": "Feature", "geometry": {"type": "Point", "coordinates": [-122.5216407, 48.14713305]}, "properties": {"date": "2020-03-31", "new": 0, "total": 12, "city": "Island", "province": "Washington", "country": "United States"}}, {"type": "Feature", "geometry": {"type": "Point", "coordinates": [-123.56097040000002, 47.75003077]}, "properties": {"date": "2020-03-31", "new": 0, "total": 1, "city": "Jefferson", "province": "Washington", "country": "United States"}}, {"type": "Feature", "geometry": {"type": "Point", "coordinates": [-121.8346131, 47.49137892]}, "properties": {"date": "2020-03-31", "new": 0, "total": 2, "city": "King", "province": "Washington", "country": "United States"}}, {"type": "Feature", "geometry": {"type": "Point", "coordinates": [-122.6436061, 47.63479026]}, "properties": {"date": "2020-03-31", "new": 0, "total": 6, "city": "Kitsap", "province": "Washington", "country": "United States"}}, {"type": "Feature", "geometry": {"type": "Point", "coordinates": [-120.67943899999999, 47.12521214]}, "properties": {"date": "2020-03-31", "new": 0, "total": 1, "city": "Kittitas", "province": "Washington", "country": "United States"}}, {"type": "Feature", "geometry": {"type": "Point", "coordinates": [-120.7913598, 45.87325839]}, "properties": {"date": "2020-03-31", "new": 0, "total": 1, "city": "Klickitat", "province": "Washington", "country": "United States"}}, {"type": "Feature", "geometry": {"type": "Point", "coordinates": [-122.39257690000001, 46.57756476]}, "properties": {"date": "2020-03-31", "new": 0, "total": 3, "city": "Lewis", "province": "Washington", "country": "United States"}}, {"type": "Feature", "geometry": {"type": "Point", "coordinates": [-121.766131, 48.48171488]}, "properties": {"date": "2020-03-31", "new": 0, "total": 2, "city": "Skagit", "province": "Washington", "country": "United States"}}, {"type": "Feature", "geometry": {"type": "Point", "coordinates": [-121.7170703, 48.04615983]}, "properties": {"date": "2020-03-31", "new": 0, "total": 156, "city": "Snohomish", "province": "Washington", "country": "United States"}}, {"type": "Feature", "geometry": {"type": "Point", "coordinates": [-117.4046494, 47.62113146]}, "properties": {"date": "2020-03-31", "new": 0, "total": 28, "city": "Spokane", "province": "Washington", "country": "United States"}}, {"type": "Feature", "geometry": {"type": "Point", "coordinates": [-122.82906559999999, 46.9291895]}, "properties": {"date": "2020-03-31", "new": 0, "total": 3, "city": "Thurston", "province": "Washington", "country": "United States"}}, {"type": "Feature", "geometry": {"type": "Point", "coordinates": [-118.4775539, 46.23040051]}, "properties": {"date": "2020-03-31", "new": 0, "total": 1, "city": "Walla Walla", "province": "Washington", "country": "United States"}}, {"type": "Feature", "geometry": {"type": "Point", "coordinates": [-117.52417630000001, 46.90022523]}, "properties": {"date": "2020-03-31", "new": 0, "total": 2, "city": "Whitman", "province": "Washington", "country": "United States"}}, {"type": "Feature", "geometry": {"type": "Point", "coordinates": [-120.73801259999999, 46.45738486]}, "properties": {"date": "2020-03-31", "new": 0, "total": 7, "city": "Yakima", "province": "Washington", "country": "United States"}}, {"type": "Feature", "geometry": {"type": "Point", "coordinates": [-78.02414609, 39.46704621]}, "properties": {"date": "2020-03-31", "new": 0, "total": 4, "city": "Berkeley", "province": "West Virginia", "country": "United States"}}, {"type": "Feature", "geometry": {"type": "Point", "coordinates": [-82.23855912, 38.42424062]}, "properties": {"date": "2020-03-31", "new": 0, "total": 1, "city": "Cabell", "province": "West Virginia", "country": "United States"}}, {"type": "Feature", "geometry": {"type": "Point", "coordinates": [-80.45335881, 37.9463652]}, "properties": {"date": "2020-03-31", "new": 0, "total": 1, "city": "Greenbrier", "province": "West Virginia", "country": "United States"}}, {"type": "Feature", "geometry": {"type": "Point", "coordinates": [-80.37919577, 39.2853852]}, "properties": {"date": "2020-03-31", "new": 0, "total": 5, "city": "Harrison", "province": "West Virginia", "country": "United States"}}, {"type": "Feature", "geometry": {"type": "Point", "coordinates": [-81.68148753, 38.84263974]}, "properties": {"date": "2020-03-31", "new": 0, "total": 1, "city": "Jackson", "province": "West Virginia", "country": "United States"}}, {"type": "Feature", "geometry": {"type": "Point", "coordinates": [-77.86014147, 39.30776166]}, "properties": {"date": "2020-03-31", "new": 0, "total": 2, "city": "Jefferson", "province": "West Virginia", "country": "United States"}}, {"type": "Feature", "geometry": {"type": "Point", "coordinates": [-81.52857054, 38.33860077]}, "properties": {"date": "2020-03-31", "new": 0, "total": 4, "city": "Kanawha", "province": "West Virginia", "country": "United States"}}, {"type": "Feature", "geometry": {"type": "Point", "coordinates": [-81.93528571, 37.8299889]}, "properties": {"date": "2020-03-31", "new": 0, "total": 1, "city": "Logan", "province": "West Virginia", "country": "United States"}}, {"type": "Feature", "geometry": {"type": "Point", "coordinates": [-80.04766838, 39.63218457]}, "properties": {"date": "2020-03-31", "new": 0, "total": 2, "city": "Monongalia", "province": "West Virginia", "country": "United States"}}, {"type": "Feature", "geometry": {"type": "Point", "coordinates": [-78.26311676, 39.55439028]}, "properties": {"date": "2020-03-31", "new": 0, "total": 1, "city": "Morgan", "province": "West Virginia", "country": "United States"}}, {"type": "Feature", "geometry": {"type": "Point", "coordinates": [-80.62203992, 40.0955451]}, "properties": {"date": "2020-03-31", "new": 0, "total": 3, "city": "Ohio", "province": "West Virginia", "country": "United States"}}, {"type": "Feature", "geometry": {"type": "Point", "coordinates": [-79.66712803, 39.46770987]}, "properties": {"date": "2020-03-31", "new": 0, "total": 1, "city": "Preston", "province": "West Virginia", "country": "United States"}}, {"type": "Feature", "geometry": {"type": "Point", "coordinates": [-81.9082131, 38.50782345]}, "properties": {"date": "2020-03-31", "new": 0, "total": 1, "city": "Putnam", "province": "West Virginia", "country": "United States"}}, {"type": "Feature", "geometry": {"type": "Point", "coordinates": [-79.87919615, 38.769899]}, "properties": {"date": "2020-03-31", "new": 0, "total": 1, "city": "Randolph", "province": "West Virginia", "country": "United States"}}, {"type": "Feature", "geometry": {"type": "Point", "coordinates": [-81.35243568, 38.71622686]}, "properties": {"date": "2020-03-31", "new": 0, "total": 2, "city": "Roane", "province": "West Virginia", "country": "United States"}}, {"type": "Feature", "geometry": {"type": "Point", "coordinates": [-80.64016540000001, 39.6065771]}, "properties": {"date": "2020-03-31", "new": 0, "total": 1, "city": "Wetzel", "province": "West Virginia", "country": "United States"}}, {"type": "Feature", "geometry": {"type": "Point", "coordinates": [-81.37473928, 39.02775007]}, "properties": {"date": "2020-03-31", "new": 0, "total": 1, "city": "Wirt", "province": "West Virginia", "country": "United States"}}, {"type": "Feature", "geometry": {"type": "Point", "coordinates": [-88.00411844, 44.452655299999996]}, "properties": {"date": "2020-03-31", "new": 0, "total": 1, "city": "Brown", "province": "Wisconsin", "country": "United States"}}, {"type": "Feature", "geometry": {"type": "Point", "coordinates": [-91.28068855, 45.06939744]}, "properties": {"date": "2020-03-31", "new": 0, "total": 3, "city": "Chippewa", "province": "Wisconsin", "country": "United States"}}, {"type": "Feature", "geometry": {"type": "Point", "coordinates": [-89.41733797, 43.06601594]}, "properties": {"date": "2020-03-31", "new": 0, "total": 9, "city": "Dane", "province": "Wisconsin", "country": "United States"}}, {"type": "Feature", "geometry": {"type": "Point", "coordinates": [-88.48885325, 43.75354908]}, "properties": {"date": "2020-03-31", "new": 0, "total": 1, "city": "Fond du Lac", "province": "Wisconsin", "country": "United States"}}, {"type": "Feature", "geometry": {"type": "Point", "coordinates": [-89.60243287, 42.6794956]}, "properties": {"date": "2020-03-31", "new": 0, "total": 1, "city": "Green", "province": "Wisconsin", "country": "United States"}}, {"type": "Feature", "geometry": {"type": "Point", "coordinates": [-90.80566792, 44.31864893]}, "properties": {"date": "2020-03-31", "new": 0, "total": 2, "city": "Jackson", "province": "Wisconsin", "country": "United States"}}, {"type": "Feature", "geometry": {"type": "Point", "coordinates": [-88.77529134, 43.02054068]}, "properties": {"date": "2020-03-31", "new": 0, "total": 2, "city": "Jefferson", "province": "Wisconsin", "country": "United States"}}, {"type": "Feature", "geometry": {"type": "Point", "coordinates": [-88.04051686, 42.57639354]}, "properties": {"date": "2020-03-31", "new": 0, "total": 1, "city": "Kenosha", "province": "Wisconsin", "country": "United States"}}, {"type": "Feature", "geometry": {"type": "Point", "coordinates": [-91.11451093, 43.90632465]}, "properties": {"date": "2020-03-31", "new": 0, "total": 1, "city": "La Crosse", "province": "Wisconsin", "country": "United States"}}, {"type": "Feature", "geometry": {"type": "Point", "coordinates": [-89.75863384, 44.89792533]}, "properties": {"date": "2020-03-31", "new": 0, "total": 1, "city": "Marathon", "province": "Wisconsin", "country": "United States"}}, {"type": "Feature", "geometry": {"type": "Point", "coordinates": [-89.40073763, 43.81911946]}, "properties": {"date": "2020-03-31", "new": 0, "total": 2, "city": "Marquette", "province": "Wisconsin", "country": "United States"}}, {"type": "Feature", "geometry": {"type": "Point", "coordinates": [-87.96733172, 43.00486062]}, "properties": {"date": "2020-03-31", "new": 0, "total": 11, "city": "Milwaukee", "province": "Wisconsin", "country": "United States"}}, {"type": "Feature", "geometry": {"type": "Point", "coordinates": [-89.51944105, 45.70677897]}, "properties": {"date": "2020-03-31", "new": 0, "total": 2, "city": "Oneida", "province": "Wisconsin", "country": "United States"}}, {"type": "Feature", "geometry": {"type": "Point", "coordinates": [-88.46565023, 44.41578887]}, "properties": {"date": "2020-03-31", "new": 0, "total": 3, "city": "Outagamie", "province": "Wisconsin", "country": "United States"}}, {"type": "Feature", "geometry": {"type": "Point", "coordinates": [-87.94625009, 43.38352225]}, "properties": {"date": "2020-03-31", "new": 0, "total": 2, "city": "Ozaukee", "province": "Wisconsin", "country": "United States"}}, {"type": "Feature", "geometry": {"type": "Point", "coordinates": [-92.4224416, 44.71850291]}, "properties": {"date": "2020-03-31", "new": 0, "total": 2, "city": "Pierce", "province": "Wisconsin", "country": "United States"}}, {"type": "Feature", "geometry": {"type": "Point", "coordinates": [-88.05941254, 42.74753117]}, "properties": {"date": "2020-03-31", "new": 0, "total": 4, "city": "Racine", "province": "Wisconsin", "country": "United States"}}, {"type": "Feature", "geometry": {"type": "Point", "coordinates": [-89.07147900000002, 42.67151616]}, "properties": {"date": "2020-03-31", "new": 0, "total": 1, "city": "Rock", "province": "Wisconsin", "country": "United States"}}, {"type": "Feature", "geometry": {"type": "Point", "coordinates": [-89.94966132, 43.42574087]}, "properties": {"date": "2020-03-31", "new": 0, "total": 1, "city": "Sauk", "province": "Wisconsin", "country": "United States"}}, {"type": "Feature", "geometry": {"type": "Point", "coordinates": [-89.51719204, 46.05467334]}, "properties": {"date": "2020-03-31", "new": 0, "total": 1, "city": "Vilas", "province": "Wisconsin", "country": "United States"}}, {"type": "Feature", "geometry": {"type": "Point", "coordinates": [-88.22974712, 43.36863664]}, "properties": {"date": "2020-03-31", "new": 0, "total": 3, "city": "Washington", "province": "Wisconsin", "country": "United States"}}, {"type": "Feature", "geometry": {"type": "Point", "coordinates": [-88.30431188, 43.01833055]}, "properties": {"date": "2020-03-31", "new": 0, "total": 10, "city": "Waukesha", "province": "Wisconsin", "country": "United States"}}, {"type": "Feature", "geometry": {"type": "Point", "coordinates": [-88.64477096, 44.06886922]}, "properties": {"date": "2020-03-31", "new": 0, "total": 2, "city": "Winnebago", "province": "Wisconsin", "country": "United States"}}, {"type": "Feature", "geometry": {"type": "Point", "coordinates": [-108.6296893, 43.04183996]}, "properties": {"date": "2020-03-31", "new": 0, "total": 1, "city": "Fremont", "province": "Wyoming", "country": "United States"}}, {"type": "Feature", "geometry": {"type": "Point", "coordinates": [-104.6887497, 41.30702520000001]}, "properties": {"date": "2020-03-31", "new": 0, "total": 1, "city": "Laramie", "province": "Wyoming", "country": "United States"}}, {"type": "Feature", "geometry": {"type": "Point", "coordinates": [-106.79788500000001, 42.96180148]}, "properties": {"date": "2020-03-31", "new": 0, "total": 2, "city": "Natrona", "province": "Wyoming", "country": "United States"}}, {"type": "Feature", "geometry": {"type": "Point", "coordinates": [-106.8862389, 44.79048913]}, "properties": {"date": "2020-03-31", "new": 0, "total": 2, "city": "Sheridan", "province": "Wyoming", "country": "United States"}}, {"type": "Feature", "geometry": {"type": "Point", "coordinates": [-110.5890801, 43.93522482]}, "properties": {"date": "2020-03-31", "new": 0, "total": 2, "city": "Teton", "province": "Wyoming", "country": "United States"}}, {"type": "Feature", "geometry": {"type": "Point", "coordinates": [144.7937, 13.4443]}, "properties": {"date": "2020-03-31", "new": 11, "total": 11, "city": "", "province": "Guam", "country": "United States"}}, {"type": "Feature", "geometry": {"type": "Point", "coordinates": [145.6739, 15.0979]}, "properties": {"date": "2020-03-31", "new": 2, "total": 2, "city": "", "province": "Northern Mariana Islands", "country": "United States"}}, {"type": "Feature", "geometry": {"type": "Point", "coordinates": [-66.5901, 18.2208]}, "properties": {"date": "2020-03-31", "new": 65, "total": 65, "city": "", "province": "Puerto Rico", "country": "United States"}}, {"type": "Feature", "geometry": {"type": "Point", "coordinates": [-86.64408227, 32.53952745]}, "properties": {"date": "2020-03-31", "new": 1, "total": 1, "city": "Autauga", "province": "Alabama", "country": "United States"}}, {"type": "Feature", "geometry": {"type": "Point", "coordinates": [-87.72207058, 30.72774991]}, "properties": {"date": "2020-03-31", "new": 1, "total": 1, "city": "Baldwin", "province": "Alabama", "country": "United States"}}, {"type": "Feature", "geometry": {"type": "Point", "coordinates": [-87.12511459999996, 32.99642064]}, "properties": {"date": "2020-03-31", "new": 1, "total": 1, "city": "Bibb", "province": "Alabama", "country": "United States"}}, {"type": "Feature", "geometry": {"type": "Point", "coordinates": [-85.82630386, 33.77483727]}, "properties": {"date": "2020-03-31", "new": 1, "total": 1, "city": "Calhoun", "province": "Alabama", "country": "United States"}}, {"type": "Feature", "geometry": {"type": "Point", "coordinates": [-85.39072749, 32.91360079]}, "properties": {"date": "2020-03-31", "new": 3, "total": 3, "city": "Chambers", "province": "Alabama", "country": "United States"}}, {"type": "Feature", "geometry": {"type": "Point", "coordinates": [-86.7173256, 32.85044126]}, "properties": {"date": "2020-03-31", "new": 1, "total": 1, "city": "Chilton", "province": "Alabama", "country": "United States"}}, {"type": "Feature", "geometry": {"type": "Point", "coordinates": [-88.26564429999998, 32.02227341]}, "properties": {"date": "2020-03-31", "new": 1, "total": 1, "city": "Choctaw", "province": "Alabama", "country": "United States"}}, {"type": "Feature", "geometry": {"type": "Point", "coordinates": [-86.24847739, 32.93690146]}, "properties": {"date": "2020-03-31", "new": 1, "total": 1, "city": "Coosa", "province": "Alabama", "country": "United States"}}, {"type": "Feature", "geometry": {"type": "Point", "coordinates": [-86.04051873, 34.04567266]}, "properties": {"date": "2020-03-31", "new": 2, "total": 2, "city": "Etowah", "province": "Alabama", "country": "United States"}}, {"type": "Feature", "geometry": {"type": "Point", "coordinates": [-85.99750489, 34.78144169]}, "properties": {"date": "2020-03-31", "new": 3, "total": 3, "city": "Jackson", "province": "Alabama", "country": "United States"}}, {"type": "Feature", "geometry": {"type": "Point", "coordinates": [-86.89506300000002, 33.55554728]}, "properties": {"date": "2020-03-31", "new": 16, "total": 16, "city": "Jefferson", "province": "Alabama", "country": "United States"}}, {"type": "Feature", "geometry": {"type": "Point", "coordinates": [-85.35132246, 32.60154883]}, "properties": {"date": "2020-03-31", "new": 4, "total": 4, "city": "Lee", "province": "Alabama", "country": "United States"}}, {"type": "Feature", "geometry": {"type": "Point", "coordinates": [-86.98310072, 34.81185586]}, "properties": {"date": "2020-03-31", "new": 2, "total": 2, "city": "Limestone", "province": "Alabama", "country": "United States"}}, {"type": "Feature", "geometry": {"type": "Point", "coordinates": [-86.55069633, 34.76327133]}, "properties": {"date": "2020-03-31", "new": 8, "total": 8, "city": "Madison", "province": "Alabama", "country": "United States"}}, {"type": "Feature", "geometry": {"type": "Point", "coordinates": [-88.20842409, 30.78472347]}, "properties": {"date": "2020-03-31", "new": 8, "total": 8, "city": "Mobile", "province": "Alabama", "country": "United States"}}, {"type": "Feature", "geometry": {"type": "Point", "coordinates": [-86.20969272, 32.2206831]}, "properties": {"date": "2020-03-31", "new": 7, "total": 7, "city": "Montgomery", "province": "Alabama", "country": "United States"}}, {"type": "Feature", "geometry": {"type": "Point", "coordinates": [-86.85475946, 34.45500589]}, "properties": {"date": "2020-03-31", "new": 3, "total": 3, "city": "Morgan", "province": "Alabama", "country": "United States"}}, {"type": "Feature", "geometry": {"type": "Point", "coordinates": [-88.08818103, 33.28094866]}, "properties": {"date": "2020-03-31", "new": 2, "total": 2, "city": "Pickens", "province": "Alabama", "country": "United States"}}, {"type": "Feature", "geometry": {"type": "Point", "coordinates": [-86.31029372, 33.71902176]}, "properties": {"date": "2020-03-31", "new": 2, "total": 2, "city": "St. Clair", "province": "Alabama", "country": "United States"}}, {"type": "Feature", "geometry": {"type": "Point", "coordinates": [-86.66232561, 33.26879845]}, "properties": {"date": "2020-03-31", "new": 9, "total": 9, "city": "Shelby", "province": "Alabama", "country": "United States"}}, {"type": "Feature", "geometry": {"type": "Point", "coordinates": [-88.19916205, 32.59117397]}, "properties": {"date": "2020-03-31", "new": 1, "total": 1, "city": "Sumter", "province": "Alabama", "country": "United States"}}, {"type": "Feature", "geometry": {"type": "Point", "coordinates": [-86.16886178, 33.37823223]}, "properties": {"date": "2020-03-31", "new": 2, "total": 2, "city": "Talladega", "province": "Alabama", "country": "United States"}}, {"type": "Feature", "geometry": {"type": "Point", "coordinates": [-85.79833053, 32.86698258]}, "properties": {"date": "2020-03-31", "new": 4, "total": 4, "city": "Tallapoosa", "province": "Alabama", "country": "United States"}}, {"type": "Feature", "geometry": {"type": "Point", "coordinates": [-87.52556818, 33.28726072]}, "properties": {"date": "2020-03-31", "new": 5, "total": 5, "city": "Tuscaloosa", "province": "Alabama", "country": "United States"}}, {"type": "Feature", "geometry": {"type": "Point", "coordinates": [-87.30027177, 33.80270512]}, "properties": {"date": "2020-03-31", "new": 2, "total": 2, "city": "Walker", "province": "Alabama", "country": "United States"}}, {"type": "Feature", "geometry": {"type": "Point", "coordinates": [-87.30891118, 31.98773215]}, "properties": {"date": "2020-03-31", "new": 1, "total": 1, "city": "Wilcox", "province": "Alabama", "country": "United States"}}, {"type": "Feature", "geometry": {"type": "Point", "coordinates": [-149.14269860000005, 61.14998174]}, "properties": {"date": "2020-03-31", "new": 2, "total": 2, "city": "Anchorage", "province": "Alaska", "country": "United States"}}, {"type": "Feature", "geometry": {"type": "Point", "coordinates": [-146.5692662, 64.80726247]}, "properties": {"date": "2020-03-31", "new": 2, "total": 2, "city": "Fairbanks North Star", "province": "Alaska", "country": "United States"}}, {"type": "Feature", "geometry": {"type": "Point", "coordinates": [-149.5741743, 62.31305045]}, "properties": {"date": "2020-03-31", "new": 1, "total": 1, "city": "Matanuska-Susitna", "province": "Alaska", "country": "United States"}},