[{"type": "Feature", "geometry": {"type": "Point", "coordinates": [114.1291, 22.65389]}, "properties": {"date": "2020-01-21", "new": 8, "total": 8, "city": "Shenzhen City", "province": "Guangdong", "country": "China"}}, {"type": "Feature", "geometry": {"type": "Point", "coordinates": [110.1654, 21.10003]}, "properties": {"date": "2020-01-21", "new": 2, "total": 2, "city": "Zhanjiang City", "province": "Guangdong", "country": "China"}}, {"type": "Feature", "geometry": {"type": "Point", "coordinates": [126.9017, 34.86927]}, "properties": {"date": "2020-01-21", "new": 0, "total": 1, "city": "", "province": "South Jeolla", "country": "South Korea"}}, {"type": "Feature", "geometry": {"type": "Point", "coordinates": [113.361, 22.16925]}, "properties": {"date": "2020-01-21", "new": 1, "total": 4, "city": "Zhuhai City", "province": "Guangdong", "country": "China"}}, {"type": "Feature", "geometry": {"type": "Point", "coordinates": [116.2063, 40.20789]}, "properties": {"date": "2020-01-21", "new": 1, "total": 1, "city": "Changping District", "province": "Beijing", "country": "China"}}, {"type": "Feature", "geometry": {"type": "Point", "coordinates": [116.2063, 40.20789]}, "properties": {"date": "2020-01-21", "new": 1, "total": 1, "city": "Changping District", "province": "Beijing", "country": "China"}}, {"type": "Feature", "geometry": {"type": "Point", "coordinates": [113.46799999999999, 34.62931]}, "properties": {"date": "2020-01-21", "new": 1, "total": 1, "city": "Zhengzhou City", "province": "Henan", "country": "China"}}, {"type": "Feature", "geometry": {"type": "Point", "coordinates": [116.4172, 39.642379999999996]}, "properties": {"date": "2020-01-21", "new": 1, "total": 1, "city": "Daxing District", "province": "Beijing", "country": "China"}}, {"type": "Feature", "geometry": {"type": "Point", "coordinates": [116.4172, 39.642379999999996]}, "properties": {"date": "2020-01-21", "new": 1, "total": 1, "city": "Daxing District", "province": "Beijing", "country": "China"}}, {"type": "Feature", "geometry": {"type": "Point", "coordinates": [113.1532, 28.227590000000003]}, "properties": {"date": "2020-01-21", "new": 1, "total": 1, "city": "Changsha City", "province": "Hunan", "country": "China"}}, {"type": "Feature", "geometry": {"type": "Point", "coordinates": [116.6081, 28.218759999999996]}, "properties": {"date": "2020-01-21", "new": 1, "total": 1, "city": "Dongxiang County, Fuzhou City", "province": "Jiangxi", "country": "China"}}, {"type": "Feature", "geometry": {"type": "Point", "coordinates": [113.55, 22.166667]}, "properties": {"date": "2020-01-21", "new": 1, "total": 1, "city": "Border Checkpoint", "province": "Macau", "country": "China"}}, {"type": "Feature", "geometry": {"type": "Point", "coordinates": [139.339, 35.41557]}, "properties": {"date": "2020-01-21", "new": 0, "total": 1, "city": "", "province": "Kanagawa Prefecture", "country": "Japan"}}, {"type": "Feature", "geometry": {"type": "Point", "coordinates": [103.8256, 30.70291]}, "properties": {"date": "2020-01-21", "new": 1, "total": 1, "city": "Chengdu City", "province": "Sichuan", "country": "China"}}, {"type": "Feature", "geometry": {"type": "Point", "coordinates": [102.8739, 25.39236]}, "properties": {"date": "2020-01-21", "new": 1, "total": 1, "city": "Kunming City", "province": "Yunnan", "country": "China"}}, {"type": "Feature", "geometry": {"type": "Point", "coordinates": [120.4404, 27.905379999999997]}, "properties": {"date": "2020-01-21", "new": 2, "total": 2, "city": "Wenzhou City", "province": "Zhejiang", "country": "China"}}, {"type": "Feature", "geometry": {"type": "Point", "coordinates": [107.1356, 29.95723]}, "properties": {"date": "2020-01-21", "new": 1, "total": 1, "city": "Changshou District", "province": "Chongqing", "country": "China"}}, {"type": "Feature", "geometry": {"type": "Point", "coordinates": [108.4023, 30.706120000000002]}, "properties": {"date": "2020-01-21", "new": 2, "total": 2, "city": "Wanzhou District", "province": "Chongqing", "country": "China"}}, {"type": "Feature", "geometry": {"type": "Point", "coordinates": [109.8962, 31.11774]}, "properties": {"date": "2020-01-21", "new": 2, "total": 2, "city": "Wushan County", "province": "Chongqing", "country": "China"}}, {"type": "Feature", "geometry": {"type": "Point", "coordinates": [139.4468, 35.71145]}, "properties": {"date": "2020-01-21", "new": 0, "total": 1, "city": "", "province": "Tokyo", "country": "Japan"}}, {"type": "Feature", "geometry": {"type": "Point", "coordinates": [126.443389, 37.462026]}, "properties": {"date": "2020-01-21", "new": 0, "total": 1, "city": "Incheon Airport", "province": "", "country": "South Korea"}}, {"type": "Feature", "geometry": {"type": "Point", "coordinates": [121.2348, 25.0797]}, "properties": {"date": "2020-01-21", "new": 1, "total": 1, "city": "Taoyuan International Airport", "province": "Taiwan", "country": ""}}, {"type": "Feature", "geometry": {"type": "Point", "coordinates": [100.5363, 13.76658]}, "properties": {"date": "2020-01-21", "new": 0, "total": 2, "city": "Bangkok", "province": "Bangkok Metropolis", "country": "Thailand"}}, {"type": "Feature", "geometry": {"type": "Point", "coordinates": [114.1291, 22.65389]}, "properties": {"date": "2020-01-21", "new": 8, "total": 9, "city": "Shenzhen City", "province": "Guangdong", "country": "China"}}, {"type": "Feature", "geometry": {"type": "Point", "coordinates": [110.1654, 21.10003]}, "properties": {"date": "2020-01-21", "new": 2, "total": 2, "city": "Zhanjiang City", "province": "Guangdong", "country": "China"}}, {"type": "Feature", "geometry": {"type": "Point", "coordinates": [113.361, 22.16925]}, "properties": {"date": "2020-01-21", "new": 0, "total": 1, "city": "Zhuhai City", "province": "Guangdong", "country": "China"}}, {"type": "Feature", "geometry": {"type": "Point", "coordinates": [113.361, 22.16925]}, "properties": {"date": "2020-01-21", "new": 1, "total": 3, "city": "Zhuhai City", "province": "Guangdong", "country": "China"}}, {"type": "Feature", "geometry": {"type": "Point", "coordinates": [116.2063, 40.20789]}, "properties": {"date": "2020-01-21", "new": 1, "total": 1, "city": "Changping District", "province": "Beijing", "country": "China"}}, {"type": "Feature", "geometry": {"type": "Point", "coordinates": [116.2063, 40.20789]}, "properties": {"date": "2020-01-21", "new": 1, "total": 1, "city": "Changping District", "province": "Beijing", "country": "China"}}, {"type": "Feature", "geometry": {"type": "Point", "coordinates": [116.4172, 39.642379999999996]}, "properties": {"date": "2020-01-21", "new": 2, "total": 2, "city": "Daxing District", "province": "Beijing", "country": "China"}}, {"type": "Feature", "geometry": {"type": "Point", "coordinates": [113.46799999999999, 34.62931]}, "properties": {"date": "2020-01-21", "new": 1, "total": 1, "city": "Zhengzhou City", "province": "Henan", "country": "China"}}, {"type": "Feature", "geometry": {"type": "Point", "coordinates": [113.1532, 28.227590000000003]}, "properties": {"date": "2020-01-21", "new": 1, "total": 1, "city": "Changsha City", "province": "Hunan", "country": "China"}}, {"type": "Feature", "geometry": {"type": "Point", "coordinates": [116.6081, 28.218759999999996]}, "properties": {"date": "2020-01-21", "new": 1, "total": 1, "city": "Dongxiang County, Fuzhou City", "province": "Jiangxi", "country": "China"}}, {"type": "Feature", "geometry": {"type": "Point", "coordinates": [113.55, 22.166667]}, "properties": {"date": "2020-01-21", "new": 1, "total": 1, "city": "Landmark Hotel", "province": "Macau", "country": "China"}}, {"type": "Feature", "geometry": {"type": "Point", "coordinates": [139.339, 35.41557]}, "properties": {"date": "2020-01-21", "new": 0, "total": 1, "city": "", "province": "Kanagawa Prefecture", "country": "Japan"}}, {"type": "Feature", "geometry": {"type": "Point", "coordinates": [121.4555, 31.2045]}, "properties": {"date": "2020-01-21", "new": 0, "total": 5, "city": "", "province": "Shanghai", "country": "China"}}, {"type": "Feature", "geometry": {"type": "Point", "coordinates": [103.8256, 30.70291]}, "properties": {"date": "2020-01-21", "new": 1, "total": 1, "city": "Chengdu City", "province": "Sichuan", "country": "China"}}, {"type": "Feature", "geometry": {"type": "Point", "coordinates": [102.8739, 25.39236]}, "properties": {"date": "2020-01-21", "new": 1, "total": 1, "city": "Kunming City", "province": "Yunnan", "country": "China"}}, {"type": "Feature", "geometry": {"type": "Point", "coordinates": [120.4404, 27.905379999999997]}, "properties": {"date": "2020-01-21", "new": 2, "total": 2, "city": "Wenzhou City", "province": "Zhejiang", "country": "China"}}, {"type": "Feature", "geometry": {"type": "Point", "coordinates": [107.1356, 29.95723]}, "properties": {"date": "2020-01-21", "new": 1, "total": 1, "city": "Changshou District", "province": "Chongqing", "country": "China"}}, {"type": "Feature", "geometry": {"type": "Point", "coordinates": [108.4023, 30.706120000000002]}, "properties": {"date": "2020-01-21", "new": 2, "total": 2, "city": "Wanzhou District", "province": "Chongqing", "country": "China"}}, {"type": "Feature", "geometry": {"type": "Point", "coordinates": [109.8962, 31.11774]}, "properties": {"date": "2020-01-21", "new": 2, "total": 2, "city": "Wushan County", "province": "Chongqing", "country": "China"}}, {"type": "Feature", "geometry": {"type": "Point", "coordinates": [139.4468, 35.71145]}, "properties": {"date": "2020-01-21", "new": 0, "total": 1, "city": "", "province": "Tokyo", "country": "Japan"}}, {"type": "Feature", "geometry": {"type": "Point", "coordinates": [126.443389, 37.462026]}, "properties": {"date": "2020-01-21", "new": 0, "total": 1, "city": "Incheon Airport", "province": "", "country": "South Korea"}}, {"type": "Feature", "geometry": {"type": "Point", "coordinates": [121.2348, 25.0797]}, "properties": {"date": "2020-01-21", "new": 1, "total": 1, "city": "Taoyuan International Airport", "province": "Taiwan", "country": ""}}, {"type": "Feature", "geometry": {"type": "Point", "coordinates": [100.5363, 13.76658]}, "properties": {"date": "2020-01-21", "new": 0, "total": 2, "city": "Bangkok", "province": "Bangkok Metropolis", "country": "Thailand"}}]